{
"type": "FeatureCollection",
"crs": { "type": "name", "properties": { "name": "urn:ogc:def:crs:OGC:1.3:CRS84" } },
                                                                                
"features": [
{ "type": "Feature", "properties": { "OBJECTID": 1, "X": 401895.08, "Y": 139507.43, "ARC_STREET": "2601 18th Street, NE Washington, DC 20018", "NAME": "Center Care First Day Treatment Washingtonington Center for Aging Service", "TELEPHONE": "202-541-6150", "ADDRESS": "2601 18TH STREET NE", "TYPE": "Adult Day Care Services", "WEB_URL": "www.wcasdc.org", "WARD": "Ward 5", "ADDRID": 287131, "EMAIL": null }, "geometry": { "type": "Point", "coordinates": [ -76.978148249557293, 38.923446606878564 ] } },
{ "type": "Feature", "properties": { "OBJECTID": 2, "X": 401895.08, "Y": 139507.43, "ARC_STREET": "260118th Street, NW Washington, DC 20018", "NAME": "Center Care Day Treatment Program (Washington Center for Aging Services)", "TELEPHONE": "202-541-6105", "ADDRESS": "2601 18TH STREET NE", "TYPE": "Adult Day Care Services", "WEB_URL": null, "WARD": "Ward 5", "ADDRID": 287131, "EMAIL": null }, "geometry": { "type": "Point", "coordinates": [ -76.978148249557293, 38.923446606878564 ] } },
{ "type": "Feature", "properties": { "OBJECTID": 3, "X": 392921.6, "Y": 142256.5, "ARC_STREET": "4125 Albemarle Street, NW Washington, DC 20016 ", "NAME": "Isabella Breckinridge Center ", "TELEPHONE": "202-895-0238", "ADDRESS": "4125 ALBEMARLE STREET NW", "TYPE": "Adult Day Care Services", "WEB_URL": null, "WARD": "Ward 3", "ADDRID": 264423, "EMAIL": null }, "geometry": { "type": "Point", "coordinates": [ -77.081658630882885, 38.948184577388915 ] } },
{ "type": "Feature", "properties": { "OBJECTID": 4, "X": 392921.6, "Y": 142256.5, "ARC_STREET": "4125 Albemarle Street, Washington, NW DC 20016 ", "NAME": "Isabella Breckinridge Center ", "TELEPHONE": "202-895-0238", "ADDRESS": "4125 ALBEMARLE STREET NW", "TYPE": "Adult Day Care Services", "WEB_URL": null, "WARD": "Ward 3", "ADDRID": 264423, "EMAIL": null }, "geometry": { "type": "Point", "coordinates": [ -77.081658630882885, 38.948184577388915 ] } },
{ "type": "Feature", "properties": { "OBJECTID": 5, "X": 397700.04, "Y": 141830.91, "ARC_STREET": "4406 Georgia Ave, NW Washington, DC 20011", "NAME": "Brookland Senior Day Center ", "TELEPHONE": "202-722-8512", "ADDRESS": "4406 GEORGIA AVENUE NW", "TYPE": "Adult Day Care Services", "WEB_URL": null, "WARD": "Ward 4", "ADDRID": 252661, "EMAIL": null }, "geometry": { "type": "Point", "coordinates": [ -77.026533178932922, 38.944376251838484 ] } },
{ "type": "Feature", "properties": { "OBJECTID": 6, "X": 396742.3, "Y": 142356.35, "ARC_STREET": "4817 Blagden Avenue, NW Washington, DC 20011", "NAME": "Genevieve N. Johnson Senior Day Care Program ", "TELEPHONE": "202-723-8537", "ADDRESS": "4817 BLAGDEN AVENUE NW", "TYPE": "Adult Day Care Services", "WEB_URL": null, "WARD": "Ward 4", "ADDRID": 258753, "EMAIL": null }, "geometry": { "type": "Point", "coordinates": [ -77.037583559938355, 38.949106533182089 ] } },
{ "type": "Feature", "properties": { "OBJECTID": 7, "X": 396742.3, "Y": 142356.35, "ARC_STREET": "4817 Blagden Avenue, Washington, NW DC 20011", "NAME": "Genevie N. Johnson Senior Day Care Program  ", "TELEPHONE": "202-723-8537", "ADDRESS": "4817 BLAGDEN AVENUE NW", "TYPE": "Adult Day Care Services", "WEB_URL": null, "WARD": "Ward 4", "ADDRID": 258753, "EMAIL": null }, "geometry": { "type": "Point", "coordinates": [ -77.037583559938355, 38.949106533182089 ] } },
{ "type": "Feature", "properties": { "OBJECTID": 8, "X": 406482.26, "Y": 136618.76, "ARC_STREET": "5214 Foote Street, NE Washington. DC 20019", "NAME": "Renaissance Adult Day Health Care", "TELEPHONE": "202-388-6747", "ADDRESS": "5214 FOOTE STREET NE", "TYPE": "Adult Day Care Services", "WEB_URL": null, "WARD": "Ward 7", "ADDRID": 11574, "EMAIL": null }, "geometry": { "type": "Point", "coordinates": [ -76.925276237475387, 38.89740262141828 ] } },
{ "type": "Feature", "properties": { "OBJECTID": 9, "X": 400413.11, "Y": 134850.16, "ARC_STREET": "545 8th Street SE Washington, DC 20003", "NAME": "Progressive Habilitative Services ", "TELEPHONE": "202-545-0393", "ADDRESS": "545 8TH STREET SE", "TYPE": "Adult Day Care Services", "WEB_URL": null, "WARD": "Ward 6", "ADDRID": 289416, "EMAIL": null }, "geometry": { "type": "Point", "coordinates": [ -76.995241104853235, 38.881494206017607 ] } },
{ "type": "Feature", "properties": { "OBJECTID": 10, "X": 400383.82, "Y": 134351.84, "ARC_STREET": "770 M Street, SE Washington, DC 20003", "NAME": "PSI Golden Years Program ", "TELEPHONE": "202-547-3870", "ADDRESS": "770 M STREET SE", "TYPE": "Adult Day Care Services", "WEB_URL": null, "WARD": "Ward 6", "ADDRID": 288946, "EMAIL": null }, "geometry": { "type": "Point", "coordinates": [ -76.995578956126892, 38.877005156795114 ] } },
{ "type": "Feature", "properties": { "OBJECTID": 11, "X": 398969.98, "Y": 137112.78, "ARC_STREET": "901 First Street NW Washington, DC 20001", "NAME": "Unique Residential Care Center ", "TELEPHONE": "202-535-1100", "ADDRESS": "901 1ST STREET NW", "TYPE": "Adult Day Care Services", "WEB_URL": null, "WARD": "Ward 6", "ADDRID": 237152, "EMAIL": null }, "geometry": { "type": "Point", "coordinates": [ -77.011876867595717, 38.901876225159796 ] } },
{ "type": "Feature", "properties": { "OBJECTID": 12, "X": 397629.22, "Y": 137148.83, "ARC_STREET": "926 11th Street, NW Washington, DC 20002", "NAME": "Downtown Clusters Day Care Center Asbury Methodist Church ", "TELEPHONE": "202-347-7527", "ADDRESS": "926 11TH STREET NW", "TYPE": "Adult Day Care Services", "WEB_URL": null, "WARD": "Ward 2", "ADDRID": 301937, "EMAIL": null }, "geometry": { "type": "Point", "coordinates": [ -77.027333940926823, 38.902198382231255 ] } },
{ "type": "Feature", "properties": { "OBJECTID": 13, "X": 397629.22, "Y": 137148.83, "ARC_STREET": "926 11th Street, NW Washington, DC 20002", "NAME": "Downtown Clusters Adult Day Care Services\/Ashbury Methodist Church ", "TELEPHONE": "202-347-7527", "ADDRESS": "926 11TH STREET NW", "TYPE": "Adult Day Care Services", "WEB_URL": null, "WARD": "Ward 2", "ADDRID": 301937, "EMAIL": null }, "geometry": { "type": "Point", "coordinates": [ -77.027333940926823, 38.902198382231255 ] } },
{ "type": "Feature", "properties": { "OBJECTID": 14, "X": 400071.4, "Y": 137220.4, "ARC_STREET": "500 K Street, NE Washington, DC 20002", "NAME": "D.C Commission on Aging ", "TELEPHONE": "202-724-5622", "ADDRESS": "500 K STREET NE", "TYPE": "Advocacy and Ombudsman Service", "WEB_URL": null, "WARD": "Ward 6", "ADDRID": 300865, "EMAIL": null }, "geometry": { "type": "Point", "coordinates": [ -76.99917913773173, 38.9028463055378 ] } },
{ "type": "Feature", "properties": { "OBJECTID": 15, "X": 398246.73, "Y": 136501.31, "ARC_STREET": "601 E Street, NW Washington, DC 20049", "NAME": "Legal Counsel for the Elderly- AARP D.C Long-term Care Ombudsman Office", "TELEPHONE": "202-434-2190", "ADDRESS": "601 E STREET NW", "TYPE": "Advocacy and Ombudsman Service", "WEB_URL": null, "WARD": "Ward 2", "ADDRID": 226366, "EMAIL": null }, "geometry": { "type": "Point", "coordinates": [ -77.020213292825261, 38.896366737015555 ] } },
{ "type": "Feature", "properties": { "OBJECTID": 16, "X": 397472.05, "Y": 137281.07, "ARC_STREET": "1220 L Street, NW, St. 800 Washington, DC 20036", "NAME": "Terrific Inc. ", "TELEPHONE": "202-595-1990", "ADDRESS": "1220 L STREET NW", "TYPE": "Aging and Disability Resource Center", "WEB_URL": null, "WARD": "Ward 2", "ADDRID": 240921, "EMAIL": null }, "geometry": { "type": "Point", "coordinates": [ -77.029146369893894, 38.903389209117847 ] } },
{ "type": "Feature", "properties": { "OBJECTID": 17, "X": 397491.51, "Y": 138604.37, "ARC_STREET": "1222 T Street, NW Washington, DC 20009", "NAME": "Terrific Inc.", "TELEPHONE": "202-387-9000", "ADDRESS": "1222 T STREET NW", "TYPE": "Aging and Disability Resource Center", "WEB_URL": null, "WARD": "Ward 1", "ADDRID": 240851, "EMAIL": null }, "geometry": { "type": "Point", "coordinates": [ -77.028926855122094, 38.915310007311142 ] } },
{ "type": "Feature", "properties": { "OBJECTID": 18, "X": 402917.95, "Y": 140712.3, "ARC_STREET": "2900 Newton Street, NE Washington, DC 20018", "NAME": "Seabury Ward 5 Aging Services ", "TELEPHONE": "202-529-8701", "ADDRESS": "2900 NEWTON STREET NE", "TYPE": "Aging and Disability Resource Center", "WEB_URL": null, "WARD": "Ward 5", "ADDRID": 287312, "EMAIL": null }, "geometry": { "type": "Point", "coordinates": [ -76.966347406483422, 38.934297650950136 ] } },
{ "type": "Feature", "properties": { "OBJECTID": 19, "X": 404363.02, "Y": 136219.83, "ARC_STREET": "3917 Minnesota Ave, NE Washington, DC 20019", "NAME": "East River Family Strengthening Collaborative ", "TELEPHONE": "202-534-4880", "ADDRESS": "3917 MINNESOTA AVENUE NE", "TYPE": "Aging and Disability Resource Center", "WEB_URL": null, "WARD": "Ward 7", "ADDRID": 29135, "EMAIL": null }, "geometry": { "type": "Point", "coordinates": [ -76.949708890237844, 38.893821985801807 ] } },
{ "type": "Feature", "properties": { "OBJECTID": 20, "X": 392921.6, "Y": 142256.5, "ARC_STREET": "4125 Albemarle Street, NW, Washington, DC 20016 ", "NAME": "IONA Senior Services ", "TELEPHONE": "202-966-1055", "ADDRESS": "4125 ALBEMARLE STREET NW", "TYPE": "Aging and Disability Resource Center", "WEB_URL": null, "WARD": "Ward 3", "ADDRID": 264423, "EMAIL": null }, "geometry": { "type": "Point", "coordinates": [ -77.081658630882885, 38.948184577388915 ] } },
{ "type": "Feature", "properties": { "OBJECTID": 21, "X": 398334.57, "Y": 143325.34, "ARC_STREET": "418 Missouri Avenue, NW Washington, DC 20011", "NAME": "Terrific Inc. ", "TELEPHONE": "202-882-1824", "ADDRESS": "418 MISSOURI AVENUE NW", "TYPE": "Aging and Disability Resource Center", "WEB_URL": null, "WARD": "Ward 4", "ADDRID": 248804, "EMAIL": null }, "geometry": { "type": "Point", "coordinates": [ -77.019217269365583, 38.957839919138536 ] } },
{ "type": "Feature", "properties": { "OBJECTID": 22, "X": 400902.69, "Y": 129245.01, "ARC_STREET": "4301 9th Street, SE, Washington, DC 20032", "NAME": "Family Matters of Greater Washington ", "TELEPHONE": "202-562-6860", "ADDRESS": "4301 9TH STREET SE", "TYPE": "Aging and Disability Resource Center", "WEB_URL": null, "WARD": "Ward 8", "ADDRID": 298086, "EMAIL": null }, "geometry": { "type": "Point", "coordinates": [ -76.989605948796424, 38.831000250218473 ] } },
{ "type": "Feature", "properties": { "OBJECTID": 23, "X": 400564.34, "Y": 135883.88, "ARC_STREET": "901 A Street, NE, Washington, DC 20002", "NAME": "Seabury Ward 6 Aging Services ", "TELEPHONE": "202-397-1725", "ADDRESS": "901 A STREET NE", "TYPE": "Aging and Disability Resource Center", "WEB_URL": null, "WARD": "Ward 6", "ADDRID": 81685, "EMAIL": null }, "geometry": { "type": "Point", "coordinates": [ -76.993497299681707, 38.890806267019002 ] } },
{ "type": "Feature", "properties": { "OBJECTID": 24, "X": 396587.94, "Y": 137273.65, "ARC_STREET": "1025 Connecticut Avenue, NW Suite 1005 Washington, DC 20036", "NAME": "American Diabetes Association ", "TELEPHONE": "202-331-8303", "ADDRESS": "1025 CONNECTICUT AVENUE NW", "TYPE": "Caregiver Services and Associations ", "WEB_URL": null, "WARD": "Ward 2", "ADDRID": 241803, "EMAIL": null }, "geometry": { "type": "Point", "coordinates": [ -77.039339009002745, 38.903319379479143 ] } },
{ "type": "Feature", "properties": { "OBJECTID": 25, "X": 370910.33, "Y": 132505.33, "ARC_STREET": "11240 Waples Mill Road, Suite 402, Fairfax, VA 22030", "NAME": "Alzheimers Association ", "TELEPHONE": "703-359-4440", "ADDRESS": "11240 Waples Mill Road, Suite 402, Fairfax, VA 22030", "TYPE": "Caregiver Services and Associations ", "WEB_URL": null, "WARD": null, "ADDRID": null, "EMAIL": "www.alz.org" }, "geometry": { "type": "Point", "coordinates": [ -77.335165972935513, 38.859890050264788 ] } },
{ "type": "Feature", "properties": { "OBJECTID": 26, "X": 397533.79, "Y": 137345.22, "ARC_STREET": "1201 L Street, NW Washington, DC 20005 ", "NAME": "American Health Care Association of Nursing Homes ", "TELEPHONE": "202-842-4444", "ADDRESS": "1201 L STREET NW", "TYPE": "Caregiver Services and Associations ", "WEB_URL": null, "WARD": "Ward 2", "ADDRID": 218045, "EMAIL": "www.ahca.org " }, "geometry": { "type": "Point", "coordinates": [ -77.028434815720715, 38.903967270439416 ] } },
{ "type": "Feature", "properties": { "OBJECTID": 27, "X": 397189.88, "Y": 138842.23, "ARC_STREET": "2000 14th Street NW Suite 401, Washington, DC 20009", "NAME": "Office on African Affairs ", "TELEPHONE": "202-727-5634", "ADDRESS": "2000 14TH STREET NW", "TYPE": "Caregiver Services and Associations ", "WEB_URL": null, "WARD": "Ward 1", "ADDRID": 239976, "EMAIL": "www.oaa.dc.gov" }, "geometry": { "type": "Point", "coordinates": [ -77.032405824536426, 38.917451816556763 ] } },
{ "type": "Feature", "properties": { "OBJECTID": 28, "X": 393260.18, "Y": 136185.14, "ARC_STREET": "1701 Clarendon Boulevard, Arlington, VA 22209", "NAME": "American Chiropractic Association ", "TELEPHONE": "703-276-8800", "ADDRESS": "1701 Clarendon Boulevard, Arlington, VA 22209", "TYPE": "Caregiver Services and Associations ", "WEB_URL": null, "WARD": null, "ADDRID": null, "EMAIL": "www.americhiro.org  " }, "geometry": { "type": "Point", "coordinates": [ -77.077693167689304, 38.893494471819928 ] } },
{ "type": "Feature", "properties": { "OBJECTID": 29, "X": 397189.88, "Y": 138842.23, "ARC_STREET": "2000 14th Street NW, 2nd Floor, DC 20009", "NAME": "Office on Latino Affairs", "TELEPHONE": "202-671-2825", "ADDRESS": "2000 14TH STREET NW", "TYPE": "Caregiver Services and Associations ", "WEB_URL": null, "WARD": "Ward 1", "ADDRID": 239976, "EMAIL": "www.ola.dc.gov " }, "geometry": { "type": "Point", "coordinates": [ -77.032405824536426, 38.917451816556763 ] } },
{ "type": "Feature", "properties": { "OBJECTID": 30, "X": 392262.0, "Y": 146370.06, "ARC_STREET": "4400 East-West Highway, Suite 907, Bethesda, MD 20814", "NAME": "Aging Network Services (Tapaz House)", "TELEPHONE": "301-657-4329", "ADDRESS": "4400 East-West Highway, Suite 907, Bethesda, MD 20814", "TYPE": "Caregiver Services and Associations ", "WEB_URL": null, "WARD": null, "ADDRID": null, "EMAIL": "www.agingnets.com " }, "geometry": { "type": "Point", "coordinates": [ -77.089314193314891, 38.985234958882707 ] } },
{ "type": "Feature", "properties": { "OBJECTID": 31, "X": 398635.86, "Y": 136399.72, "ARC_STREET": "441 4th Street, NW, Suite 805S, Washington, DC 20001", "NAME": "Office on Asian and Pacific Islander Affairs ", "TELEPHONE": "202-727-3120", "ADDRESS": "441 4TH STREET NW", "TYPE": "Caregiver Services and Associations ", "WEB_URL": null, "WARD": "Ward 2", "ADDRID": 285552, "EMAIL": "www.apia.dc.gov " }, "geometry": { "type": "Point", "coordinates": [ -77.015727352990353, 38.895452267172132 ] } },
{ "type": "Feature", "properties": { "OBJECTID": 32, "X": 391848.82, "Y": 146175.16, "ARC_STREET": "4720 Montgomery Lane, P.O Box 31220, Bethesda, MD 20814", "NAME": "American Occupational Therapy Association ", "TELEPHONE": "301-652-2682", "ADDRESS": "4720 Montgomery Lane, P.O Box 31220, Bethesda, MD 20814", "TYPE": "Caregiver Services and Associations ", "WEB_URL": null, "WARD": null, "ADDRID": null, "EMAIL": "www.aota.org" }, "geometry": { "type": "Point", "coordinates": [ -77.094080790309604, 38.983475520004582 ] } },
{ "type": "Feature", "properties": { "OBJECTID": 33, "X": 398172.72, "Y": 135347.16, "ARC_STREET": "600 Maryland Ave., S.W, Suite 100 Washington, DC 20024", "NAME": "American Nurses Association", "TELEPHONE": "202-554-4444", "ADDRESS": "600 MARYLAND AVENUE SW", "TYPE": "Caregiver Services and Associations ", "WEB_URL": null, "WARD": "Ward 6", "ADDRID": 5831, "EMAIL": "www.nursingworld.org " }, "geometry": { "type": "Point", "coordinates": [ -77.021063380948718, 38.885969571197613 ] } },
{ "type": "Feature", "properties": { "OBJECTID": 34, "X": 398246.73, "Y": 136501.31, "ARC_STREET": "601 E Street, NW Washington, DC 20049", "NAME": "AARP", "TELEPHONE": "202-434-2277", "ADDRESS": "601 E STREET NW", "TYPE": "Caregiver Services and Associations ", "WEB_URL": null, "WARD": "Ward 2", "ADDRID": 226366, "EMAIL": "www.aarp.com " }, "geometry": { "type": "Point", "coordinates": [ -77.020213292825261, 38.896366737015555 ] } },
{ "type": "Feature", "properties": { "OBJECTID": 35, "X": 399177.1, "Y": 137473.68, "ARC_STREET": "1140 North Capitol Street, NW Washington, DC 20002", "NAME": "Sibley Plaza ", "TELEPHONE": "202-408-4700", "ADDRESS": "1140 NORTH CAPITOL STREET NW", "TYPE": "Congregate Meal Sites", "WEB_URL": null, "WARD": "Ward 6", "ADDRID": 285576, "EMAIL": null }, "geometry": { "type": "Point", "coordinates": [ -77.009489517617922, 38.905127558713772 ] } },
{ "type": "Feature", "properties": { "OBJECTID": 36, "X": 398849.56, "Y": 134233.65, "ARC_STREET": "1200 Delaware Avenue, SW Washington, DC 20024", "NAME": "Greenleaf Senior Building ", "TELEPHONE": "202-554-3100", "ADDRESS": "1200 DELAWARE AVENUE SW", "TYPE": "Congregate Meal Sites", "WEB_URL": null, "WARD": "Ward 6", "ADDRID": 72281, "EMAIL": null }, "geometry": { "type": "Point", "coordinates": [ -77.013260307224272, 38.875939784839723 ] } },
{ "type": "Feature", "properties": { "OBJECTID": 37, "X": 397500.46, "Y": 137555.4, "ARC_STREET": "1221 M Street, NW Washington, DC 20005", "NAME": "Claridge Towers", "TELEPHONE": "202-682-7503", "ADDRESS": "1221 M STREET NW", "TYPE": "Congregate Meal Sites", "WEB_URL": null, "WARD": "Ward 2", "ADDRID": 278959, "EMAIL": null }, "geometry": { "type": "Point", "coordinates": [ -77.028819836855618, 38.905860551676959 ] } },
{ "type": "Feature", "properties": { "OBJECTID": 38, "X": 397491.51, "Y": 138604.37, "ARC_STREET": "1222 T Street, NW Washington, DC 20009", "NAME": "Terrific Inc. ", "TELEPHONE": "202-387-9000", "ADDRESS": "1222 T STREET NW", "TYPE": "Congregate Meal Sites", "WEB_URL": null, "WARD": "Ward 1", "ADDRID": 240851, "EMAIL": null }, "geometry": { "type": "Point", "coordinates": [ -77.028926855122094, 38.915310007311142 ] } },
{ "type": "Feature", "properties": { "OBJECTID": 39, "X": 397491.51, "Y": 138604.37, "ARC_STREET": "1222 T Street, NW Washington, DC 20009", "NAME": "Terrific Inc. ", "TELEPHONE": "202-882-1824", "ADDRESS": "1222 T STREET NW", "TYPE": "Congregate Meal Sites", "WEB_URL": null, "WARD": "Ward 1", "ADDRID": 240851, "EMAIL": null }, "geometry": { "type": "Point", "coordinates": [ -77.028926855122094, 38.915310007311142 ] } },
{ "type": "Feature", "properties": { "OBJECTID": 40, "X": 397258.82, "Y": 137675.78, "ARC_STREET": "1226 Vermont Avenue, Washington, DC 20005", "NAME": "Oasis Senior Center for the Homeless ", "TELEPHONE": "202-265-2017", "ADDRESS": "1226 VERMONT AVENUE NW", "TYPE": "Congregate Meal Sites", "WEB_URL": null, "WARD": "Ward 2", "ADDRID": 240613, "EMAIL": null }, "geometry": { "type": "Point", "coordinates": [ -77.031606219194984, 38.906944256299482 ] } },
{ "type": "Feature", "properties": { "OBJECTID": 41, "X": 397305.72, "Y": 144706.25, "ARC_STREET": "1327 Van Buren, NW Washington, DC 20012", "NAME": "Ft. Stevens Recreation Center ", "TELEPHONE": "202-576-6916", "ADDRESS": "1327 VAN BUREN STREET NW", "TYPE": "Congregate Meal Sites", "WEB_URL": null, "WARD": "Ward 4", "ADDRID": 290152, "EMAIL": null }, "geometry": { "type": "Point", "coordinates": [ -77.031093104136175, 38.970276948866029 ] } },
{ "type": "Feature", "properties": { "OBJECTID": 42, "X": 405884.39, "Y": 137844.91, "ARC_STREET": "1350 49th Street, NE Washington, DC 20019", "NAME": "Deanwood Recreation Center ", "TELEPHONE": "202-671-3077", "ADDRESS": "1350 49TH STREET NE", "TYPE": "Congregate Meal Sites", "WEB_URL": null, "WARD": "Ward 7", "ADDRID": 307551, "EMAIL": null }, "geometry": { "type": "Point", "coordinates": [ -76.93215784256401, 38.908452418628208 ] } },
{ "type": "Feature", "properties": { "OBJECTID": 43, "X": 401359.1, "Y": 136967.29, "ARC_STREET": "1400 Florida Ave, NE Washington, DC 20002", "NAME": "Delta Towers ", "TELEPHONE": "202-529-8701", "ADDRESS": "1400 FLORIDA AVENUE NE", "TYPE": "Congregate Meal Sites", "WEB_URL": null, "WARD": "Ward 5", "ADDRID": 65280, "EMAIL": null }, "geometry": { "type": "Point", "coordinates": [ -76.984334189308655, 38.900565152942988 ] } },
{ "type": "Feature", "properties": { "OBJECTID": 44, "X": 397136.28, "Y": 137681.53, "ARC_STREET": "1424 N Street, NW Washington, DC 20005", "NAME": "James Apartment Building ", "TELEPHONE": "202-673-4460", "ADDRESS": "1420 N STREET NW", "TYPE": "Congregate Meal Sites", "WEB_URL": null, "WARD": "Ward 2", "ADDRID": 226615, "EMAIL": null }, "geometry": { "type": "Point", "coordinates": [ -77.0330190456515, 38.906995663545587 ] } },
{ "type": "Feature", "properties": { "OBJECTID": 45, "X": 397937.8, "Y": 138011.52, "ARC_STREET": "1507 9th Street, NW Washington, DC 20036", "NAME": "Terrific Inc.", "TELEPHONE": "202-232-4202", "ADDRESS": "1507 9TH STREET NW", "TYPE": "Congregate Meal Sites", "WEB_URL": null, "WARD": "Ward 6", "ADDRID": 225596, "EMAIL": null }, "geometry": { "type": "Point", "coordinates": [ -77.023779051817513, 38.909970574025841 ] } },
{ "type": "Feature", "properties": { "OBJECTID": 46, "X": 398622.05, "Y": 138051.22, "ARC_STREET": "1519 Islamic Way, NW Washington DC 20001", "NAME": "Kibar Halal Nurtition Center ", "TELEPHONE": "202-483-8823", "ADDRESS": "1519 4TH STREET NW", "TYPE": "Congregate Meal Sites", "WEB_URL": null, "WARD": "Ward 5", "ADDRID": 237695, "EMAIL": null }, "geometry": { "type": "Point", "coordinates": [ -77.015889861368578, 38.91032954466236 ] } },
{ "type": "Feature", "properties": { "OBJECTID": 47, "X": 398128.57, "Y": 138246.84, "ARC_STREET": "1616 Marion Street, NW Washington, DC 20001", "NAME": "Asbury Dwelling ", "TELEPHONE": "202-745-7434", "ADDRESS": "1616 MARION STREET NW", "TYPE": "Congregate Meal Sites", "WEB_URL": null, "WARD": "Ward 6", "ADDRID": 279266, "EMAIL": null }, "geometry": { "type": "Point", "coordinates": [ -77.021580152099446, 38.912090844063414 ] } },
{ "type": "Feature", "properties": { "OBJECTID": 48, "X": 401754.35, "Y": 133079.67, "ARC_STREET": "1667 Good Hope Road, SE Washington, DC 20020", "NAME": "Somes Kuehner Place Senior Center", "TELEPHONE": "202-797-8806", "ADDRESS": "1667 GOOD HOPE ROAD SE", "TYPE": "Congregate Meal Sites", "WEB_URL": null, "WARD": "Ward 8", "ADDRID": 58175, "EMAIL": null }, "geometry": { "type": "Point", "coordinates": [ -76.979787556351695, 38.865543268146197 ] } },
{ "type": "Feature", "properties": { "OBJECTID": 49, "X": 396145.21, "Y": 139466.17, "ARC_STREET": "1842 Calvert Street, NW Washington, DC 20009", "NAME": "Vida Senior Center", "TELEPHONE": "202-483-1508", "ADDRESS": "1842 CALVERT STREET NW", "TYPE": "Congregate Meal Sites", "WEB_URL": null, "WARD": "Ward 1", "ADDRID": 235322, "EMAIL": null }, "geometry": { "type": "Point", "coordinates": [ -77.044455433639882, 38.923068509701352 ] } },
{ "type": "Feature", "properties": { "OBJECTID": 50, "X": 396251.08, "Y": 140058.04, "ARC_STREET": "1845 Harvard Street, NW Washington, DC 20009", "NAME": "Harvard Towers ", "TELEPHONE": "202-939-9005", "ADDRESS": "1845 HARVARD STREET NW", "TYPE": "Congregate Meal Sites", "WEB_URL": null, "WARD": "Ward 1", "ADDRID": 236261, "EMAIL": null }, "geometry": { "type": "Point", "coordinates": [ -77.043237781867546, 38.92840072027419 ] } },
{ "type": "Feature", "properties": { "OBJECTID": 51, "X": 402018.77, "Y": 139583.79, "ARC_STREET": "1901 Evarts Street, NE Washington, DC 20018", "NAME": "Model Cities Senior Wellness Center", "TELEPHONE": "202-635-1900", "ADDRESS": "1901 EVARTS STREET NE", "TYPE": "Congregate Meal Sites", "WEB_URL": null, "WARD": "Ward 5", "ADDRID": 301587, "EMAIL": null }, "geometry": { "type": "Point", "coordinates": [ -76.976721633782546, 38.924134206862433 ] } },
{ "type": "Feature", "properties": { "OBJECTID": 52, "X": 399286.43, "Y": 144429.41, "ARC_STREET": "20 Tuckerman, NE Washington, DC 20011", "NAME": "Lamond Recreation Center", "TELEPHONE": "202-576-9541", "ADDRESS": "20 TUCKERMAN STREET NE", "TYPE": "Congregate Meal Sites", "WEB_URL": null, "WARD": "Ward 4", "ADDRID": 296166, "EMAIL": null }, "geometry": { "type": "Point", "coordinates": [ -77.008236286464523, 38.967786951038242 ] } },
{ "type": "Feature", "properties": { "OBJECTID": 53, "X": 397036.53, "Y": 138845.41, "ARC_STREET": "2001 15th Street, NW Washington, DC 20009", "NAME": "Paul Lawrence Dunbar ", "TELEPHONE": "202-939-9035", "ADDRESS": "2001 15TH STREET NW", "TYPE": "Congregate Meal Sites", "WEB_URL": null, "WARD": "Ward 1", "ADDRID": 239975, "EMAIL": null }, "geometry": { "type": "Point", "coordinates": [ -77.034174119475196, 38.917479959256255 ] } },
{ "type": "Feature", "properties": { "OBJECTID": 54, "X": 397760.5, "Y": 139291.0, "ARC_STREET": "2301 11th Street, NW Washington, DC 20001", "NAME": "Garfield Terrace ", "TELEPHONE": "202-939-9035", "ADDRESS": "2301 11TH STREET NW", "TYPE": "Congregate Meal Sites", "WEB_URL": null, "WARD": "Ward 1", "ADDRID": 284334, "EMAIL": null }, "geometry": { "type": "Point", "coordinates": [ -77.025827460499329, 38.921496123502713 ] } },
{ "type": "Feature", "properties": { "OBJECTID": 55, "X": 402481.29, "Y": 139818.28, "ARC_STREET": "2412 Franklin Street, NE Washington, DC 20018", "NAME": "Green Valley Apartments", "TELEPHONE": "202-635-0286", "ADDRESS": "2412 FRANKLIN STREET NE", "TYPE": "Congregate Meal Sites", "WEB_URL": null, "WARD": "Ward 5", "ADDRID": 287033, "EMAIL": null }, "geometry": { "type": "Point", "coordinates": [ -76.971386961129923, 38.926245383347435 ] } },
{ "type": "Feature", "properties": { "OBJECTID": 56, "X": 396642.46, "Y": 139623.65, "ARC_STREET": "2551 17th Street, NW Washington, DC 20009", "NAME": "Sarahs Circle ", "TELEPHONE": "202-332-1400", "ADDRESS": "2551 17TH STREET NW", "TYPE": "Congregate Meal Sites", "WEB_URL": null, "WARD": "Ward 1", "ADDRID": 235865, "EMAIL": null }, "geometry": { "type": "Point", "coordinates": [ -77.038721955090267, 38.924489180764759 ] } },
{ "type": "Feature", "properties": { "OBJECTID": 57, "X": 400435.52, "Y": 132317.08, "ARC_STREET": "2616 Martin Luther King Jr. Avenue, SE Washington, DC 20020", "NAME": "Claiborne House, Mathews Memorial Church ", "TELEPHONE": "202-610-0961", "ADDRESS": "2616 MARTIN LUTHER KING JR AVENUE SE", "TYPE": "Congregate Meal Sites", "WEB_URL": null, "WARD": "Ward 8", "ADDRID": 278192, "EMAIL": null }, "geometry": { "type": "Point", "coordinates": [ -76.994984428333552, 38.858675178956688 ] } },
{ "type": "Feature", "properties": { "OBJECTID": 58, "X": 402672.65, "Y": 131606.43, "ARC_STREET": "2700 Jasper Street, SE Washington, DC 20020 ", "NAME": "Knox Hill Apartments ", "TELEPHONE": "202-610-0782", "ADDRESS": "2700 JASPER STREET SE", "TYPE": "Congregate Meal Sites", "WEB_URL": null, "WARD": "Ward 8", "ADDRID": 278227, "EMAIL": null }, "geometry": { "type": "Point", "coordinates": [ -76.969212051138172, 38.852269387084938 ] } },
{ "type": "Feature", "properties": { "OBJECTID": 59, "X": 395012.47, "Y": 140991.13, "ARC_STREET": "2850 Quebec Street, NW Washington, DC 20008", "NAME": "Adas Israel ", "TELEPHONE": "202-363-7530", "ADDRESS": "2850 QUEBEC STREET NW", "TYPE": "Congregate Meal Sites", "WEB_URL": null, "WARD": "Ward 3", "ADDRID": 219289, "EMAIL": null }, "geometry": { "type": "Point", "coordinates": [ -77.057529185918469, 38.936800121080772 ] } },
{ "type": "Feature", "properties": { "OBJECTID": 60, "X": 403387.22, "Y": 140020.95, "ARC_STREET": "2855 Bladensburg Road, NE Washington, DC 20018", "NAME": "Gettysburg (Ft. Lincolnl)", "TELEPHONE": "202-635-2392", "ADDRESS": "2855 BLADENSBURG ROAD NE", "TYPE": "Congregate Meal Sites", "WEB_URL": null, "WARD": "Ward 5", "ADDRID": 289764, "EMAIL": null }, "geometry": { "type": "Point", "coordinates": [ -76.960938380289292, 38.928068073756037 ] } },
{ "type": "Feature", "properties": { "OBJECTID": 61, "X": 397160.74, "Y": 139909.37, "ARC_STREET": "2900 14th Street, NW Washington, DC 20009", "NAME": "Columbia Heights ", "TELEPHONE": "202-939-9034", "ADDRESS": "2900 14TH STREET NW", "TYPE": "Congregate Meal Sites", "WEB_URL": null, "WARD": "Ward 1", "ADDRID": 234356, "EMAIL": null }, "geometry": { "type": "Point", "coordinates": [ -77.032746252627646, 38.92706486480764 ] } },
{ "type": "Feature", "properties": { "OBJECTID": 62, "X": 402917.95, "Y": 140712.3, "ARC_STREET": "2900 Newton Street, NE Washington, DC 20018", "NAME": "Seabury Aging Services ", "TELEPHONE": "202-529-8701", "ADDRESS": "2900 NEWTON STREET NE", "TYPE": "Congregate Meal Sites", "WEB_URL": null, "WARD": "Ward 5", "ADDRID": 287312, "EMAIL": null }, "geometry": { "type": "Point", "coordinates": [ -76.966347406483422, 38.934297650950136 ] } },
{ "type": "Feature", "properties": { "OBJECTID": 63, "X": 402917.95, "Y": 140712.3, "ARC_STREET": "2900 Newton Street, NE Washington, DC 20018", "NAME": "Blind and Visually Impaired Senior Center", "TELEPHONE": "202-269-9576", "ADDRESS": "2900 NEWTON STREET NE", "TYPE": "Congregate Meal Sites", "WEB_URL": null, "WARD": "Ward 5", "ADDRID": 287312, "EMAIL": null }, "geometry": { "type": "Point", "coordinates": [ -76.966347406483422, 38.934297650950136 ] } },
{ "type": "Feature", "properties": { "OBJECTID": 64, "X": 403114.43, "Y": 132521.44, "ARC_STREET": "3001 Alabama Ave, Washington, DC 20020", "NAME": "Washington Senior Wellness Center ", "TELEPHONE": "202-581-4431", "ADDRESS": "3001 ALABAMA AVENUE SE", "TYPE": "Congregate Meal Sites", "WEB_URL": null, "WARD": "Ward 7", "ADDRID": 289473, "EMAIL": null }, "geometry": { "type": "Point", "coordinates": [ -76.964118387773269, 38.860510735129161 ] } },
{ "type": "Feature", "properties": { "OBJECTID": 65, "X": 403447.95, "Y": 140054.18, "ARC_STREET": "3001 Bladensburg Road, NE Washington, DC 20018", "NAME": "Senior Village 1", "TELEPHONE": "202-529-7730", "ADDRESS": "3001 BLADENSBURG ROAD NE", "TYPE": "Congregate Meal Sites", "WEB_URL": null, "WARD": "Ward 5", "ADDRID": 287351, "EMAIL": null }, "geometry": { "type": "Point", "coordinates": [ -76.960237830567962, 38.92836718381588 ] } },
{ "type": "Feature", "properties": { "OBJECTID": 66, "X": 393720.79, "Y": 140179.36, "ARC_STREET": "3001 Wisconsin Avenue, NW Washington, DC 20016", "NAME": "St. Albans Episcopal", "TELEPHONE": "202-363-8286", "ADDRESS": "3001 WISCONSIN AVENUE NW", "TYPE": "Congregate Meal Sites", "WEB_URL": null, "WARD": "Ward 3", "ADDRID": 221620, "EMAIL": null }, "geometry": { "type": "Point", "coordinates": [ -77.072420178216092, 38.929479168818695 ] } },
{ "type": "Feature", "properties": { "OBJECTID": 67, "X": 403531.77, "Y": 140110.4, "ARC_STREET": "3005 Bladensburg Road, NE, Washington, DC 20018", "NAME": "Vicksburg (Fort Lincoln IV)", "TELEPHONE": "202-529-7731", "ADDRESS": "3005 BLADENSBURG ROAD NE", "TYPE": "Congregate Meal Sites", "WEB_URL": null, "WARD": "Ward 5", "ADDRID": 287362, "EMAIL": null }, "geometry": { "type": "Point", "coordinates": [ -76.95927086366936, 38.928873298255439 ] } },
{ "type": "Feature", "properties": { "OBJECTID": 68, "X": 398515.9, "Y": 143164.25, "ARC_STREET": "324 Kennedy Street, NW Washington, DC 20011", "NAME": "Hattie Holmes Senior Wellness Center ", "TELEPHONE": "202-291-6170", "ADDRESS": "324 KENNEDY STREET NW", "TYPE": "Congregate Meal Sites", "WEB_URL": null, "WARD": "Ward 4", "ADDRID": 307575, "EMAIL": null }, "geometry": { "type": "Point", "coordinates": [ -77.017124816738942, 38.956389103153825 ] } },
{ "type": "Feature", "properties": { "OBJECTID": 69, "X": 403752.35, "Y": 139266.78, "ARC_STREET": "3298 Ft. Lincoln Drive, NE Washington, DC 20018", "NAME": "Petersburg (Fort Lincoln III)", "TELEPHONE": "202-529-7730", "ADDRESS": "3298 FORT LINCOLN DRIVE NE", "TYPE": "Congregate Meal Sites", "WEB_URL": null, "WARD": "Ward 5", "ADDRID": 151262, "EMAIL": null }, "geometry": { "type": "Point", "coordinates": [ -76.956731556235241, 38.921272786876926 ] } },
{ "type": "Feature", "properties": { "OBJECTID": 70, "X": 403772.98, "Y": 135320.05, "ARC_STREET": "3440 Minnesota Avenue, SE Washington, DC 20020", "NAME": "Phillip T. Johnson Senior Center ", "TELEPHONE": "202-584-4431", "ADDRESS": "3440 MINNESOTA AVENUE SE", "TYPE": "Congregate Meal Sites", "WEB_URL": null, "WARD": "Ward 7", "ADDRID": 34531, "EMAIL": null }, "geometry": { "type": "Point", "coordinates": [ -76.956515337067557, 38.885719159667531 ] } },
{ "type": "Feature", "properties": { "OBJECTID": 71, "X": 399675.91, "Y": 130234.21, "ARC_STREET": "3500 Martin Luther King, Jr. Ave. SE Washington, DC 20032", "NAME": "Congress Heights Senior Wellness Center ", "TELEPHONE": "202-563-7225", "ADDRESS": "3500 MARTIN LUTHER KING JR AVENUE SE", "TYPE": "Congregate Meal Sites", "WEB_URL": null, "WARD": "Ward 8", "ADDRID": 303598, "EMAIL": null }, "geometry": { "type": "Point", "coordinates": [ -77.003735308180353, 38.839911820393333 ] } },
{ "type": "Feature", "properties": { "OBJECTID": 72, "X": 404663.28, "Y": 137153.1, "ARC_STREET": "3819 Jay Street, NE Washington, DC 20019", "NAME": "Mayfair Mansion ", "TELEPHONE": "202-534-4880", "ADDRESS": "3819 JAY STREET NE", "TYPE": "Congregate Meal Sites", "WEB_URL": null, "WARD": "Ward 7", "ADDRID": 295367, "EMAIL": null }, "geometry": { "type": "Point", "coordinates": [ -76.946241399720236, 38.902227678391498 ] } },
{ "type": "Feature", "properties": { "OBJECTID": 73, "X": 404363.02, "Y": 136219.83, "ARC_STREET": "3917 Minnesota Avenue, NE Washington, DC 20019", "NAME": "East River Family Strengthening Collaborative ", "TELEPHONE": "202-534-4880", "ADDRESS": "3917 MINNESOTA AVENUE NE", "TYPE": "Congregate Meal Sites", "WEB_URL": null, "WARD": "Ward 7", "ADDRID": 29135, "EMAIL": null }, "geometry": { "type": "Point", "coordinates": [ -76.949708890237844, 38.893821985801807 ] } },
{ "type": "Feature", "properties": { "OBJECTID": 74, "X": 392921.6, "Y": 142256.5, "ARC_STREET": "4125 Albemarle Street, NW Washington, DC 20016", "NAME": "IONA Senior Services", "TELEPHONE": "202-966-1055", "ADDRESS": "4125 ALBEMARLE STREET NW", "TYPE": "Congregate Meal Sites", "WEB_URL": null, "WARD": "Ward 3", "ADDRID": 264423, "EMAIL": null }, "geometry": { "type": "Point", "coordinates": [ -77.081658630882885, 38.948184577388915 ] } },
{ "type": "Feature", "properties": { "OBJECTID": 75, "X": 398388.73, "Y": 136812.17, "ARC_STREET": "417 G Street, NW Washington, DC 20001", "NAME": "Asian\/Pacific Islander Senior Services Center", "TELEPHONE": "202-842-4376", "ADDRESS": "417 G PLACE NW", "TYPE": "Congregate Meal Sites", "WEB_URL": null, "WARD": "Ward 2", "ADDRID": 303718, "EMAIL": null }, "geometry": { "type": "Point", "coordinates": [ -77.018577101831156, 38.899167348756386 ] } },
{ "type": "Feature", "properties": { "OBJECTID": 76, "X": 398334.57, "Y": 143325.34, "ARC_STREET": "418 Missouri Ave, NW Washington, DC 20011", "NAME": "Terrific Inc. ", "TELEPHONE": "202-882-1824", "ADDRESS": "418 MISSOURI AVENUE NW", "TYPE": "Congregate Meal Sites", "WEB_URL": null, "WARD": "Ward 4", "ADDRID": 248804, "EMAIL": null }, "geometry": { "type": "Point", "coordinates": [ -77.019217269365583, 38.957839919138536 ] } },
{ "type": "Feature", "properties": { "OBJECTID": 77, "X": 400902.69, "Y": 129245.01, "ARC_STREET": "4301 9th Street, SE Washington, DC 20032", "NAME": "Family Matters of Greater Washington ", "TELEPHONE": "202-562-6860", "ADDRESS": "4301 9TH STREET SE", "TYPE": "Congregate Meal Sites", "WEB_URL": null, "WARD": "Ward 8", "ADDRID": 298086, "EMAIL": null }, "geometry": { "type": "Point", "coordinates": [ -76.989605948796424, 38.831000250218473 ] } },
{ "type": "Feature", "properties": { "OBJECTID": 78, "X": 396742.3, "Y": 142356.35, "ARC_STREET": "4817 Blagden Avenue, NW Washington, DC 20011", "NAME": "Genevieve Johnson Day Care ", "TELEPHONE": "202-723-8537", "ADDRESS": "4817 BLAGDEN AVENUE NW", "TYPE": "Congregate Meal Sites", "WEB_URL": null, "WARD": "Ward 4", "ADDRID": 258753, "EMAIL": null }, "geometry": { "type": "Point", "coordinates": [ -77.037583559938355, 38.949106533182089 ] } },
{ "type": "Feature", "properties": { "OBJECTID": 79, "X": 400071.4, "Y": 137220.4, "ARC_STREET": "500 K Street, NE Washington, DC 20002", "NAME": "Haynes Senior Wellness Center ", "TELEPHONE": "202-727-0357", "ADDRESS": "500 K STREET NE", "TYPE": "Congregate Meal Sites", "WEB_URL": null, "WARD": "Ward 6", "ADDRID": 300865, "EMAIL": null }, "geometry": { "type": "Point", "coordinates": [ -76.99917913773173, 38.9028463055378 ] } },
{ "type": "Feature", "properties": { "OBJECTID": 80, "X": 399248.92, "Y": 142907.32, "ARC_STREET": "5233 North Capitol Street, NE Washington, DC", "NAME": "North Capitol at Plymouth ", "TELEPHONE": "202-541-0553", "ADDRESS": "5233 NORTH CAPITOL STREET NE", "TYPE": "Congregate Meal Sites", "WEB_URL": null, "WARD": "Ward 5", "ADDRID": 298101, "EMAIL": null }, "geometry": { "type": "Point", "coordinates": [ -77.008667452381673, 38.954075542112477 ] } },
{ "type": "Feature", "properties": { "OBJECTID": 81, "X": 400282.91, "Y": 139511.68, "ARC_STREET": "635 Edgewood Street, NE Washington, DC 20017", "NAME": "Edgewood Terrace #1 ", "TELEPHONE": "202-832-8266", "ADDRESS": "635 EDGEWOOD STREET NE", "TYPE": "Congregate Meal Sites", "WEB_URL": null, "WARD": "Ward 5", "ADDRID": 289573, "EMAIL": null }, "geometry": { "type": "Point", "coordinates": [ -76.996739769091818, 38.923486889428553 ] } },
{ "type": "Feature", "properties": { "OBJECTID": 82, "X": 395563.18, "Y": 136780.31, "ARC_STREET": "725 24th Street, NW Washington, DC 20037", "NAME": "St. Marys Court ", "TELEPHONE": "202-659-5645", "ADDRESS": "725 24TH STREET NW", "TYPE": "Congregate Meal Sites", "WEB_URL": null, "WARD": "Ward 2", "ADDRID": 242350, "EMAIL": null }, "geometry": { "type": "Point", "coordinates": [ -77.05115000325813, 38.898870620935028 ] } },
{ "type": "Feature", "properties": { "OBJECTID": 83, "X": 400861.83, "Y": 129174.5, "ARC_STREET": "896 Southern Ave, SE Washington, DC ", "NAME": "DuPont Park Seventh Day Adventist Apartments", "TELEPHONE": "202-562-1365", "ADDRESS": "896 SOUTHERN AVENUE SE", "TYPE": "Congregate Meal Sites", "WEB_URL": null, "WARD": "Ward 8", "ADDRID": 81597, "EMAIL": null }, "geometry": { "type": "Point", "coordinates": [ -76.990076623923443, 38.83036510427015 ] } },
{ "type": "Feature", "properties": { "OBJECTID": 84, "X": 400069.73, "Y": 134551.26, "ARC_STREET": "900 5th Street, SE Washington, DC 20003", "NAME": "Capper\/Carrollsburg", "TELEPHONE": "202-546-1024", "ADDRESS": "900 5TH STREET SE", "TYPE": "Congregate Meal Sites", "WEB_URL": null, "WARD": "Ward 6", "ADDRID": 302625, "EMAIL": null }, "geometry": { "type": "Point", "coordinates": [ -76.999198660004936, 38.878801691848885 ] } },
{ "type": "Feature", "properties": { "OBJECTID": 85, "X": 400564.34, "Y": 135883.88, "ARC_STREET": "901 A Street, NE Washington, DC 20011", "NAME": "Seabury Aging Services ", "TELEPHONE": "202-397-1725", "ADDRESS": "901 A STREET NE", "TYPE": "Congregate Meal Sites", "WEB_URL": null, "WARD": "Ward 6", "ADDRID": 81685, "EMAIL": null }, "geometry": { "type": "Point", "coordinates": [ -76.993497299681707, 38.890806267019002 ] } },
{ "type": "Feature", "properties": { "OBJECTID": 86, "X": 397629.22, "Y": 137148.83, "ARC_STREET": "926 11th Street, NW Washington, DC 20001", "NAME": "Asbury Methodist Church\/ Downtown Clusters Day Care", "TELEPHONE": "202-347-7527", "ADDRESS": "926 11TH STREET NW", "TYPE": "Congregate Meal Sites", "WEB_URL": null, "WARD": "Ward 2", "ADDRID": 301937, "EMAIL": null }, "geometry": { "type": "Point", "coordinates": [ -77.027333940926823, 38.902198382231255 ] } },
{ "type": "Feature", "properties": { "OBJECTID": 87, "X": 397668.31, "Y": 142526.41, "ARC_STREET": "930 Farragut Street, NW Washington, DC 20011", "NAME": "Colony House ", "TELEPHONE": "202-882-3881", "ADDRESS": "930 FARRAGUT STREET NW", "TYPE": "Congregate Meal Sites", "WEB_URL": null, "WARD": "Ward 4", "ADDRID": 285470, "EMAIL": null }, "geometry": { "type": "Point", "coordinates": [ -77.026901560658757, 38.950641427022752 ] } },
{ "type": "Feature", "properties": { "OBJECTID": 88, "X": 401895.08, "Y": 139507.43, "ARC_STREET": "2601 18th Street, NE Washington, DC 20018", "NAME": "Washington Center for Aging Services ", "TELEPHONE": "202-541-6000", "ADDRESS": "2601 18TH STREET NE", "TYPE": "D.C. Office on Aging Nursing Facility ", "WEB_URL": null, "WARD": "Ward 5", "ADDRID": 287131, "EMAIL": null }, "geometry": { "type": "Point", "coordinates": [ -76.978148249557293, 38.923446606878564 ] } },
{ "type": "Feature", "properties": { "OBJECTID": 89, "X": 403531.77, "Y": 140110.4, "ARC_STREET": "3005 Bladenburg Road, NE Washington, DC 20018", "NAME": "Life Stride, Inc.", "TELEPHONE": "202-635-2320", "ADDRESS": "3005 BLADENSBURG ROAD NE", "TYPE": "Day Car Program for Older Adults  ", "WEB_URL": null, "WARD": "Ward 5", "ADDRID": 287362, "EMAIL": null }, "geometry": { "type": "Point", "coordinates": [ -76.95927086366936, 38.928873298255439 ] } },
{ "type": "Feature", "properties": { "OBJECTID": 90, "X": 403531.77, "Y": 140110.4, "ARC_STREET": "3005 Bladensburg Raod, NE Washington, DC 20017", "NAME": "Vicksburg (Ft. Lincoln IV)", "TELEPHONE": "202-529-8701", "ADDRESS": "3005 BLADENSBURG ROAD NE", "TYPE": "Distribution Sites for Homebound Meals", "WEB_URL": null, "WARD": "Ward 5", "ADDRID": 287362, "EMAIL": null }, "geometry": { "type": "Point", "coordinates": [ -76.95927086366936, 38.928873298255439 ] } },
{ "type": "Feature", "properties": { "OBJECTID": 91, "X": 398440.69, "Y": 136908.12, "ARC_STREET": "461 H Street, NW Washington, DC 20001", "NAME": "Judiciary House", "TELEPHONE": "202-547-7202", "ADDRESS": "461 H STREET NW", "TYPE": "Distribution Sites for Homebound Meals", "WEB_URL": null, "WARD": "Ward 2", "ADDRID": 237585, "EMAIL": null }, "geometry": { "type": "Point", "coordinates": [ -77.017978321676992, 38.900031794699181 ] } },
{ "type": "Feature", "properties": { "OBJECTID": 92, "X": 407189.16, "Y": 136319.53, "ARC_STREET": "5812 Dix Street, NE Washington, DC 20019", "NAME": "Beulah Baptist Church ", "TELEPHONE": "202-534-4880", "ADDRESS": "5812 DIX STREET NE", "TYPE": "Distribution Sites for Homebound Meals", "WEB_URL": null, "WARD": "Ward 7", "ADDRID": 6391, "EMAIL": null }, "geometry": { "type": "Point", "coordinates": [ -76.917130387628305, 38.894701552392981 ] } },
{ "type": "Feature", "properties": { "OBJECTID": 93, "X": 401754.35, "Y": 133079.67, "ARC_STREET": "1667 Good Hope Road, SE. Washington, DC 20020", "NAME": "Kuehner Place, Shelter for Abused Elderly and Neglected (Emergency)", "TELEPHONE": "202-583-7602 ext 107", "ADDRESS": "1667 GOOD HOPE ROAD SE", "TYPE": "Emergency and Group Housing", "WEB_URL": null, "WARD": "Ward 8", "ADDRID": 58175, "EMAIL": null }, "geometry": { "type": "Point", "coordinates": [ -76.979787556351695, 38.865543268146197 ] } },
{ "type": "Feature", "properties": { "OBJECTID": 94, "X": 401889.43, "Y": 139419.55, "ARC_STREET": "2501 18th Street, NE, Washington, DC 20018", "NAME": "Seabury At Home First (Supportive Housing)", "TELEPHONE": "202-635-9384", "ADDRESS": "2501 18TH STREET NE", "TYPE": "Emergency and Group Housing", "WEB_URL": null, "WARD": "Ward 5", "ADDRID": 287082, "EMAIL": null }, "geometry": { "type": "Point", "coordinates": [ -76.97821364711001, 38.922654967694903 ] } },
{ "type": "Feature", "properties": { "OBJECTID": 95, "X": 400071.4, "Y": 137220.4, "ARC_STREET": "500 K Street, NE Washington, DC 20002", "NAME": "D.C Office on Aging ", "TELEPHONE": "202-724-5622", "ADDRESS": "500 K STREET NE", "TYPE": "Emergency and Group Housing", "WEB_URL": null, "WARD": "Ward 6", "ADDRID": 300865, "EMAIL": null }, "geometry": { "type": "Point", "coordinates": [ -76.99917913773173, 38.9028463055378 ] } },
{ "type": "Feature", "properties": { "OBJECTID": 96, "X": 394620.16, "Y": 137303.84, "ARC_STREET": "1041 Wisconsin Avenue, NW Washington, DC 20007", "NAME": "Georgetown Ministry Center ", "TELEPHONE": "202-338-8301", "ADDRESS": "1041 WISCONSIN AVENUE NW", "TYPE": "Emergency Food ", "WEB_URL": null, "WARD": "Ward 2", "ADDRID": 273796, "EMAIL": "www.georgetownministrycenter.org " }, "geometry": { "type": "Point", "coordinates": [ -77.062025248014606, 38.903581499779655 ] } },
{ "type": "Feature", "properties": { "OBJECTID": 97, "X": 399169.61, "Y": 137350.58, "ARC_STREET": "1100 North Capitol Street, NW Washington, DC 20002", "NAME": "Home Mission Society of Mount Airy Baptist Church", "TELEPHONE": "202-789-0640", "ADDRESS": "1100 NORTH CAPITOL STREET NW", "TYPE": "Emergency Food ", "WEB_URL": null, "WARD": "Ward 6", "ADDRID": 285575, "EMAIL": "www.mountairybaptist.org " }, "geometry": { "type": "Point", "coordinates": [ -77.009575721104596, 38.904018623432371 ] } },
{ "type": "Feature", "properties": { "OBJECTID": 98, "X": 406221.45, "Y": 137463.2, "ARC_STREET": "1105 50th Street, NE, Washington, DC 20019", "NAME": "Antioch Bpatist Church of Deanwood", "TELEPHONE": "202-399-8118", "ADDRESS": "1105 50TH STREET NE", "TYPE": "Emergency Food ", "WEB_URL": null, "WARD": "Ward 7", "ADDRID": 74277, "EMAIL": "www.antiochabc.org" }, "geometry": { "type": "Point", "coordinates": [ -76.928275147528311, 38.905011521589188 ] } },
{ "type": "Feature", "properties": { "OBJECTID": 99, "X": 400887.46, "Y": 134804.07, "ARC_STREET": "1211 G Street, SE. DC 20003", "NAME": "Salvation Army Southeast Corps", "TELEPHONE": "202-543-9030", "ADDRESS": "1211 G STREET SE", "TYPE": "Emergency Food ", "WEB_URL": null, "WARD": "Ward 6", "ADDRID": 285929, "EMAIL": "www.salvationarmy.org " }, "geometry": { "type": "Point", "coordinates": [ -76.98977418325029, 38.881078658710088 ] } },
{ "type": "Feature", "properties": { "OBJECTID": 100, "X": 400958.87, "Y": 132965.09, "ARC_STREET": "1225 W Street, SE, Washington, DC 20020", "NAME": "Union Temple Baptist Church Village Keepers (Homeless)", "TELEPHONE": "202-678-8822", "ADDRESS": "1225 W STREET SE", "TYPE": "Emergency Food ", "WEB_URL": null, "WARD": "Ward 8", "ADDRID": 70732, "EMAIL": "www.uniontemple.com " }, "geometry": { "type": "Point", "coordinates": [ -76.988953737276859, 38.864512310683935 ] } },
{ "type": "Feature", "properties": { "OBJECTID": 101, "X": 400923.31, "Y": 139312.0, "ARC_STREET": "1251 Saratoga Avenue, NE Washington, DC 20017", "NAME": "Israel Bpatist Church, Crisis Imtervetnion Center ", "TELEPHONE": "202-269-9574", "ADDRESS": "1251 SARATOGA AVENUE NE", "TYPE": "Emergency Food ", "WEB_URL": null, "WARD": "Ward 5", "ADDRID": 69666, "EMAIL": "www.israelbaptistchurch.org " }, "geometry": { "type": "Point", "coordinates": [ -76.989354949870844, 38.921687668228316 ] } },
{ "type": "Feature", "properties": { "OBJECTID": 102, "X": 398841.99, "Y": 137502.56, "ARC_STREET": "128 M Street, NW, Suite 310, Washington, DC 20001", "NAME": "Center City Community Corporation", "TELEPHONE": "202-789-0867", "ADDRESS": "128 M STREET NW", "TYPE": "Emergency Food ", "WEB_URL": null, "WARD": "Ward 6", "ADDRID": 279016, "EMAIL": null }, "geometry": { "type": "Point", "coordinates": [ -77.01335305748043, 38.905387342155855 ] } },
{ "type": "Feature", "properties": { "OBJECTID": 103, "X": 398040.22, "Y": 137765.04, "ARC_STREET": "1315 Eigth Streetm NW Washington, DC 20001", "NAME": "Immaculate Conception Church", "TELEPHONE": "202-332-8888", "ADDRESS": "1315 8TH STREET NW", "TYPE": "Emergency Food ", "WEB_URL": null, "WARD": "Ward 6", "ADDRID": 238403, "EMAIL": "www.immaculateconceptionchurchdc.org" }, "geometry": { "type": "Point", "coordinates": [ -77.02259746551303, 38.907750431382823 ] } },
{ "type": "Feature", "properties": { "OBJECTID": 104, "X": 401103.78, "Y": 136700.77, "ARC_STREET": "1325 Maryland Avenue, NE, Washington, DC 20002", "NAME": "Amore House, Scripture Cathedral", "TELEPHONE": "202-397-4333", "ADDRESS": "1325 MARYLAND AVENUE NE", "TYPE": "Emergency Food ", "WEB_URL": null, "WARD": "Ward 6", "ADDRID": 67591, "EMAIL": null }, "geometry": { "type": "Point", "coordinates": [ -76.987278019507585, 38.898164602076797 ] } },
{ "type": "Feature", "properties": { "OBJECTID": 105, "X": 401125.07, "Y": 137086.62, "ARC_STREET": "1326 Florida Ave, NE Washington, DC 20002", "NAME": "Near Northeast CIC Center", "TELEPHONE": "202-399-6900", "ADDRESS": "1326 FLORIDA AVENUE NE", "TYPE": "Emergency Food ", "WEB_URL": null, "WARD": "Ward 5", "ADDRID": 301806, "EMAIL": "www.perryschool.org " }, "geometry": { "type": "Point", "coordinates": [ -76.987031958781714, 38.901640450939894 ] } },
{ "type": "Feature", "properties": { "OBJECTID": 106, "X": 396758.18, "Y": 137844.77, "ARC_STREET": "1328 16th, NW Washington, DC 20036 ", "NAME": "First Helping ", "TELEPHONE": "202-387-2015", "ADDRESS": "1328 16TH STREET NW", "TYPE": "Emergency Food ", "WEB_URL": null, "WARD": "Ward 2", "ADDRID": 279074, "EMAIL": "www.dccentralkitchen.org " }, "geometry": { "type": "Point", "coordinates": [ -77.037379054050973, 38.908464872736133 ] } },
{ "type": "Feature", "properties": { "OBJECTID": 107, "X": 397126.56, "Y": 142243.35, "ARC_STREET": "1400 Decatur Street, NW, Washington, DC 20011", "NAME": "Andromeda Transcultural Health Center (Latino Services)", "TELEPHONE": "202-291-4707", "ADDRESS": "1400 DECATUR STREET NW", "TYPE": "Emergency Food ", "WEB_URL": null, "WARD": "Ward 4", "ADDRID": 302000, "EMAIL": null }, "geometry": { "type": "Point", "coordinates": [ -77.033150210954361, 38.948089938908822 ] } },
{ "type": "Feature", "properties": { "OBJECTID": 108, "X": 401374.55, "Y": 133244.06, "ARC_STREET": "1412 Minnesota Avenue, SE Washington, DC 20020", "NAME": "Ambassador Baptist Church", "TELEPHONE": "202-678-1993", "ADDRESS": "1412 MINNESOTA AVENUE SE", "TYPE": "Emergency Food ", "WEB_URL": null, "WARD": "Ward 8", "ADDRID": 64651, "EMAIL": null }, "geometry": { "type": "Point", "coordinates": [ -76.984163522382048, 38.867024836612295 ] } },
{ "type": "Feature", "properties": { "OBJECTID": 109, "X": 397105.13, "Y": 140301.68, "ARC_STREET": "1413 Park Road, NW, Washington, DC 20010", "NAME": "Change, Inc. ", "TELEPHONE": "202-265-4494", "ADDRESS": "1413 PARK ROAD NW", "TYPE": "Emergency Food ", "WEB_URL": null, "WARD": "Ward 1", "ADDRID": 299891, "EMAIL": null }, "geometry": { "type": "Point", "coordinates": [ -77.033389233746178, 38.930598734231445 ] } },
{ "type": "Feature", "properties": { "OBJECTID": 110, "X": 397896.23, "Y": 138039.44, "ARC_STREET": "1510 Ninth Street, NW Washington, DC 20001", "NAME": "Shiloh Baptist Church Human Services Center ", "TELEPHONE": "202-232-4288", "ADDRESS": "1510 9TH STREET NW", "TYPE": "Emergency Food ", "WEB_URL": null, "WARD": "Ward 6", "ADDRID": 225619, "EMAIL": "www.shilohbaptist.org" }, "geometry": { "type": "Point", "coordinates": [ -77.024258431415831, 38.91022198844145 ] } },
{ "type": "Feature", "properties": { "OBJECTID": 111, "X": 398124.44, "Y": 138052.42, "ARC_STREET": "1525 7th Street, NW Washington, DC 20001", "NAME": "Bread for the City", "TELEPHONE": "202-745-1081", "ADDRESS": "1525 7TH STREET NW", "TYPE": "Emergency Food ", "WEB_URL": null, "WARD": "Ward 6", "ADDRID": 297622, "EMAIL": "www.breadforthecity.com" }, "geometry": { "type": "Point", "coordinates": [ -77.021627240483525, 38.910339433450595 ] } },
{ "type": "Feature", "properties": { "OBJECTID": 112, "X": 396797.65, "Y": 140583.2, "ARC_STREET": "1607 Monroe Street, NW, Washington, DC 20010", "NAME": "Canaan Baptist Church ", "TELEPHONE": "202-234-5330", "ADDRESS": "1607 MONROE STREET NW", "TYPE": "Emergency Food ", "WEB_URL": null, "WARD": "Ward 1", "ADDRID": 233626, "EMAIL": "www.canaanbapt.com" }, "geometry": { "type": "Point", "coordinates": [ -77.036936757829125, 38.933133685788846 ] } },
{ "type": "Feature", "properties": { "OBJECTID": 113, "X": 396798.84, "Y": 138256.28, "ARC_STREET": "1628 16th Street, NW Washington, DC 20011", "NAME": "Newcomers Community Service Center", "TELEPHONE": "202-462-4330", "ADDRESS": "1628 16TH STREET NW", "TYPE": "Emergency Food ", "WEB_URL": null, "WARD": "Ward 2", "ADDRID": 242819, "EMAIL": "www.newcomersservice.org " }, "geometry": { "type": "Point", "coordinates": [ -77.0369121805861, 38.912172044910214 ] } },
{ "type": "Feature", "properties": { "OBJECTID": 114, "X": 401644.18, "Y": 133153.45, "ARC_STREET": "1640 Good Hope Road, SE, Washington, DC 20020", "NAME": "Bread for the City ", "TELEPHONE": "202-561-8587", "ADDRESS": "1640 GOOD HOPE ROAD SE", "TYPE": "Emergency Food ", "WEB_URL": null, "WARD": "Ward 8", "ADDRID": 286380, "EMAIL": "www.breadforthecity.org " }, "geometry": { "type": "Point", "coordinates": [ -76.981056828015213, 38.866208121718181 ] } },
{ "type": "Feature", "properties": { "OBJECTID": 115, "X": 396801.6, "Y": 138497.86, "ARC_STREET": "1810 16th Street, NW Washington, DC 20009", "NAME": "Food for all Program", "TELEPHONE": "202-489-8676", "ADDRESS": "1810 16TH STREET NW", "TYPE": "Emergency Food ", "WEB_URL": null, "WARD": "Ward 2", "ADDRID": 241913, "EMAIL": null }, "geometry": { "type": "Point", "coordinates": [ -77.036881482755746, 38.914348289234653 ] } },
{ "type": "Feature", "properties": { "OBJECTID": 116, "X": 397530.86, "Y": 138533.99, "ARC_STREET": "1812 12th Street, NW Washington, DC 20009", "NAME": "Christian Action Center", "TELEPHONE": "202-265-4494", "ADDRESS": "1812 12TH STREET NW", "TYPE": "Emergency Food ", "WEB_URL": null, "WARD": "Ward 1", "ADDRID": 240852, "EMAIL": null }, "geometry": { "type": "Point", "coordinates": [ -77.028472870149159, 38.914676112120382 ] } },
{ "type": "Feature", "properties": { "OBJECTID": 117, "X": 396123.45, "Y": 136697.6, "ARC_STREET": "1920 G Street, NW Washington, DC 20006", "NAME": "Foggy Bottom Food Pantry", "TELEPHONE": "202-331-1495", "ADDRESS": "1920 G STREET NW", "TYPE": "Emergency Food ", "WEB_URL": null, "WARD": "Ward 2", "ADDRID": 293216, "EMAIL": "www.theunitedchurch.org" }, "geometry": { "type": "Point", "coordinates": [ -77.044690737572736, 38.898128188870047 ] } },
{ "type": "Feature", "properties": { "OBJECTID": 118, "X": 402236.97, "Y": 130644.33, "ARC_STREET": "2001 Mississippi Avenue, SE, Washington, DC 20020", "NAME": "Convenant House of Washingtonington ", "TELEPHONE": "202-610-6900", "ADDRESS": "2001 MISSISSIPPI AVENUE SE", "TYPE": "Emergency Food ", "WEB_URL": null, "WARD": "Ward 8", "ADDRID": 295846, "EMAIL": "www.convenanthousedc.org " }, "geometry": { "type": "Point", "coordinates": [ -76.974234424702516, 38.843603582453284 ] } },
{ "type": "Feature", "properties": { "OBJECTID": 119, "X": 400882.92, "Y": 133122.47, "ARC_STREET": "2041 MartinLuther King, Jr. Avenue, #304, SE Washington, DC 20020", "NAME": "Far Southest Collaborative, Inc.", "TELEPHONE": "202-889-1425", "ADDRESS": "2041 MARTIN LUTHER KING JR AVENUE SE", "TYPE": "Emergency Food ", "WEB_URL": null, "WARD": "Ward 8", "ADDRID": 278056, "EMAIL": null }, "geometry": { "type": "Point", "coordinates": [ -76.98982866632619, 38.86593013448234 ] } },
{ "type": "Feature", "properties": { "OBJECTID": 120, "X": 402161.28, "Y": 141694.17, "ARC_STREET": "2112 Varnum Street, NE, Washington DC 20018", "NAME": "Northeastern Presyterian Church Food Pantry ", "TELEPHONE": "202-526-1730", "ADDRESS": "2112 VARNUM STREET NE", "TYPE": "Emergency Food ", "WEB_URL": null, "WARD": "Ward 5", "ADDRID": 51647, "EMAIL": null }, "geometry": { "type": "Point", "coordinates": [ -76.975071549475061, 38.943144812757168 ] } },
{ "type": "Feature", "properties": { "OBJECTID": 121, "X": 399752.08, "Y": 135807.71, "ARC_STREET": "212 East Capitol Street, NE Washington, DC 20003", "NAME": "Lutheran Church of the Reformation", "TELEPHONE": "202-543-4200", "ADDRESS": "212 EAST CAPITOL STREET NE", "TYPE": "Emergency Food ", "WEB_URL": null, "WARD": "Ward 6", "ADDRID": 286648, "EMAIL": "www.reformationdc.org" }, "geometry": { "type": "Point", "coordinates": [ -77.002859957297716, 38.890120244876748 ] } },
{ "type": "Feature", "properties": { "OBJECTID": 122, "X": 399797.1, "Y": 143095.56, "ARC_STREET": "219 Riggs Road, NE, Washington, DC 20011", "NAME": "Food and Friends ", "TELEPHONE": "202-269-2277", "ADDRESS": "219 RIGGS ROAD NE", "TYPE": "Emergency Food ", "WEB_URL": null, "WARD": "Ward 5", "ADDRID": 286697, "EMAIL": "www.foodandfriends.org " }, "geometry": { "type": "Point", "coordinates": [ -77.002343187941662, 38.955771556307916 ] } },
{ "type": "Feature", "properties": { "OBJECTID": 123, "X": 399614.14, "Y": 130420.96, "ARC_STREET": "220 Highview Place, SE Washington, DC 20032", "NAME": "Catholic Charities, Northeast Community Services ", "TELEPHONE": "202-574-3442", "ADDRESS": "220 HIGHVIEW PLACE SE", "TYPE": "Emergency Food ", "WEB_URL": null, "WARD": "Ward 8", "ADDRID": 303702, "EMAIL": "www.catholiccharitiesdc.org " }, "geometry": { "type": "Point", "coordinates": [ -77.004446910307621, 38.841594123678135 ] } },
{ "type": "Feature", "properties": { "OBJECTID": 124, "X": 402468.28, "Y": 140452.92, "ARC_STREET": "2411 Lawrence Street, NE Washington, DC 20018", "NAME": "McKendree-Simms-Brookland United Methodist Church Community Outreach House", "TELEPHONE": "202-526-3685", "ADDRESS": "2411 LAWRENCE STREET NE", "TYPE": "Emergency Food ", "WEB_URL": null, "WARD": "Ward 5", "ADDRID": 47439, "EMAIL": "www.msbumc.org" }, "geometry": { "type": "Point", "coordinates": [ -76.971534716139871, 38.931962454939985 ] } },
{ "type": "Feature", "properties": { "OBJECTID": 125, "X": 402564.59, "Y": 131999.28, "ARC_STREET": "2443 Ainger Place, SE Washington, DC 20032", "NAME": "Anacostia Community Outreach Center ", "TELEPHONE": "202-889-5607", "ADDRESS": "2443 AINGER PLACE SE", "TYPE": "Emergency Food ", "WEB_URL": null, "WARD": "Ward 8", "ADDRID": 47071, "EMAIL": "www.anacostiachurch-dc.org " }, "geometry": { "type": "Point", "coordinates": [ -76.970455490241093, 38.855808670879391 ] } },
{ "type": "Feature", "properties": { "OBJECTID": 126, "X": 401272.87, "Y": 131527.14, "ARC_STREET": "2525 12th Street, NE Washington, DC 20020", "NAME": "A.P. Shaw Food Pantry ", "TELEPHONE": "202-889-3660", "ADDRESS": "2525 12TH PLACE SE", "TYPE": "Emergency Food ", "WEB_URL": null, "WARD": "Ward 8", "ADDRID": 46354, "EMAIL": "www.apshchumc.org" }, "geometry": { "type": "Point", "coordinates": [ -76.985338344642599, 38.851558247044451 ] } },
{ "type": "Feature", "properties": { "OBJECTID": 127, "X": 398642.59, "Y": 136494.96, "ARC_STREET": "305 E Street, NW Washington, DC 20001", "NAME": "Community Family Life Services ", "TELEPHONE": "202-347-0511", "ADDRESS": "305 E STREET NW", "TYPE": "Emergency Food ", "WEB_URL": null, "WARD": "Ward 2", "ADDRID": 279657, "EMAIL": "www.cflsdc.org " }, "geometry": { "type": "Point", "coordinates": [ -77.015649961421943, 38.896310234444933 ] } },
{ "type": "Feature", "properties": { "OBJECTID": 128, "X": 398642.59, "Y": 136494.96, "ARC_STREET": "305 E Street, NW Washington, DC 20001", "NAME": "Dinner Program for the Homeless Women", "TELEPHONE": "202-737-4172", "ADDRESS": "305 E STREET NW", "TYPE": "Emergency Food ", "WEB_URL": null, "WARD": "Ward 2", "ADDRID": 279657, "EMAIL": "www.dphw.org " }, "geometry": { "type": "Point", "coordinates": [ -77.015649961421943, 38.896310234444933 ] } },
{ "type": "Feature", "properties": { "OBJECTID": 129, "X": 398611.56, "Y": 138326.58, "ARC_STREET": "319 R Street, NW Washington, DC 20001", "NAME": "Action for Peace through Prayer and Aid 9Asian Services)", "TELEPHONE": "202-939-0754", "ADDRESS": "319 R STREET NW", "TYPE": "Emergency Food ", "WEB_URL": null, "WARD": "Ward 5", "ADDRID": 237599, "EMAIL": "www.andromedahealthcenter.org " }, "geometry": { "type": "Point", "coordinates": [ -77.016011366568733, 38.912810065010305 ] } },
{ "type": "Feature", "properties": { "OBJECTID": 130, "X": 396874.14, "Y": 140448.74, "ARC_STREET": "3309 16th Street, NW, Washington, DC 20010", "NAME": "Family Place, Mt. Pleasant ", "TELEPHONE": "202-265-0149", "ADDRESS": "3309 16TH STREET NW", "TYPE": "Emergency Food ", "WEB_URL": null, "WARD": "Ward 1", "ADDRID": 234409, "EMAIL": "www.thefamilyplacedc.org " }, "geometry": { "type": "Point", "coordinates": [ -77.03605394396476, 38.931922704495143 ] } },
{ "type": "Feature", "properties": { "OBJECTID": 131, "X": 399656.72, "Y": 130395.11, "ARC_STREET": "3401 Martin Luther King, Jr. Ave, SE Washington, DC 20032 ", "NAME": "Assumption Church Outreach", "TELEPHONE": "202-561-5941", "ADDRESS": "3401 MARTIN LUTHER KING JR AVENUE SE", "TYPE": "Emergency Food ", "WEB_URL": null, "WARD": "Ward 8", "ADDRID": 301531, "EMAIL": "www.assumptionchurch-dc.org" }, "geometry": { "type": "Point", "coordinates": [ -77.003956428419954, 38.841361272908905 ] } },
{ "type": "Feature", "properties": { "OBJECTID": 132, "X": 400800.33, "Y": 140588.61, "ARC_STREET": "3521 12th Street, NE, Washington, DC 20017", "NAME": "Deaf REACH\/Horizon", "TELEPHONE": "202-832-6681", "ADDRESS": "3521 12TH STREET NE", "TYPE": "Emergency Food ", "WEB_URL": null, "WARD": "Ward 5", "ADDRID": 33726, "EMAIL": "www.catholiccharitiesdc.org " }, "geometry": { "type": "Point", "coordinates": [ -76.990771630605408, 38.933187893704478 ] } },
{ "type": "Feature", "properties": { "OBJECTID": 133, "X": 399247.99, "Y": 129580.0, "ARC_STREET": "3845 South Capitol Street, S.W Washington, DC 20032", "NAME": "3845 South Capitol Street, SW, Washington, DC 20032", "TELEPHONE": "202-562-5576", "ADDRESS": "3845 SOUTH CAPITOL STREET SW", "TYPE": "Emergency Food ", "WEB_URL": null, "WARD": "Ward 8", "ADDRID": 301907, "EMAIL": null }, "geometry": { "type": "Point", "coordinates": [ -77.008663586245135, 38.834018136177932 ] } },
{ "type": "Feature", "properties": { "OBJECTID": 134, "X": 399972.54, "Y": 129377.64, "ARC_STREET": "3924 4th Street, SE Washington, DC 20032", "NAME": "Paramount Baptist Church ", "TELEPHONE": "202-562-6339", "ADDRESS": "3924 4TH STREET SE", "TYPE": "Emergency Food ", "WEB_URL": null, "WARD": "Ward 8", "ADDRID": 29051, "EMAIL": "www.paramountbaptistchurch.org " }, "geometry": { "type": "Point", "coordinates": [ -77.00031854303667, 38.832195505048055 ] } },
{ "type": "Feature", "properties": { "OBJECTID": 135, "X": 404584.31, "Y": 136231.88, "ARC_STREET": "3929 Benning Road, NE Washington. DC 20019", "NAME": "Marshall Heights Commnity Organization", "TELEPHONE": "202-396-4106", "ADDRESS": "3939 BENNING ROAD NE", "TYPE": "Emergency Food ", "WEB_URL": null, "WARD": "Ward 7", "ADDRID": 288046, "EMAIL": "www.mhcdo.org " }, "geometry": { "type": "Point", "coordinates": [ -76.947157956874705, 38.893929410633277 ] } },
{ "type": "Feature", "properties": { "OBJECTID": 136, "X": 397700.04, "Y": 141830.91, "ARC_STREET": "4406 Georgia Ave, NW Washington, DC 20011", "NAME": "Lutheran Social Services (Ward 4 Only)", "TELEPHONE": "202-723-3303", "ADDRESS": "4406 GEORGIA AVENUE NW", "TYPE": "Emergency Food ", "WEB_URL": null, "WARD": "Ward 4", "ADDRID": 252661, "EMAIL": "www.issnca.org " }, "geometry": { "type": "Point", "coordinates": [ -77.026533178932922, 38.944376251838484 ] } },
{ "type": "Feature", "properties": { "OBJECTID": 137, "X": 398458.74, "Y": 137597.11, "ARC_STREET": "448 Ridge Street, NW Washington, DC 20001", "NAME": "Northwest Settlement House", "TELEPHONE": "202-638-4736", "ADDRESS": "448 RIDGE STREET NW", "TYPE": "Emergency Food ", "WEB_URL": null, "WARD": "Ward 6", "ADDRID": 243074, "EMAIL": "www.nwsh.org " }, "geometry": { "type": "Point", "coordinates": [ -77.017771784129593, 38.906238493083073 ] } },
{ "type": "Feature", "properties": { "OBJECTID": 138, "X": 396806.32, "Y": 142108.34, "ARC_STREET": "4606 16th Street, NW Washington, DC 20011", "NAME": "Nineteen Street Baptist Church ", "TELEPHONE": "202-829-2773", "ADDRESS": "4606 16TH STREET NW", "TYPE": "Emergency Food ", "WEB_URL": null, "WARD": "Ward 4", "ADDRID": 258718, "EMAIL": "www.everyblessing.org" }, "geometry": { "type": "Point", "coordinates": [ -77.036843861740692, 38.946872625027353 ] } },
{ "type": "Feature", "properties": { "OBJECTID": 139, "X": 397388.04, "Y": 142152.09, "ARC_STREET": "4704 13th Street, NW Washington, DC  20011", "NAME": "Peoples Congregational Church", "TELEPHONE": "202-829-5511", "ADDRESS": "4704 13TH STREET NW", "TYPE": "Emergency Food ", "WEB_URL": null, "WARD": "Ward 4", "ADDRID": 284954, "EMAIL": "www.peoplecongregationalchurch.org " }, "geometry": { "type": "Point", "coordinates": [ -77.030133437592568, 38.947268659799263 ] } },
{ "type": "Feature", "properties": { "OBJECTID": 140, "X": 405927.44, "Y": 135866.14, "ARC_STREET": "4929 Ames Street, NE Washington, DC 20019", "NAME": "Peace Luther Church Parish House ", "TELEPHONE": "202-398-5503", "ADDRESS": "4929 AMES STREET NE", "TYPE": "Emergency Food ", "WEB_URL": null, "WARD": "Ward 7", "ADDRID": 15917, "EMAIL": null }, "geometry": { "type": "Point", "coordinates": [ -76.931678569105841, 38.89062665987452 ] } },
{ "type": "Feature", "properties": { "OBJECTID": 141, "X": 399243.78, "Y": 143030.14, "ARC_STREET": "5301 North Capitol Street, NE, Washington, DC 20011", "NAME": "Plymouth Congregational Church", "TELEPHONE": "202-723-5330", "ADDRESS": "5301 NORTH CAPITOL STREET NE", "TYPE": "Emergency Food ", "WEB_URL": null, "WARD": "Ward 4", "ADDRID": 156413, "EMAIL": "www.plymouth-ucc.org" }, "geometry": { "type": "Point", "coordinates": [ -77.008726887747031, 38.955181933177734 ] } },
{ "type": "Feature", "properties": { "OBJECTID": 142, "X": 396886.43, "Y": 143113.08, "ARC_STREET": "5413 16th Street, NW, Washington, DC 20011", "NAME": "Sixth Presbyterian Church ", "TELEPHONE": "202-723-5377", "ADDRESS": "5413 16TH STREET NW", "TYPE": "Emergency Food ", "WEB_URL": null, "WARD": "Ward 4", "ADDRID": 255870, "EMAIL": "www.sixthpresbyterian.org" }, "geometry": { "type": "Point", "coordinates": [ -77.035924292260546, 38.955923884894084 ] } },
{ "type": "Feature", "properties": { "OBJECTID": 143, "X": 400158.24, "Y": 139108.41, "ARC_STREET": "600 W Street, NE Washington DC 20002", "NAME": "Calvarys Food Bank", "TELEPHONE": "202-635-9053", "ADDRESS": "600 W STREET NE", "TYPE": "Emergency Food ", "WEB_URL": null, "WARD": "Ward 5", "ADDRID": 290190, "EMAIL": "www.gmchc.org " }, "geometry": { "type": "Point", "coordinates": [ -76.998177555279156, 38.919854133573985 ] } },
{ "type": "Feature", "properties": { "OBJECTID": 144, "X": 400218.98, "Y": 135135.23, "ARC_STREET": "619 D Street, NW Washington, DC 20003", "NAME": "Friendship House (Ward 6) ", "TELEPHONE": "202-675-9050", "ADDRESS": "619 D STREET SE", "TYPE": "Emergency Food ", "WEB_URL": null, "WARD": "Ward 6", "ADDRID": 4018, "EMAIL": null }, "geometry": { "type": "Point", "coordinates": [ -76.997478402275235, 38.884062296785125 ] } },
{ "type": "Feature", "properties": { "OBJECTID": 145, "X": 399040.32, "Y": 136759.32, "ARC_STREET": "65 Massachusetts Ave, NW, Washington, DC 20001", "NAME": "Central Union Mission ", "TELEPHONE": "202-232-7072", "ADDRESS": "65 MASSACHUSETTS AVENUE NW", "TYPE": "Emergency Food ", "WEB_URL": null, "WARD": "Ward 6", "ADDRID": 237153, "EMAIL": null }, "geometry": { "type": "Point", "coordinates": [ -77.011065459001671, 38.898692209955883 ] } },
{ "type": "Feature", "properties": { "OBJECTID": 146, "X": 397640.97, "Y": 143350.17, "ARC_STREET": "924 Madison Street, NW, Washington, DC 20011", "NAME": "Berean Baptist Church Department of Community and Social Services", "TELEPHONE": "202-829-8454", "ADDRESS": "924 MADISON STREET NW", "TYPE": "Emergency Food ", "WEB_URL": null, "WARD": "Ward 4", "ADDRID": 285465, "EMAIL": "www.bereanbaptistchurchdc.org " }, "geometry": { "type": "Point", "coordinates": [ -77.027219799232299, 38.958062004975218 ] } },
{ "type": "Feature", "properties": { "OBJECTID": 147, "X": 392963.22, "Y": 134616.57, "ARC_STREET": "Building 59, Fort Myer, VA 22211", "NAME": "USO of Metro Washingtonington (Military- DC)", "TELEPHONE": "703-696-3279", "ADDRESS": "Building 59, Fort Myer, VA 22211", "TYPE": "Emergency Food ", "WEB_URL": null, "WARD": null, "ADDRID": null, "EMAIL": "www.usometrodc.org " }, "geometry": { "type": "Point", "coordinates": [ -77.081100203415801, 38.879361872834224 ] } },
{ "type": "Feature", "properties": { "OBJECTID": 148, "X": 400071.4, "Y": 137220.4, "ARC_STREET": "500 K Street, NE, Washington, DC 20002", "NAME": "The Older Workers Employment and Training Program ", "TELEPHONE": "202-724-3662", "ADDRESS": "500 K STREET NE", "TYPE": "Employment & Job Training ", "WEB_URL": null, "WARD": "Ward 6", "ADDRID": 300865, "EMAIL": null }, "geometry": { "type": "Point", "coordinates": [ -76.99917913773173, 38.9028463055378 ] } },
{ "type": "Feature", "properties": { "OBJECTID": 149, "X": 397457.4, "Y": 137371.65, "ARC_STREET": "1234 Massachusetts Avenue, NW Washington, DC 20005", "NAME": "Al-Care ", "TELEPHONE": "202-638-2382", "ADDRESS": "1234 MASSACHUSETTS AVENUE NW", "TYPE": "Health Care\/ In-Home Support", "WEB_URL": null, "WARD": "Ward 2", "ADDRID": 240920, "EMAIL": null }, "geometry": { "type": "Point", "coordinates": [ -77.029315601341565, 38.904205143533439 ] } },
{ "type": "Feature", "properties": { "OBJECTID": 150, "X": 397457.4, "Y": 137371.65, "ARC_STREET": "1234 Massachusetts Avenue, NW Washington, DC 20005", "NAME": "DC Caregivers Institute ", "TELEPHONE": "202-464-1523", "ADDRESS": "1234 MASSACHUSETTS AVENUE NW", "TYPE": "Health Care\/ In-Home Support", "WEB_URL": null, "WARD": "Ward 2", "ADDRID": 240920, "EMAIL": null }, "geometry": { "type": "Point", "coordinates": [ -77.029315601341565, 38.904205143533439 ] } },
{ "type": "Feature", "properties": { "OBJECTID": 151, "X": 397457.4, "Y": 137371.65, "ARC_STREET": "1234 Massachusetts Avenue, Suite C-1002 NW Washington, DC 20005", "NAME": "Home Care Partners ", "TELEPHONE": "202-638-2382", "ADDRESS": "1234 MASSACHUSETTS AVENUE NW", "TYPE": "Health Care\/ In-Home Support", "WEB_URL": null, "WARD": "Ward 2", "ADDRID": 240920, "EMAIL": null }, "geometry": { "type": "Point", "coordinates": [ -77.029315601341565, 38.904205143533439 ] } },
{ "type": "Feature", "properties": { "OBJECTID": 152, "X": 401754.35, "Y": 133079.67, "ARC_STREET": "1667 Good Hope Road, SE Washington, DC 20020", "NAME": "Interfaith Caregivers Program (S.O.M.E)", "TELEPHONE": "202-797-8806 ext. 1304", "ADDRESS": "1667 GOOD HOPE ROAD SE", "TYPE": "Health Care\/ In-Home Support", "WEB_URL": null, "WARD": "Ward 8", "ADDRID": 58175, "EMAIL": null }, "geometry": { "type": "Point", "coordinates": [ -76.979787556351695, 38.865543268146197 ] } },
{ "type": "Feature", "properties": { "OBJECTID": 153, "X": 401895.08, "Y": 139507.43, "ARC_STREET": "2601 18th Street, NE Washington, DC 20018", "NAME": "Washington Center of Aging Services (Respite)", "TELEPHONE": "202-541-6200", "ADDRESS": "2601 18TH STREET NE", "TYPE": "Health Care\/ In-Home Support", "WEB_URL": null, "WARD": "Ward 5", "ADDRID": 287131, "EMAIL": null }, "geometry": { "type": "Point", "coordinates": [ -76.978148249557293, 38.923446606878564 ] } },
{ "type": "Feature", "properties": { "OBJECTID": 154, "X": 404363.02, "Y": 136219.83, "ARC_STREET": "3917 Minnesota Avenue, NE Washington, DC 20019", "NAME": "East River Family Strengthening Collaborative Heavy Housecleaning", "TELEPHONE": "202-534-4880", "ADDRESS": "3917 MINNESOTA AVENUE NE", "TYPE": "Health Care\/ In-Home Support", "WEB_URL": null, "WARD": "Ward 7", "ADDRID": 29135, "EMAIL": null }, "geometry": { "type": "Point", "coordinates": [ -76.949708890237844, 38.893821985801807 ] } },
{ "type": "Feature", "properties": { "OBJECTID": 155, "X": 394423.74, "Y": 141839.77, "ARC_STREET": "4200 Connecticut Avenue, NW Building 32, RM 203, Washington, DC 20008", "NAME": "UDC- Institute of Gerontology Respite Aide Program", "TELEPHONE": "202-274-6623", "ADDRESS": "4200 CONNECTICUT AVENUE NW", "TYPE": "Health Care\/ In-Home Support", "WEB_URL": null, "WARD": "Ward 3", "ADDRID": 297694, "EMAIL": null }, "geometry": { "type": "Point", "coordinates": [ -77.064326579260978, 38.944441376958849 ] } },
{ "type": "Feature", "properties": { "OBJECTID": 156, "X": 396087.3, "Y": 136680.57, "ARC_STREET": "650 20th Street, NW Washington, DC 20052", "NAME": "George Washington University Health Insurance Counseling ", "TELEPHONE": "202-994-6272", "ADDRESS": "650 20TH STREET NW", "TYPE": "Health Care\/ In-Home Support", "WEB_URL": null, "WARD": "Ward 2", "ADDRID": 311753, "EMAIL": null }, "geometry": { "type": "Point", "coordinates": [ -77.045107373832323, 38.897974616284152 ] } },
{ "type": "Feature", "properties": { "OBJECTID": 157, "X": 399008.35, "Y": 150176.16, "ARC_STREET": "35 University Boulevard, East, Silver Spring, MD 20901", "NAME": "The Metropolitan Washington Ear, Inc. ", "TELEPHONE": "301-681-6636", "ADDRESS": "35 University Boulevard, East, Silver Spring, MD 20901", "TYPE": "Hearing Impairment ", "WEB_URL": null, "WARD": null, "ADDRID": null, "EMAIL": "www.washear.org" }, "geometry": { "type": "Point", "coordinates": [ -77.011453417558684, 39.019554535534276 ] } },
{ "type": "Feature", "properties": { "OBJECTID": 158, "X": 398312.81, "Y": 139200.47, "ARC_STREET": "525 Bryant Street, NW, Washington, DC 20059", "NAME": "Howard University, Speech and Hearing Clinic ", "TELEPHONE": "202-806-7690", "ADDRESS": "525 BRYANT STREET NW", "TYPE": "Hearing Impairment ", "WEB_URL": null, "WARD": "Ward 1", "ADDRID": 285122, "EMAIL": "www.howard.edu " }, "geometry": { "type": "Point", "coordinates": [ -77.019458181352789, 38.920681833992994 ] } },
{ "type": "Feature", "properties": { "OBJECTID": 159, "X": 395930.97, "Y": 136749.92, "ARC_STREET": "710 21st Street, NW, Suite B01, Washington, DC 20052", "NAME": "George Washington University ", "TELEPHONE": "202-994-7360", "ADDRESS": "710 21ST STREET NW", "TYPE": "Hearing Impairment ", "WEB_URL": null, "WARD": "Ward 2", "ADDRID": 291185, "EMAIL": "www.gwu.edu" }, "geometry": { "type": "Point", "coordinates": [ -77.046909936008404, 38.898598636390545 ] } },
{ "type": "Feature", "properties": { "OBJECTID": 160, "X": 391657.68, "Y": 146786.19, "ARC_STREET": "7910 Woodmont Avenue, Suite 1200, Bethesda, MD 20814", "NAME": "Hearing Loss Association of America ", "TELEPHONE": "301-657-2248 ", "ADDRESS": "7910 Woodmont Avenue, Suite 1200, Bethesda, MD 20814", "TYPE": "Hearing Impairment ", "WEB_URL": null, "WARD": null, "ADDRID": null, "EMAIL": "www.hearingloss.org " }, "geometry": { "type": "Point", "coordinates": [ -77.096294309072093, 38.988978008744731 ] } },
{ "type": "Feature", "properties": { "OBJECTID": 161, "X": 400861.83, "Y": 129174.5, "ARC_STREET": "896 Southern Ave SE Washington, DC 20032", "NAME": "Senior Center for the Deaf and Hearing Impaired\/ Family Matters of Greater Washington, Inc.", "TELEPHONE": "202-562-1363", "ADDRESS": "896 SOUTHERN AVENUE SE", "TYPE": "Hearing Impairment ", "WEB_URL": null, "WARD": "Ward 8", "ADDRID": 81597, "EMAIL": "www.familymattersdc.org" }, "geometry": { "type": "Point", "coordinates": [ -76.990076623923443, 38.83036510427015 ] } },
{ "type": "Feature", "properties": { "OBJECTID": 162, "X": 400760.34, "Y": 141710.59, "ARC_STREET": "1150 Varnum Street, NE Washington, DC 20017", "NAME": "Carroll Manor Nursing and Rehabilitation Center", "TELEPHONE": "202-269-7100", "ADDRESS": "1150 VARNUM STREET NE", "TYPE": "Long-Term Care Providers", "WEB_URL": "www.provhosp.org", "WARD": "Ward 5", "ADDRID": 289609, "EMAIL": null }, "geometry": { "type": "Point", "coordinates": [ -76.991231615059846, 38.943295057746447 ] } },
{ "type": "Feature", "properties": { "OBJECTID": 163, "X": 401323.97, "Y": 129803.03, "ARC_STREET": "1310 Southern Ave,. SE Washington, DC 20032", "NAME": "United Medical Nursing Center (UMNC)", "TELEPHONE": "202-574-6000", "ADDRESS": "1310 SOUTHERN AVENUE SE", "TYPE": "Long-Term Care Providers", "WEB_URL": "www.unitedmedicalcenter.com", "WARD": "Ward 8", "ADDRID": 277936, "EMAIL": null }, "geometry": { "type": "Point", "coordinates": [ -76.984752970614863, 38.836026618958741 ] } },
{ "type": "Feature", "properties": { "OBJECTID": 164, "X": 397304.53, "Y": 137451.42, "ARC_STREET": "1330 Massachusetts Ave, NW Washington, DC 20005", "NAME": "The Residence at Thomas Circle", "TELEPHONE": "202-628-3844", "ADDRESS": "1330 MASSACHUSETTS AVENUE NW", "TYPE": "Long-Term Care Providers", "WEB_URL": "www.thomascircle.com ", "WARD": "Ward 2", "ADDRID": 240636, "EMAIL": null }, "geometry": { "type": "Point", "coordinates": [ -77.031078333438842, 38.904923284246031 ] } },
{ "type": "Feature", "properties": { "OBJECTID": 165, "X": 401406.81, "Y": 129931.62, "ARC_STREET": "1380 Southern Ave, SE Washington, DC 20032", "NAME": "Carolyn Boone Lewis Health Care Center (CBL)", "TELEPHONE": "202-279-5880", "ADDRESS": "1380 SOUTHERN AVENUE SE", "TYPE": "Long-Term Care Providers", "WEB_URL": "www.cblhealth.org", "WARD": "Ward 8", "ADDRID": 277951, "EMAIL": null }, "geometry": { "type": "Point", "coordinates": [ -76.983798567794466, 38.837184887910077 ] } },
{ "type": "Feature", "properties": { "OBJECTID": 166, "X": 396269.2, "Y": 140672.38, "ARC_STREET": "1818 Newton Street, NW Washington, DC 20010", "NAME": "Stoddard Baptist Nursing Church", "TELEPHONE": "202-328-0014", "ADDRESS": "1818 NEWTON STREET NW", "TYPE": "Long-Term Care Providers", "WEB_URL": "www.stoddardbaptisthome.com", "WARD": "Ward 1", "ADDRID": 233807, "EMAIL": null }, "geometry": { "type": "Point", "coordinates": [ -77.043032147751134, 38.93393496113584 ] } },
{ "type": "Feature", "properties": { "OBJECTID": 167, "X": 395835.74, "Y": 137888.77, "ARC_STREET": "2131 O Street, NW Washington, DC 20037", "NAME": "Brintonwoods Health and Rehabilitation Center at Dupont Circle", "TELEPHONE": "202-785-2577", "ADDRESS": "2131 O STREET NW", "TYPE": "Long-Term Care Providers", "WEB_URL": "www.brintwoods.com", "WARD": "Ward 2", "ADDRID": 218636, "EMAIL": null }, "geometry": { "type": "Point", "coordinates": [ -77.048014649824069, 38.908857353200773 ] } },
{ "type": "Feature", "properties": { "OBJECTID": 168, "X": 402487.53, "Y": 132315.09, "ARC_STREET": "2425 25th St, SE Washington, DC 20020", "NAME": "Washington Nursing Facility (WNF)", "TELEPHONE": "202-889-3600", "ADDRESS": "2425 25TH STREET SE", "TYPE": "Long-Term Care Providers", "WEB_URL": "www.washingtonnursingfacility.com", "WARD": "Ward 8", "ADDRID": 287047, "EMAIL": null }, "geometry": { "type": "Point", "coordinates": [ -76.971342160798827, 38.858653843277764 ] } },
{ "type": "Feature", "properties": { "OBJECTID": 169, "X": 401895.08, "Y": 139507.43, "ARC_STREET": "2601 18th Street, NE Washington, DC 20018", "NAME": "Washington Center for Aging Services (WCAS)", "TELEPHONE": "202-541-6200", "ADDRESS": "2601 18TH STREET NE", "TYPE": "Long-Term Care Providers", "WEB_URL": "www.wellness.com ", "WARD": "Ward 5", "ADDRID": 287131, "EMAIL": null }, "geometry": { "type": "Point", "coordinates": [ -76.978148249557293, 38.923446606878564 ] } },
{ "type": "Feature", "properties": { "OBJECTID": 170, "X": 394665.1, "Y": 143613.54, "ARC_STREET": "3050 Military Road, NW Washington, DC 20015", "NAME": "Ingleside ", "TELEPHONE": "202-407-9672", "ADDRESS": "3050 MILITARY ROAD NW", "TYPE": "Long-Term Care Providers", "WEB_URL": "www.ircdc.org", "WARD": "Ward 4", "ADDRID": 274717, "EMAIL": null }, "geometry": { "type": "Point", "coordinates": [ -77.061556197633308, 38.960421474737316 ] } },
{ "type": "Feature", "properties": { "OBJECTID": 171, "X": 393568.28, "Y": 141513.28, "ARC_STREET": "3720 Upton Street, NW Washington, DC 20001", "NAME": "Washington Home ", "TELEPHONE": "202-966-3720", "ADDRESS": "3720 UPTON STREET NW", "TYPE": "Long-Term Care Providers", "WEB_URL": "www.thewashingtonhome.org", "WARD": "Ward 3", "ADDRID": 222233, "EMAIL": null }, "geometry": { "type": "Point", "coordinates": [ -77.074191572746201, 38.941494414948046 ] } },
{ "type": "Feature", "properties": { "OBJECTID": 172, "X": 399479.84, "Y": 141201.74, "ARC_STREET": "4200 Harewood Road, NE Washington, DC 20017", "NAME": "Little Sisters of the Poor", "TELEPHONE": "202-269-1831", "ADDRESS": "4200 HAREWOOD ROAD NE", "TYPE": "Long-Term Care Providers", "WEB_URL": "www.littlesistersofthepoor.org", "WARD": "Ward 5", "ADDRID": 288131, "EMAIL": null }, "geometry": { "type": "Point", "coordinates": [ -77.0060020478236, 38.938711362949434 ] } },
{ "type": "Feature", "properties": { "OBJECTID": 173, "X": 394065.26, "Y": 142898.86, "ARC_STREET": "4901 Connectivut Ave, NW Washington, DC 20008", "NAME": "Forest Hills of DC (formally Methodist Home)", "TELEPHONE": "202-966-7623", "ADDRESS": "4901 CONNECTICUT AVENUE NW", "TYPE": "Long-Term Care Providers", "WEB_URL": "www.foresthillsdc.org ", "WARD": "Ward 3", "ADDRID": 220518, "EMAIL": null }, "geometry": { "type": "Point", "coordinates": [ -77.068470945381463, 38.953979602220429 ] } },
{ "type": "Feature", "properties": { "OBJECTID": 174, "X": 406222.16, "Y": 136825.1, "ARC_STREET": "5000 Nanie Helen Burroughs Ave, NE Washington, DC 20019", "NAME": "Deanwood Rehab and Wellness Center ", "TELEPHONE": "202-399-1507", "ADDRESS": "5000 NANNIE HELEN BURROUGHS AVENUE NE", "TYPE": "Long-Term Care Providers", "WEB_URL": "www.deanwoodrwc.com", "WARD": "Ward 7", "ADDRID": 289526, "EMAIL": null }, "geometry": { "type": "Point", "coordinates": [ -76.928272742046858, 38.899263285841783 ] } },
{ "type": "Feature", "properties": { "OBJECTID": 175, "X": 390529.01, "Y": 140931.78, "ARC_STREET": "5255 Loughboro Road, NW Washington, DC 20010", "NAME": "Sibley Memorial Hospital The Renaissance Unit\/ Grand Oaks", "TELEPHONE": "202-537-4000", "ADDRESS": "5255 LOUGHBORO ROAD NW", "TYPE": "Long-Term Care Providers", "WEB_URL": "www.sibley.org", "WARD": "Ward 3", "ADDRID": 295156, "EMAIL": null }, "geometry": { "type": "Point", "coordinates": [ -77.109241212104379, 38.936228586067209 ] } },
{ "type": "Feature", "properties": { "OBJECTID": 176, "X": 392788.32, "Y": 143787.3, "ARC_STREET": "5425 Western Ave, NW Washington, DC 20015", "NAME": "Lisner-Louise-Dickson-Hurt Home", "TELEPHONE": "202-966-6667", "ADDRESS": "5425 WESTERN AVENUE NW", "TYPE": "Long-Term Care Providers", "WEB_URL": "www.lldhhome.org", "WARD": "Ward 3", "ADDRID": 265978, "EMAIL": null }, "geometry": { "type": "Point", "coordinates": [ -77.083212244026484, 38.961973343042693 ] } },
{ "type": "Feature", "properties": { "OBJECTID": 177, "X": 400402.83, "Y": 136052.97, "ARC_STREET": "700 Consitution Ave, NE Washington, DC 20002", "NAME": "Specialty Hospital of Washington- Hadley Hospital Skilled Nursing Facility ", "TELEPHONE": "202-546-5700", "ADDRESS": "700 CONSTITUTION AVENUE NE", "TYPE": "Long-Term Care Providers", "WEB_URL": "www.specialtyhospitalofwashington.com", "WARD": "Ward 6", "ADDRID": 295162, "EMAIL": null }, "geometry": { "type": "Point", "coordinates": [ -76.99535887949925, 38.892329581713327 ] } },
{ "type": "Feature", "properties": { "OBJECTID": 178, "X": 398969.98, "Y": 137112.78, "ARC_STREET": "901 First Street, NW Washington, DC 20001", "NAME": "Unique Residential Care Center (URCC)", "TELEPHONE": "202-535-1100", "ADDRESS": "901 1ST STREET NW", "TYPE": "Long-Term Care Providers", "WEB_URL": "www.urccenter.com", "WARD": "Ward 6", "ADDRID": 237152, "EMAIL": null }, "geometry": { "type": "Point", "coordinates": [ -77.011876867595717, 38.901876225159796 ] } },
{ "type": "Feature", "properties": { "OBJECTID": 179, "X": 397902.33, "Y": 137950.53, "ARC_STREET": "1426 9th Street, NW Washington, 20001", "NAME": "Emmaus Services for the Aging ", "TELEPHONE": "202-742-1200", "ADDRESS": "1426 9TH STREET NW", "TYPE": "Nutrition Services ", "WEB_URL": null, "WARD": "Ward 2", "ADDRID": 243060, "EMAIL": "www.emmausservice.org " }, "geometry": { "type": "Point", "coordinates": [ -77.024187827710563, 38.909421071159009 ] } },
{ "type": "Feature", "properties": { "OBJECTID": 180, "X": 396319.26, "Y": 137223.83, "ARC_STREET": "1825 K Street, NW, Washington, DC 20001", "NAME": "Columbia Lighthouse for the Blind ", "TELEPHONE": "202-454-6400", "ADDRESS": "1825 K STREET NW", "TYPE": "Nutrition Services ", "WEB_URL": null, "WARD": "Ward 2", "ADDRID": 240969, "EMAIL": "www.clb.org " }, "geometry": { "type": "Point", "coordinates": [ -77.042436281272856, 38.902869499140209 ] } },
{ "type": "Feature", "properties": { "OBJECTID": 181, "X": 402917.95, "Y": 140712.3, "ARC_STREET": "2900 Newton Stree, NE Washington DC ", "NAME": "Episcopal Senior Ministries", "TELEPHONE": "202-529-8701", "ADDRESS": "2900 NEWTON STREET NE", "TYPE": "Nutrition Services ", "WEB_URL": null, "WARD": "Ward 5", "ADDRID": 287312, "EMAIL": "www.gwul.org" }, "geometry": { "type": "Point", "coordinates": [ -76.966347406483422, 38.934297650950136 ] } },
{ "type": "Feature", "properties": { "OBJECTID": 182, "X": 399462.71, "Y": 129919.8, "ARC_STREET": "3720 Martin Luther King, Jr. Ave SE Washington DC 20032", "NAME": "Commodity Supplemental Food Program", "TELEPHONE": "202-715-7695", "ADDRESS": "3720 MARTIN LUTHER KING JR AVENUE SE", "TYPE": "Nutrition Services ", "WEB_URL": null, "WARD": "Ward 8", "ADDRID": 278424, "EMAIL": null }, "geometry": { "type": "Point", "coordinates": [ -77.006190805141927, 38.837079367810155 ] } },
{ "type": "Feature", "properties": { "OBJECTID": 183, "X": 392921.6, "Y": 142256.5, "ARC_STREET": "4125 Albermarle Street, NW, Washington DC ", "NAME": "IONA Senior Services", "TELEPHONE": "202-895-9448", "ADDRESS": "4125 ALBEMARLE STREET NW", "TYPE": "Nutrition Services ", "WEB_URL": null, "WARD": "Ward 3", "ADDRID": 264423, "EMAIL": "www.iona.org " }, "geometry": { "type": "Point", "coordinates": [ -77.081658630882885, 38.948184577388915 ] } },
{ "type": "Feature", "properties": { "OBJECTID": 184, "X": 406789.33, "Y": 135740.32, "ARC_STREET": "5601 East Capitol St SE Washington, DC 20019", "NAME": "Commodity Supplemental Food Program", "TELEPHONE": "202-645-6087", "ADDRESS": "5601 EAST CAPITOL STREET SE", "TYPE": "Nutrition Services ", "WEB_URL": null, "WARD": "Ward 7", "ADDRID": 294610, "EMAIL": null }, "geometry": { "type": "Point", "coordinates": [ -76.921745085209764, 38.889486993248774 ] } },
{ "type": "Feature", "properties": { "OBJECTID": 185, "X": 394052.76, "Y": 144192.58, "ARC_STREET": "5608 Broadbranch Road, NW Washington,DC 2015", "NAME": "Broad Branch Market", "TELEPHONE": "202-966-5656", "ADDRESS": "5608 BROAD BRANCH ROAD NW", "TYPE": "Nutrition Services ", "WEB_URL": null, "WARD": "Ward 3", "ADDRID": 263174, "EMAIL": "www.broadbranchmarket.com " }, "geometry": { "type": "Point", "coordinates": [ -77.068626377567142, 38.965633679045972 ] } },
{ "type": "Feature", "properties": { "OBJECTID": 186, "X": 399008.49, "Y": 137895.3, "ARC_STREET": "71 O Street, NW Washington, DC 20001", "NAME": "So Others Might Eat (S.O.M.E)", "TELEPHONE": "202-797-8806", "ADDRESS": "71 O STREET NW", "TYPE": "Nutrition Services ", "WEB_URL": null, "WARD": "Ward 5", "ADDRID": 236922, "EMAIL": "www.some.org " }, "geometry": { "type": "Point", "coordinates": [ -77.011434035260919, 38.908925484644641 ] } },
{ "type": "Feature", "properties": { "OBJECTID": 187, "X": 400536.71, "Y": 136821.6, "ARC_STREET": "900 G Street, NE, 4th Floor, Washington, DC 20002", "NAME": "United Planing Organization Senior Life Center", "TELEPHONE": "202-608-1340", "ADDRESS": "900 G STREET NE", "TYPE": "Nutrition Services ", "WEB_URL": null, "WARD": "Ward 6", "ADDRID": 289042, "EMAIL": "www.upo.org " }, "geometry": { "type": "Point", "coordinates": [ -76.993815050595856, 38.899253611383536 ] } },
{ "type": "Feature", "properties": { "OBJECTID": 188, "X": 402034.09, "Y": 136810.09, "ARC_STREET": "1830 Benning Rd NE, Washington, DC 20002", "NAME": "Clover Market", "TELEPHONE": "202-363-1717", "ADDRESS": "1830 BENNING ROAD NE", "TYPE": "Nutrition Services ", "WEB_URL": null, "WARD": "Ward 5", "ADDRID": 55068, "EMAIL": null }, "geometry": { "type": "Point", "coordinates": [ -76.976553176870965, 38.899147736228798 ] } },
{ "type": "Feature", "properties": { "OBJECTID": 189, "X": 400071.4, "Y": 137220.4, "ARC_STREET": "500 K Street, NE Washington, DC 20002", "NAME": "Aging and Disability Resource Center (ADRC)", "TELEPHONE": "202-724-5626", "ADDRESS": "500 K STREET NE", "TYPE": "Office on Aging Based Programs", "WEB_URL": null, "WARD": "Ward 6", "ADDRID": 300865, "EMAIL": null }, "geometry": { "type": "Point", "coordinates": [ -76.99917913773173, 38.9028463055378 ] } },
{ "type": "Feature", "properties": { "OBJECTID": 190, "X": 400071.4, "Y": 137220.4, "ARC_STREET": "500 K Street, NE Washington, DC 20002", "NAME": "ADRC\/Information and Assistance", "TELEPHONE": "202-724-5626", "ADDRESS": "500 K STREET NE", "TYPE": "Office on Aging Based Programs", "WEB_URL": null, "WARD": "Ward 6", "ADDRID": 300865, "EMAIL": null }, "geometry": { "type": "Point", "coordinates": [ -76.99917913773173, 38.9028463055378 ] } },
{ "type": "Feature", "properties": { "OBJECTID": 191, "X": 400071.4, "Y": 137220.4, "ARC_STREET": "500 K Street, NE Washington, DC 20002", "NAME": "ADRC\/Job Training and Employment Program", "TELEPHONE": "202-724-3662", "ADDRESS": "500 K STREET NE", "TYPE": "Office on Aging Based Programs", "WEB_URL": null, "WARD": "Ward 6", "ADDRID": 300865, "EMAIL": null }, "geometry": { "type": "Point", "coordinates": [ -76.99917913773173, 38.9028463055378 ] } },
{ "type": "Feature", "properties": { "OBJECTID": 192, "X": 396956.78, "Y": 139707.59, "ARC_STREET": "1480 Girard Street, NW Suite 420, Washington, DC 20009", "NAME": "Columbia Heights Community Center ", "TELEPHONE": "202-664-7153", "ADDRESS": "1480 GIRARD STREET NW", "TYPE": "Recreation\/Socialization ", "WEB_URL": null, "WARD": "Ward 1", "ADDRID": 284045, "EMAIL": null }, "geometry": { "type": "Point", "coordinates": [ -77.035097540850799, 38.925246483920432 ] } },
{ "type": "Feature", "properties": { "OBJECTID": 193, "X": 401754.35, "Y": 133079.67, "ARC_STREET": "1667 Good Hope Road, SE Washington, DC 20020", "NAME": "Dwelling Place ", "TELEPHONE": "202-583-7602", "ADDRESS": "1667 GOOD HOPE ROAD SE", "TYPE": "Recreation\/Socialization ", "WEB_URL": null, "WARD": "Ward 8", "ADDRID": 58175, "EMAIL": null }, "geometry": { "type": "Point", "coordinates": [ -76.979787556351695, 38.865543268146197 ] } },
{ "type": "Feature", "properties": { "OBJECTID": 194, "X": 396145.21, "Y": 139466.17, "ARC_STREET": "1842 Calvert Street, NW Washington, DC 20009", "NAME": "Vida Senior Center", "TELEPHONE": "202-483-1508", "ADDRESS": "1842 CALVERT STREET NW", "TYPE": "Recreation\/Socialization ", "WEB_URL": null, "WARD": "Ward 1", "ADDRID": 235322, "EMAIL": null }, "geometry": { "type": "Point", "coordinates": [ -77.044455433639882, 38.923068509701352 ] } },
{ "type": "Feature", "properties": { "OBJECTID": 195, "X": 402917.95, "Y": 140712.3, "ARC_STREET": "2900 Newton Street, NE Washington, DC 20018", "NAME": "Senior Center for the Blind and Visually Impaired (Seabury Ward 5 Aging Services)", "TELEPHONE": "202-529-8701", "ADDRESS": "2900 NEWTON STREET NE", "TYPE": "Recreation\/Socialization ", "WEB_URL": null, "WARD": "Ward 5", "ADDRID": 287312, "EMAIL": null }, "geometry": { "type": "Point", "coordinates": [ -76.966347406483422, 38.934297650950136 ] } },
{ "type": "Feature", "properties": { "OBJECTID": 196, "X": 403772.98, "Y": 135320.05, "ARC_STREET": "3441 Minnesota Avenue, SE Washington, DC 20020", "NAME": "Phillip T. Johnson", "TELEPHONE": "202-584-4431", "ADDRESS": "3440 MINNESOTA AVENUE SE", "TYPE": "Recreation\/Socialization ", "WEB_URL": null, "WARD": "Ward 7", "ADDRID": 34531, "EMAIL": null }, "geometry": { "type": "Point", "coordinates": [ -76.956515337067557, 38.885719159667531 ] } },
{ "type": "Feature", "properties": { "OBJECTID": 197, "X": 398388.73, "Y": 136812.17, "ARC_STREET": "417 G Place, NW Washington, DC 20001", "NAME": "Asian Services Senior Center ", "TELEPHONE": "202-842-4376", "ADDRESS": "417 G PLACE NW", "TYPE": "Recreation\/Socialization ", "WEB_URL": null, "WARD": "Ward 2", "ADDRID": 303718, "EMAIL": null }, "geometry": { "type": "Point", "coordinates": [ -77.018577101831156, 38.899167348756386 ] } },
{ "type": "Feature", "properties": { "OBJECTID": 198, "X": 398027.24, "Y": 141226.21, "ARC_STREET": "715 Randolph Street, NW Washington, DC 20011", "NAME": "First Baptist Senior Center ", "TELEPHONE": "202-723-4313", "ADDRESS": "715 RANDOLPH STREET NW", "TYPE": "Recreation\/Socialization ", "WEB_URL": null, "WARD": "Ward 4", "ADDRID": 249660, "EMAIL": null }, "geometry": { "type": "Point", "coordinates": [ -77.022757066550653, 38.938929734453339 ] } },
{ "type": "Feature", "properties": { "OBJECTID": 199, "X": 400069.73, "Y": 134551.26, "ARC_STREET": "900 5th Street, SE Washington, DC 20003 ", "NAME": "Capper\/Carrollsburg", "TELEPHONE": "202-546-1024", "ADDRESS": "900 5TH STREET SE", "TYPE": "Recreation\/Socialization ", "WEB_URL": null, "WARD": "Ward 6", "ADDRID": 302625, "EMAIL": null }, "geometry": { "type": "Point", "coordinates": [ -76.999198660004936, 38.878801691848885 ] } },
{ "type": "Feature", "properties": { "OBJECTID": 200, "X": 402018.77, "Y": 139583.79, "ARC_STREET": "1901 Evarts Street, NE, Washington, DC 20008", "NAME": "Model Cities Senior Wellness Center ", "TELEPHONE": "202-635-1900", "ADDRESS": "1901 EVARTS STREET NE", "TYPE": "Senior Wellness Center", "WEB_URL": null, "WARD": "Ward 5", "ADDRID": 301587, "EMAIL": null }, "geometry": { "type": "Point", "coordinates": [ -76.976721633782546, 38.924134206862433 ] } },
{ "type": "Feature", "properties": { "OBJECTID": 201, "X": 403114.43, "Y": 132521.44, "ARC_STREET": "3001 Alabama Avenue, SE Washington, DC 20020", "NAME": "The Washington Seniors Wellness Center ", "TELEPHONE": "202-581-9355", "ADDRESS": "3001 ALABAMA AVENUE SE", "TYPE": "Senior Wellness Center", "WEB_URL": null, "WARD": "Ward 7", "ADDRID": 289473, "EMAIL": null }, "geometry": { "type": "Point", "coordinates": [ -76.964118387773269, 38.860510735129161 ] } },
{ "type": "Feature", "properties": { "OBJECTID": 202, "X": 398515.9, "Y": 143164.25, "ARC_STREET": "324 Kennedy Street, NW Washington, DC 20011", "NAME": "Hattie Holmes Senior Wellness Center ", "TELEPHONE": "202-291-6170", "ADDRESS": "324 KENNEDY STREET NW", "TYPE": "Senior Wellness Center", "WEB_URL": null, "WARD": "Ward 4", "ADDRID": 307575, "EMAIL": null }, "geometry": { "type": "Point", "coordinates": [ -77.017124816738942, 38.956389103153825 ] } },
{ "type": "Feature", "properties": { "OBJECTID": 203, "X": 399675.91, "Y": 130234.21, "ARC_STREET": "3500 Martin Luther King, Jr. Avenue, SE, Washington, DC 20032", "NAME": "Congress Heights Senior Wellness Center ", "TELEPHONE": "202-563-7225", "ADDRESS": "3500 MARTIN LUTHER KING JR AVENUE SE", "TYPE": "Senior Wellness Center", "WEB_URL": null, "WARD": "Ward 8", "ADDRID": 303598, "EMAIL": null }, "geometry": { "type": "Point", "coordinates": [ -77.003735308180353, 38.839911820393333 ] } },
{ "type": "Feature", "properties": { "OBJECTID": 204, "X": 397950.57, "Y": 140641.97, "ARC_STREET": "3531 Georgia Avenue, NW, Washington, DC 20010", "NAME": "Bernice Elizabeth Fonteneau Wellness Center ", "TELEPHONE": "202-727-0338", "ADDRESS": "3531 GEORGIA AVENUE NW", "TYPE": "Senior Wellness Center", "WEB_URL": null, "WARD": "Ward 1", "ADDRID": 228763, "EMAIL": null }, "geometry": { "type": "Point", "coordinates": [ -77.023639670634168, 38.933666549951297 ] } },
{ "type": "Feature", "properties": { "OBJECTID": 205, "X": 396956.78, "Y": 139707.59, "ARC_STREET": "1480 Girard Street, NW Washington, DC 20009", "NAME": "D.C. Department of Parks and Recreation ", "TELEPHONE": "202-671-0394", "ADDRESS": "1480 GIRARD STREET NW", "TYPE": "Transportation Services ", "WEB_URL": null, "WARD": "Ward 1", "ADDRID": 284045, "EMAIL": null }, "geometry": { "type": "Point", "coordinates": [ -77.035097540850799, 38.925246483920432 ] } },
{ "type": "Feature", "properties": { "OBJECTID": 206, "X": 401895.08, "Y": 139507.43, "ARC_STREET": "2601 18th Street, NE Washington, DC 20018", "NAME": "Seabury Connector ", "TELEPHONE": "202-727-7771", "ADDRESS": "2601 18TH STREET NE", "TYPE": "Transportation Services ", "WEB_URL": null, "WARD": "Ward 5", "ADDRID": 287131, "EMAIL": null }, "geometry": { "type": "Point", "coordinates": [ -76.978148249557293, 38.923446606878564 ] } },
{ "type": "Feature", "properties": { "OBJECTID": 207, "X": 401895.08, "Y": 139507.43, "ARC_STREET": "2601 18th Street, NE Washington, DC 20018", "NAME": "Call N Ride\/ Door to Door Taxicab Transportation Program", "TELEPHONE": "202-727-7771", "ADDRESS": "2601 18TH STREET NE", "TYPE": "Transportation Services ", "WEB_URL": null, "WARD": "Ward 5", "ADDRID": 287131, "EMAIL": null }, "geometry": { "type": "Point", "coordinates": [ -76.978148249557293, 38.923446606878564 ] } },
{ "type": "Feature", "properties": { "OBJECTID": 208, "X": 397518.47, "Y": 141401.5, "ARC_STREET": "1250 Taylor Street, NW, Washington, DC 20011", "NAME": "Vet Center (DC)", "TELEPHONE": "202-726-5212", "ADDRESS": "1250 TAYLOR STREET NW", "TYPE": "Veterans", "WEB_URL": null, "WARD": "Ward 4", "ADDRID": 224852, "EMAIL": null }, "geometry": { "type": "Point", "coordinates": [ -77.028626102783349, 38.940507508301593 ] } },
{ "type": "Feature", "properties": { "OBJECTID": 209, "X": 399111.68, "Y": 140155.3, "ARC_STREET": "50 Irving Street, Washington, DC 20422", "NAME": "Washington DC VA Medical Center", "TELEPHONE": "202-745-8000", "ADDRESS": "50 IRVING STREET NW", "TYPE": "Veterans", "WEB_URL": null, "WARD": "Ward 5", "ADDRID": 243205, "EMAIL": "www.va.gov" }, "geometry": { "type": "Point", "coordinates": [ -77.010247217457348, 38.929284418269084 ] } },
{ "type": "Feature", "properties": { "OBJECTID": 210, "X": 396944.25, "Y": 136997.21, "ARC_STREET": "810 Vermont Avenue, NW, Washingto, DC 20420", "NAME": "Department of Veteran Affairs", "TELEPHONE": "202-273-5400", "ADDRESS": "810 VERMONT AVENUE NW", "TYPE": "Veterans", "WEB_URL": null, "WARD": "Ward 2", "ADDRID": 279954, "EMAIL": "www.va.gov" }, "geometry": { "type": "Point", "coordinates": [ -77.035229976943114, 38.900830420515653 ] } },
{ "type": "Feature", "properties": { "OBJECTID": 211, "X": 401359.1, "Y": 136967.29, "ARC_STREET": "1400 Florida Avenue, NE Suite 3 Washington, DC 20002", "NAME": "DC Center of Independent Living Inc (DCCIL)", "TELEPHONE": "202-388-0033", "ADDRESS": "1400 FLORIDA AVENUE NE", "TYPE": "Visual Impairment ", "WEB_URL": null, "WARD": "Ward 5", "ADDRID": 65280, "EMAIL": null }, "geometry": { "type": "Point", "coordinates": [ -76.984334189308655, 38.900565152942988 ] } },
{ "type": "Feature", "properties": { "OBJECTID": 212, "X": 396457.51, "Y": 138074.89, "ARC_STREET": "1775 Church Street, NW Washington, DC 20036", "NAME": "Prevention of Blindness Society of Metropolitan ", "TELEPHONE": "202-234-1010", "ADDRESS": "1775 CHURCH STREET NW", "TYPE": "Visual Impairment ", "WEB_URL": null, "WARD": "Ward 2", "ADDRID": 225920, "EMAIL": "www.youreyes.org " }, "geometry": { "type": "Point", "coordinates": [ -77.040846834727972, 38.910536712314439 ] } },
{ "type": "Feature", "properties": { "OBJECTID": 213, "X": 402917.95, "Y": 140712.3, "ARC_STREET": "2900 Newton Street, NE Washington, DC 20018", "NAME": "Seabury Resources for the Aging\/ Blind and Visually Impaired Senior Center", "TELEPHONE": "202-529-8701", "ADDRESS": "2900 NEWTON STREET NE", "TYPE": "Visual Impairment ", "WEB_URL": null, "WARD": "Ward 5", "ADDRID": 287312, "EMAIL": "www.seaburyresources.org " }, "geometry": { "type": "Point", "coordinates": [ -76.966347406483422, 38.934297650950136 ] } },
{ "type": "Feature", "properties": { "OBJECTID": 214, "X": 391627.13, "Y": 146488.63, "ARC_STREET": "7701 Woodmont Avenue, Suite 302, Bethesda, MD 20814", "NAME": "Low Vision Information Center", "TELEPHONE": "301-951-4444", "ADDRESS": "7701 Woodmont Avenue, Suite 302, Bethesda, MD 20814", "TYPE": "Visual Impairment ", "WEB_URL": null, "WARD": null, "ADDRID": null, "EMAIL": "www.lowvisioninfo.org  " }, "geometry": { "type": "Point", "coordinates": [ -77.09664329892415, 38.986297236941944 ] } },
{ "type": "Feature", "properties": { "OBJECTID": 215, "X": 399322.63, "Y": 136968.66, "ARC_STREET": "820 First Stret, NE, Suite 400, Washington, DC 20002", "NAME": "American Foundation for the Blind", "TELEPHONE": "202-408-0200", "ADDRESS": "820 1ST STREET NE", "TYPE": "Visual Impairment ", "WEB_URL": null, "WARD": "Ward 6", "ADDRID": 288995, "EMAIL": "www.afb.org " }, "geometry": { "type": "Point", "coordinates": [ -77.007811200447875, 38.900578283207089 ] } },