{
"type": "FeatureCollection",
"crs": { "type": "name", "properties": { "name": "urn:ogc:def:crs:OGC:1.3:CRS84" } },
                                                                                
"features": [
{ "type": "Feature", "properties": { "OBJECTID_1": 29, "OBJECTID_2": 34.0, "OBJECTID": 34.0, "GIS_ID": "mstn_081", "NAME": "Van Dorn Street", "WEB_URL": "http:\/\/www.wmata.com\/rail\/station_detail.cfm?station_id=94", "ADDRESS": "5690 EISENHOWER AVENUE, ALEXANDRIA, VA", "LINE": "blue" }, "geometry": { "type": "Point", "coordinates": [ -77.129111523705149, 38.79930767201779 ] } },
{ "type": "Feature", "properties": { "OBJECTID_1": 30, "OBJECTID_2": 35.0, "OBJECTID": 35.0, "GIS_ID": "mstn_083", "NAME": "Franconia-Springfield", "WEB_URL": "http:\/\/www.wmata.com\/rail\/station_detail.cfm?station_id=95", "ADDRESS": "6880 FRONTIER DRIVE, SPRINGFIELD, VA", "LINE": "blue" }, "geometry": { "type": "Point", "coordinates": [ -77.167970180426664, 38.766521892689916 ] } },
{ "type": "Feature", "properties": { "OBJECTID_1": 31, "OBJECTID_2": 37.0, "OBJECTID": 37.0, "GIS_ID": "mstn_014", "NAME": "Federal Center SW", "WEB_URL": "http:\/\/www.wmata.com\/rail\/station_detail.cfm?station_id=58", "ADDRESS": "401 3RD STREET SW, WASHINGTON, DC", "LINE": "blue, orange" }, "geometry": { "type": "Point", "coordinates": [ -77.015868216945208, 38.885072355144786 ] } },
{ "type": "Feature", "properties": { "OBJECTID_1": 32, "OBJECTID_2": 38.0, "OBJECTID": 38.0, "GIS_ID": "mstn_021", "NAME": "Judiciary Sq", "WEB_URL": "http:\/\/www.wmata.com\/rail\/station_detail.cfm?station_id=23", "ADDRESS": "450 F STREET NW, WASHINGTON, DC", "LINE": "red" }, "geometry": { "type": "Point", "coordinates": [ -77.016638956625869, 38.896090317663166 ] } },
{ "type": "Feature", "properties": { "OBJECTID_1": 33, "OBJECTID_2": 39.0, "OBJECTID": 39.0, "GIS_ID": "mstn_005", "NAME": "Capitol South", "WEB_URL": "http:\/\/www.wmata.com\/rail\/station_detail.cfm?station_id=59", "ADDRESS": "355 1ST STREET SE, WASHINGTON, DC", "LINE": "blue, orange" }, "geometry": { "type": "Point", "coordinates": [ -77.005139419927374, 38.885062500925002 ] } },
{ "type": "Feature", "properties": { "OBJECTID_1": 34, "OBJECTID_2": 41.0, "OBJECTID": 41.0, "GIS_ID": "mstn_024", "NAME": "Metro Center", "WEB_URL": "http:\/\/www.wmata.com\/rail\/station_detail.cfm?station_id=1", "ADDRESS": "607 13TH STREET NW, WASHINGTON, DC", "LINE": "red, blue, orange" }, "geometry": { "type": "Point", "coordinates": [ -77.028077997180688, 38.898314473213183 ] } },
{ "type": "Feature", "properties": { "OBJECTID_1": 35, "OBJECTID_2": 42.0, "OBJECTID": 42.0, "GIS_ID": "mstn_019", "NAME": "Gallery Pl-Chinatown", "WEB_URL": "http:\/\/www.wmata.com\/rail\/station_detail.cfm?station_id=21", "ADDRESS": "630 H STREET NW, WASHINGTON, DC", "LINE": "red, green, yellow" }, "geometry": { "type": "Point", "coordinates": [ -77.021915390423786, 38.898316809796611 ] } },
{ "type": "Feature", "properties": { "OBJECTID_1": 36, "OBJECTID_2": 43.0, "OBJECTID": 43.0, "GIS_ID": "mstn_026", "NAME": "Mt Vernon Sq - 7th St Convention Center", "WEB_URL": "http:\/\/www.wmata.com\/rail\/station_detail.cfm?station_id=70", "ADDRESS": "700 M STREET NW, WASHINGTON, DC", "LINE": "green, yellow" }, "geometry": { "type": "Point", "coordinates": [ -77.021914380386491, 38.906436814951725 ] } },
{ "type": "Feature", "properties": { "OBJECTID_1": 37, "OBJECTID_2": 44.0, "OBJECTID": 44.0, "GIS_ID": "mstn_036", "NAME": "U St\/African-Amer Civil War Memorial\/Cardozo", "WEB_URL": "http:\/\/www.wmata.com\/rail\/station_detail.cfm?station_id=73", "ADDRESS": "1300 U STREET NW, WASHINGTON, DC", "LINE": "green, yellow" }, "geometry": { "type": "Point", "coordinates": [ -77.027495892948906, 38.917002399244261 ] } },
{ "type": "Feature", "properties": { "OBJECTID_1": 38, "OBJECTID_2": 46.0, "OBJECTID": 46.0, "GIS_ID": "mstn_037", "NAME": "Union Station", "WEB_URL": "http:\/\/www.wmata.com\/rail\/station_detail.cfm?station_id=25", "ADDRESS": "701 1ST STREET NE, WASHINGTON, DC", "LINE": "red" }, "geometry": { "type": "Point", "coordinates": [ -77.007414292199854, 38.897766039235243 ] } },
{ "type": "Feature", "properties": { "OBJECTID_1": 39, "OBJECTID_2": 47.0, "OBJECTID": 47.0, "GIS_ID": "mstn_008", "NAME": "Congress Heights", "WEB_URL": "http:\/\/www.wmata.com\/rail\/station_detail.cfm?station_id=86", "ADDRESS": "1290 ALABAMA AVENUE SE, WASHINGTON, DC", "LINE": "green" }, "geometry": { "type": "Point", "coordinates": [ -76.988511932607153, 38.845657702875108 ] } },
{ "type": "Feature", "properties": { "OBJECTID_1": 40, "OBJECTID_2": 48.0, "OBJECTID": 48.0, "GIS_ID": "mstn_074", "NAME": "Naylor Road", "WEB_URL": "http:\/\/www.wmata.com\/rail\/station_detail.cfm?station_id=87", "ADDRESS": "3101 BRANCH AVENUE, TEMPLE HILLS, MD", "LINE": "green" }, "geometry": { "type": "Point", "coordinates": [ -76.956262709453142, 38.851301383586701 ] } },
{ "type": "Feature", "properties": { "OBJECTID_1": 41, "OBJECTID_2": 49.0, "OBJECTID": 49.0, "GIS_ID": "mstn_075", "NAME": "Suitland", "WEB_URL": "http:\/\/www.wmata.com\/rail\/station_detail.cfm?station_id=88", "ADDRESS": "4500 SILVER HILL ROAD, SUITLAND, MD", "LINE": "green" }, "geometry": { "type": "Point", "coordinates": [ -76.931870158952989, 38.843964554416793 ] } },
{ "type": "Feature", "properties": { "OBJECTID_1": 42, "OBJECTID_2": 51.0, "OBJECTID": 51.0, "GIS_ID": "mstn_077", "NAME": "Branch Ave", "WEB_URL": "http:\/\/www.wmata.com\/rail\/station_detail.cfm?station_id=89", "ADDRESS": "4704 OLD SOPER ROAD, SUITLAND, MD", "LINE": "green" }, "geometry": { "type": "Point", "coordinates": [ -76.911464217738839, 38.826446348320779 ] } },
{ "type": "Feature", "properties": { "OBJECTID_1": 43, "OBJECTID_2": 52.0, "OBJECTID": 52.0, "GIS_ID": "mstn_078", "NAME": "Braddock Road", "WEB_URL": "http:\/\/www.wmata.com\/rail\/station_detail.cfm?station_id=47", "ADDRESS": "700 N. WEST ST., ALEXANDRIA, VA", "LINE": "blue, yellow" }, "geometry": { "type": "Point", "coordinates": [ -77.053667574062644, 38.814143667289009 ] } },
{ "type": "Feature", "properties": { "OBJECTID_1": 44, "OBJECTID_2": 53.0, "OBJECTID": 53.0, "GIS_ID": "mstn_079", "NAME": "King St - Old Town", "WEB_URL": "http:\/\/www.wmata.com\/rail\/station_detail.cfm?station_id=48", "ADDRESS": "1900 KING STREET, ALEXANDRIA, VA", "LINE": "blue, yellow" }, "geometry": { "type": "Point", "coordinates": [ -77.060811208545985, 38.806586117247996 ] } },
{ "type": "Feature", "properties": { "OBJECTID_1": 45, "OBJECTID_2": 54.0, "OBJECTID": 54.0, "GIS_ID": "mstn_080", "NAME": "Eisenhower Ave", "WEB_URL": "http:\/\/www.wmata.com\/rail\/station_detail.cfm?station_id=49", "ADDRESS": "2400 EISENHOWER AVENUE, ALEXANDRIA, VA", "LINE": "yellow" }, "geometry": { "type": "Point", "coordinates": [ -77.070874389314582, 38.800425449701244 ] } },
{ "type": "Feature", "properties": { "OBJECTID_1": 46, "OBJECTID_2": 55.0, "OBJECTID": 55.0, "GIS_ID": "mstn_082", "NAME": "Huntington", "WEB_URL": "http:\/\/www.wmata.com\/rail\/station_detail.cfm?station_id=50", "ADDRESS": "2701 HUNTINGTON AVENUE, ALEXANDRIA, VA", "LINE": "yellow" }, "geometry": { "type": "Point", "coordinates": [ -77.075205789148995, 38.793915852906736 ] } },
{ "type": "Feature", "properties": { "OBJECTID_1": 47, "OBJECTID_2": 56.0, "OBJECTID": 56.0, "GIS_ID": "mstn_001", "NAME": "Anacostia", "WEB_URL": "http:\/\/www.wmata.com\/rail\/station_detail.cfm?station_id=85", "ADDRESS": "1101 HOWARD ROAD SE, WASHINGTON, DC", "LINE": "green" }, "geometry": { "type": "Point", "coordinates": [ -76.995370738754374, 38.862963116801595 ] } },
{ "type": "Feature", "properties": { "OBJECTID_1": 48, "OBJECTID_2": 57.0, "OBJECTID": 57.0, "GIS_ID": "mstn_011", "NAME": "Eastern Market", "WEB_URL": "http:\/\/www.wmata.com\/rail\/station_detail.cfm?station_id=60", "ADDRESS": "701 PENNSYLVANIA AVENUE SE, WASHINGTON, DC", "LINE": "blue, orange" }, "geometry": { "type": "Point", "coordinates": [ -76.996001126716422, 38.884622260842676 ] } },
{ "type": "Feature", "properties": { "OBJECTID_1": 49, "OBJECTID_2": 58.0, "OBJECTID": 58.0, "GIS_ID": "mstn_029", "NAME": "Potomac Ave", "WEB_URL": "http:\/\/www.wmata.com\/rail\/station_detail.cfm?station_id=61", "ADDRESS": "700 14TH STREET SE, WASHINGTON, DC", "LINE": "blue, orange" }, "geometry": { "type": "Point", "coordinates": [ -76.98549531965503, 38.881263273633166 ] } },
{ "type": "Feature", "properties": { "OBJECTID_1": 50, "OBJECTID_2": 59.0, "OBJECTID": 59.0, "GIS_ID": "mstn_033", "NAME": "Stadium Armory", "WEB_URL": "http:\/\/www.wmata.com\/rail\/station_detail.cfm?station_id=63", "ADDRESS": "192 19TH STREET SE, WASHINGTON, DC", "LINE": "blue, orange" }, "geometry": { "type": "Point", "coordinates": [ -76.977088901442215, 38.886709089842839 ] } },
{ "type": "Feature", "properties": { "OBJECTID_1": 51, "OBJECTID_2": 60.0, "OBJECTID": 60.0, "GIS_ID": "mstn_030", "NAME": "Rhode Island Ave", "WEB_URL": "http:\/\/www.wmata.com\/rail\/station_detail.cfm?station_id=26", "ADDRESS": "919 RHODE ISLAND AVENUE NE, WASHINGTON, DC", "LINE": "red" }, "geometry": { "type": "Point", "coordinates": [ -76.995936916664107, 38.921059689186336 ] } },
{ "type": "Feature", "properties": { "OBJECTID_1": 52, "OBJECTID_2": 61.0, "OBJECTID": 61.0, "GIS_ID": "mstn_025", "NAME": "Minnesota Ave", "WEB_URL": "http:\/\/www.wmata.com\/rail\/station_detail.cfm?station_id=64", "ADDRESS": "400 MINNESOTA AVENUE NE, WASHINGTON, DC", "LINE": "orange" }, "geometry": { "type": "Point", "coordinates": [ -76.946747733640166, 38.899191223089012 ] } },
{ "type": "Feature", "properties": { "OBJECTID_1": 53, "OBJECTID_2": 62.0, "OBJECTID": 62.0, "GIS_ID": "mstn_038", "NAME": "Van Ness-UDC", "WEB_URL": "http:\/\/www.wmata.com\/rail\/station_detail.cfm?station_id=9", "ADDRESS": "4200 CONNECTICUT AVENUE NW, WASHINGTON, DC", "LINE": "red" }, "geometry": { "type": "Point", "coordinates": [ -77.062986180519047, 38.943265288322451 ] } },
{ "type": "Feature", "properties": { "OBJECTID_1": 54, "OBJECTID_2": 63.0, "OBJECTID": 63.0, "GIS_ID": "mstn_006", "NAME": "Cleveland Park", "WEB_URL": "http:\/\/www.wmata.com\/rail\/station_detail.cfm?station_id=8", "ADDRESS": "3599 CONNECTICUT AVENUE NW, WASHINGTON, DC", "LINE": "red" }, "geometry": { "type": "Point", "coordinates": [ -77.058042519133451, 38.934762890805423 ] } },
{ "type": "Feature", "properties": { "OBJECTID_1": 55, "OBJECTID_2": 64.0, "OBJECTID": 64.0, "GIS_ID": "mstn_007", "NAME": "Columbia Heights", "WEB_URL": "http:\/\/www.wmata.com\/rail\/station_detail.cfm?station_id=75", "ADDRESS": "3030 14TH STREET NW, WASHINGTON, DC", "LINE": "green, yellow" }, "geometry": { "type": "Point", "coordinates": [ -77.032552117711731, 38.927837967523303 ] } },
{ "type": "Feature", "properties": { "OBJECTID_1": 84, "OBJECTID_2": 74.0, "OBJECTID": 74.0, "GIS_ID": "mstn_053", "NAME": "College Park-U of Md", "WEB_URL": "http:\/\/www.wmata.com\/rail\/station_detail.cfm?station_id=79", "ADDRESS": "4931 CALVERT ROAD, COLLEGE PARK, MD", "LINE": "green" }, "geometry": { "type": "Point", "coordinates": [ -76.928124981870738, 38.978633633966858 ] } },
{ "type": "Feature", "properties": { "OBJECTID_1": 85, "OBJECTID_2": 79.0, "OBJECTID": 79.0, "GIS_ID": "mstn_084", "NAME": "Capitol Heights", "WEB_URL": "http:\/\/www.wmata.com\/rail\/station_detail.cfm?station_id=91", "ADDRESS": "133 CENTRAL AVENUE, CAPITOL HEIGHTS, MD", "LINE": "blue" }, "geometry": { "type": "Point", "coordinates": [ -76.911808114522216, 38.889465856872334 ] } },
{ "type": "Feature", "properties": { "OBJECTID_1": 86, "OBJECTID_2": 84.0, "OBJECTID": 84.0, "GIS_ID": "mstn_085", "NAME": "Morgan Boulevard", "WEB_URL": "http:\/\/www.wmata.com\/rail\/station_detail.cfm?station_id=110", "ADDRESS": "300 GARRETT MORGAN BLVD., LANDOVER, MD", "LINE": "blue" }, "geometry": { "type": "Point", "coordinates": [ -76.868074768139039, 38.893834928214737 ] } },
{ "type": "Feature", "properties": { "OBJECTID_1": 56, "OBJECTID_2": 65.0, "OBJECTID": 65.0, "GIS_ID": "mstn_020", "NAME": "Georgia Ave Petworth", "WEB_URL": "http:\/\/www.wmata.com\/rail\/station_detail.cfm?station_id=76", "ADDRESS": "3700 GEORGIA AVENUE NW, WASHINGTON, DC", "LINE": "green, yellow" }, "geometry": { "type": "Point", "coordinates": [ -77.023460904081375, 38.937434630144779 ] } },
{ "type": "Feature", "properties": { "OBJECTID_1": 57, "OBJECTID_2": 66.0, "OBJECTID": 66.0, "GIS_ID": "mstn_034", "NAME": "Takoma", "WEB_URL": "http:\/\/www.wmata.com\/rail\/station_detail.cfm?station_id=29", "ADDRESS": "327 CEDAR STREET NW, WASHINGTON, DC", "LINE": "red" }, "geometry": { "type": "Point", "coordinates": [ -77.018176698710633, 38.97607853106706 ] } },
{ "type": "Feature", "properties": { "OBJECTID_1": 58, "OBJECTID_2": 67.0, "OBJECTID": 67.0, "GIS_ID": "mstn_044", "NAME": "Glenmont", "WEB_URL": "http:\/\/www.wmata.com\/rail\/station_detail.cfm?station_id=34", "ADDRESS": "12501 GEORGIA AVENUE, SILVER SPRING, MD", "LINE": "red" }, "geometry": { "type": "Point", "coordinates": [ -77.053557359359772, 39.061783765530329 ] } },
{ "type": "Feature", "properties": { "OBJECTID_1": 59, "OBJECTID_2": 68.0, "OBJECTID": 68.0, "GIS_ID": "mstn_046", "NAME": "Wheaton", "WEB_URL": "http:\/\/www.wmata.com\/rail\/station_detail.cfm?station_id=33", "ADDRESS": "11171 GEORGIA AVENUE, SILVER SPRING, MD", "LINE": "red" }, "geometry": { "type": "Point", "coordinates": [ -77.050107053526517, 39.037527143674417 ] } },
{ "type": "Feature", "properties": { "OBJECTID_1": 60, "OBJECTID_2": 69.0, "OBJECTID": 69.0, "GIS_ID": "mstn_048", "NAME": "Forest Glen", "WEB_URL": "http:\/\/www.wmata.com\/rail\/station_detail.cfm?station_id=32", "ADDRESS": "9730 GEORGIA AVENUE, FOREST GLEN, MD", "LINE": "red" }, "geometry": { "type": "Point", "coordinates": [ -77.042916554896138, 39.014954275278349 ] } },
{ "type": "Feature", "properties": { "OBJECTID_1": 61, "OBJECTID_2": 71.0, "OBJECTID": 71.0, "GIS_ID": "mstn_051", "NAME": "Silver Spring", "WEB_URL": "http:\/\/www.wmata.com\/rail\/station_detail.cfm?station_id=31", "ADDRESS": "8400 COLESVILLE ROAD, SILVER SPRING, MD", "LINE": "red" }, "geometry": { "type": "Point", "coordinates": [ -77.031017826818911, 38.993949374768448 ] } },
{ "type": "Feature", "properties": { "OBJECTID_1": 62, "OBJECTID_2": 72.0, "OBJECTID": 72.0, "GIS_ID": "mstn_004", "NAME": "Brookland-CUA", "WEB_URL": "http:\/\/www.wmata.com\/rail\/station_detail.cfm?station_id=27", "ADDRESS": "801 MICHIGAN AVENUE NE, WASHINGTON, DC", "LINE": "red" }, "geometry": { "type": "Point", "coordinates": [ -76.994534285100485, 38.933210991353711 ] } },
{ "type": "Feature", "properties": { "OBJECTID_1": 63, "OBJECTID_2": 73.0, "OBJECTID": 73.0, "GIS_ID": "mstn_017", "NAME": "Fort Totten", "WEB_URL": "http:\/\/www.wmata.com\/rail\/station_detail.cfm?station_id=28", "ADDRESS": "550 GALLOWAY STREET NE, WASHINGTON, DC", "LINE": "red, green,yellow" }, "geometry": { "type": "Point", "coordinates": [ -77.002203076808343, 38.951846767589863 ] } },
{ "type": "Feature", "properties": { "OBJECTID_1": 64, "OBJECTID_2": 75.0, "OBJECTID": 75.0, "GIS_ID": "mstn_054", "NAME": "Prince George's Plaza", "WEB_URL": "http:\/\/www.wmata.com\/rail\/station_detail.cfm?station_id=78", "ADDRESS": "3575 EAST WEST HIGHWAY, HYATTSVILLE, MD", "LINE": "green" }, "geometry": { "type": "Point", "coordinates": [ -76.955881507881827, 38.965385445855823 ] } },
{ "type": "Feature", "properties": { "OBJECTID_1": 65, "OBJECTID_2": 76.0, "OBJECTID": 76.0, "GIS_ID": "mstn_055", "NAME": "West Hyattsville", "WEB_URL": "http:\/\/www.wmata.com\/rail\/station_detail.cfm?station_id=77", "ADDRESS": "2700 HAMILTON ST., HYATTSVILLE, MD", "LINE": "green" }, "geometry": { "type": "Point", "coordinates": [ -76.969576675103596, 38.955040170722334 ] } },
{ "type": "Feature", "properties": { "OBJECTID_1": 66, "OBJECTID_2": 77.0, "OBJECTID": 77.0, "GIS_ID": "mstn_003", "NAME": "Benning Road", "WEB_URL": "http:\/\/www.wmata.com\/rail\/station_detail.cfm?station_id=90", "ADDRESS": "4500 BENNING ROAD NE, WASHINGTON, DC", "LINE": "blue" }, "geometry": { "type": "Point", "coordinates": [ -76.938364868124154, 38.890975676002689 ] } },
{ "type": "Feature", "properties": { "OBJECTID_1": 67, "OBJECTID_2": 78.0, "OBJECTID": 78.0, "GIS_ID": "mstn_062", "NAME": "Addison Road Seat Pleasant", "WEB_URL": "http:\/\/www.wmata.com\/rail\/station_detail.cfm?station_id=92", "ADDRESS": "100 ADDISON ROAD S., CAPITOL HEIGHTS, MD", "LINE": "blue" }, "geometry": { "type": "Point", "coordinates": [ -76.894107910008088, 38.886747816832674 ] } },
{ "type": "Feature", "properties": { "OBJECTID_1": 68, "OBJECTID_2": 80.0, "OBJECTID": 80.0, "GIS_ID": "mstn_009", "NAME": "Deanwood", "WEB_URL": "http:\/\/www.wmata.com\/rail\/station_detail.cfm?station_id=65", "ADDRESS": "4720 MINNESOTA AVENUE NE, WASHINGTON, DC", "LINE": "orange" }, "geometry": { "type": "Point", "coordinates": [ -76.93525678304978, 38.908178496517216 ] } },
{ "type": "Feature", "properties": { "OBJECTID_1": 69, "OBJECTID_2": 81.0, "OBJECTID": 81.0, "GIS_ID": "mstn_056", "NAME": "New Carrollton", "WEB_URL": "http:\/\/www.wmata.com\/rail\/station_detail.cfm?station_id=68", "ADDRESS": "4700 GARDEN CITY DRIVE, NEW CARROLLTON, MD", "LINE": "orange" }, "geometry": { "type": "Point", "coordinates": [ -76.871841286556716, 38.947784855832978 ] } },
{ "type": "Feature", "properties": { "OBJECTID_1": 70, "OBJECTID_2": 82.0, "OBJECTID": 82.0, "GIS_ID": "mstn_057", "NAME": "Landover", "WEB_URL": "http:\/\/www.wmata.com\/rail\/station_detail.cfm?station_id=67", "ADDRESS": "3000 PENNSY DRIVE, HYATTSVILLE, MD", "LINE": "orange" }, "geometry": { "type": "Point", "coordinates": [ -76.891197967609301, 38.933506234453759 ] } },
{ "type": "Feature", "properties": { "OBJECTID_1": 71, "OBJECTID_2": 83.0, "OBJECTID": 83.0, "GIS_ID": "mstn_058", "NAME": "Cheverly", "WEB_URL": "http:\/\/www.wmata.com\/rail\/station_detail.cfm?station_id=66", "ADDRESS": "5501 COLUMBIA PARK, CHEVERLY, MD \r\n", "LINE": "orange" }, "geometry": { "type": "Point", "coordinates": [ -76.916628044053667, 38.916631854659755 ] } },
{ "type": "Feature", "properties": { "OBJECTID_1": 72, "OBJECTID_2": 85.0, "OBJECTID": 85.0, "GIS_ID": "mstn_084", "NAME": "Largo Town Center", "WEB_URL": "http:\/\/www.wmata.com\/rail\/station_detail.cfm?station_id=109", "ADDRESS": "LARGO TOWN CENTER, 9000 LOTTSFORD ROAD, LARGO, MD", "LINE": "blue" }, "geometry": { "type": "Point", "coordinates": [ -76.842037520224778, 38.905068807210085 ] } },
{ "type": "Feature", "properties": { "OBJECTID_1": 73, "OBJECTID_2": 86.0, "OBJECTID": 86.0, "GIS_ID": "mstn_028", "NAME": "NoMa - Gallaudet U", "WEB_URL": "http:\/\/www.wmata.com\/rail\/station_detail.cfm?station_id=108", "ADDRESS": "200 FLORIDA AVENUE NE, WASHINGTON, DC", "LINE": "red" }, "geometry": { "type": "Point", "coordinates": [ -77.003020447276228, 38.9070162121509 ] } },
{ "type": "Feature", "properties": { "OBJECTID_1": 74, "OBJECTID_2": 14.0, "OBJECTID": 14.0, "GIS_ID": "mstn_060", "NAME": "Rosslyn", "WEB_URL": "http:\/\/www.wmata.com\/rail\/station_detail.cfm?station_id=41", "ADDRESS": "1850 N. MOORE STREET, ARLINGTON, VA", "LINE": "blue, orange" }, "geometry": { "type": "Point", "coordinates": [ -77.070908685385035, 38.895979096283092 ] } },
{ "type": "Feature", "properties": { "OBJECTID_1": 75, "OBJECTID_2": 18.0, "OBJECTID": 18.0, "GIS_ID": "mstn_065", "NAME": "Arlington|Cemetery", "WEB_URL": "http:\/\/www.wmata.com\/rail\/station_detail.cfm?station_id=42", "ADDRESS": "1000 NORTH MEMORIAL DRIVE, ARLINGTON, VA", "LINE": "blue" }, "geometry": { "type": "Point", "coordinates": [ -77.062810129140374, 38.884686858522919 ] } },
{ "type": "Feature", "properties": { "OBJECTID_1": 76, "OBJECTID_2": 23.0, "OBJECTID": 23.0, "GIS_ID": "mstn_010", "NAME": "Dupont Circle", "WEB_URL": "http:\/\/www.wmata.com\/rail\/station_detail.cfm?station_id=6", "ADDRESS": "1525 20TH STREET NW, WASHINGTON, DC", "LINE": "red" }, "geometry": { "type": "Point", "coordinates": [ -77.04341435972708, 38.909598057571763 ] } },
{ "type": "Feature", "properties": { "OBJECTID_1": 77, "OBJECTID_2": 27.0, "OBJECTID": 27.0, "GIS_ID": "mstn_070", "NAME": "Pentagon", "WEB_URL": "http:\/\/www.wmata.com\/rail\/station_detail.cfm?station_id=43", "ADDRESS": "2 SOUTH ROTARY ROAD, ARLINGTON, VA", "LINE": "blue, yellow" }, "geometry": { "type": "Point", "coordinates": [ -77.053715673431938, 38.869462701258364 ] } },
{ "type": "Feature", "properties": { "OBJECTID_1": 78, "OBJECTID_2": 32.0, "OBJECTID": 32.0, "GIS_ID": "mstn_072", "NAME": "Crystal City", "WEB_URL": "http:\/\/www.wmata.com\/rail\/station_detail.cfm?station_id=45", "ADDRESS": "1750 SOUTH CLARK ST., ARLINGTON, VA", "LINE": "blue, yellow" }, "geometry": { "type": "Point", "coordinates": [ -77.050289809708573, 38.857904320437974 ] } },
{ "type": "Feature", "properties": { "OBJECTID_1": 79, "OBJECTID_2": 36.0, "OBJECTID": 36.0, "GIS_ID": "mstn_027", "NAME": "Navy Yard - Ballpark", "WEB_URL": "http:\/\/www.wmata.com\/rail\/station_detail.cfm?station_id=84", "ADDRESS": "200 M STREET SE, WASHINGTON, DC", "LINE": "green" }, "geometry": { "type": "Point", "coordinates": [ -77.005085651369441, 38.876481084906793 ] } },
{ "type": "Feature", "properties": { "OBJECTID_1": 80, "OBJECTID_2": 40.0, "OBJECTID": 40.0, "GIS_ID": "mstn_023", "NAME": "McPherson Sq", "WEB_URL": "http:\/\/www.wmata.com\/rail\/station_detail.cfm?station_id=36", "ADDRESS": "1400 I STREET NW, WASHINGTON, DC", "LINE": "blue, orange" }, "geometry": { "type": "Point", "coordinates": [ -77.033634172125119, 38.90133279688736 ] } },
{ "type": "Feature", "properties": { "OBJECTID_1": 81, "OBJECTID_2": 45.0, "OBJECTID": 45.0, "GIS_ID": "mstn_031", "NAME": "Shaw-Howard Univ", "WEB_URL": "http:\/\/www.wmata.com\/rail\/station_detail.cfm?station_id=72", "ADDRESS": "1701 8TH STREET NW, WASHINGTON, DC", "LINE": "green, yellow" }, "geometry": { "type": "Point", "coordinates": [ -77.021911700785637, 38.913476871164647 ] } },
{ "type": "Feature", "properties": { "OBJECTID_1": 82, "OBJECTID_2": 50.0, "OBJECTID": 50.0, "GIS_ID": "mstn_076", "NAME": "Southern Ave", "WEB_URL": "http:\/\/www.wmata.com\/rail\/station_detail.cfm?station_id=107", "ADDRESS": "1411 SOUTHERN AVENUE, TEMPLE HILLS, MD", "LINE": "green" }, "geometry": { "type": "Point", "coordinates": [ -76.975054138872835, 38.841085780329024 ] } },
{ "type": "Feature", "properties": { "OBJECTID_1": 83, "OBJECTID_2": 70.0, "OBJECTID": 70.0, "GIS_ID": "mstn_049", "NAME": "Greenbelt", "WEB_URL": "http:\/\/www.wmata.com\/rail\/station_detail.cfm?station_id=80", "ADDRESS": "5717 GREENBELT METRO DRIVE, GREENBELT, MD", "LINE": "green" }, "geometry": { "type": "Point", "coordinates": [ -76.911057573134926, 39.011145860514269 ] } },
{ "type": "Feature", "properties": { "OBJECTID_1": 1, "OBJECTID_2": 1.0, "OBJECTID": 1.0, "GIS_ID": "mstn_035", "NAME": "Tenleytown-AU", "WEB_URL": "http:\/\/www.wmata.com\/rail\/station_detail.cfm?station_id=10", "ADDRESS": "4501 WISCONSIN AVENUE NW, WASHINGTON, DC", "LINE": "red" }, "geometry": { "type": "Point", "coordinates": [ -77.079587325532529, 38.948851435144867 ] } },
{ "type": "Feature", "properties": { "OBJECTID_1": 2, "OBJECTID_2": 2.0, "OBJECTID": 2.0, "GIS_ID": "mstn_059", "NAME": "West Falls Church VT\/UVA", "WEB_URL": "http:\/\/www.wmata.com\/rail\/station_detail.cfm?station_id=101", "ADDRESS": "7040 HAYCOCK ROAD, FALLS CHURCH, VA", "LINE": "orange" }, "geometry": { "type": "Point", "coordinates": [ -77.189094822597582, 38.900780551032852 ] } },
{ "type": "Feature", "properties": { "OBJECTID_1": 3, "OBJECTID_2": 3.0, "OBJECTID": 3.0, "GIS_ID": "mstn_067", "NAME": "Dunn Loring Merrifield", "WEB_URL": "http:\/\/www.wmata.com\/rail\/station_detail.cfm?station_id=102", "ADDRESS": "2700 GALLOWS ROAD, VIENNA, VA", "LINE": "orange" }, "geometry": { "type": "Point", "coordinates": [ -77.227160672115161, 38.883625135954759 ] } },
{ "type": "Feature", "properties": { "OBJECTID_1": 4, "OBJECTID_2": 4.0, "OBJECTID": 4.0, "GIS_ID": "mstn_069", "NAME": "Vienna Fairfax-GMU", "WEB_URL": "http:\/\/www.wmata.com\/rail\/station_detail.cfm?station_id=103", "ADDRESS": "2900 NUTLEY ST., FAIRFAX, VA", "LINE": "orange" }, "geometry": { "type": "Point", "coordinates": [ -77.272622256927747, 38.877601123856635 ] } },
{ "type": "Feature", "properties": { "OBJECTID_1": 5, "OBJECTID_2": 5.0, "OBJECTID": 5.0, "GIS_ID": "mstn_018", "NAME": "Friendship Heights", "WEB_URL": "http:\/\/www.wmata.com\/rail\/station_detail.cfm?station_id=11", "ADDRESS": "5337 WISCONSIN AVENUE NW, WASHINGTON, DC", "LINE": "red" }, "geometry": { "type": "Point", "coordinates": [ -77.084995805039512, 38.959483873675715 ] } },
{ "type": "Feature", "properties": { "OBJECTID_1": 6, "OBJECTID_2": 6.0, "OBJECTID": 6.0, "GIS_ID": "mstn_041", "NAME": "Shady Grove", "WEB_URL": "http:\/\/www.wmata.com\/rail\/station_detail.cfm?station_id=18", "ADDRESS": "15903 SOMERVILLE DRIVE, DERWOOD, MD", "LINE": "red" }, "geometry": { "type": "Point", "coordinates": [ -77.164627334378423, 39.11992732498129 ] } },
{ "type": "Feature", "properties": { "OBJECTID_1": 7, "OBJECTID_2": 7.0, "OBJECTID": 7.0, "GIS_ID": "mstn_042", "NAME": "Rockville", "WEB_URL": "http:\/\/www.wmata.com\/rail\/station_detail.cfm?station_id=17", "ADDRESS": "251 HUNGERFORD DRIVE, ROCKVILLE, MD", "LINE": "red" }, "geometry": { "type": "Point", "coordinates": [ -77.146125339284836, 39.084321607556745 ] } },
{ "type": "Feature", "properties": { "OBJECTID_1": 8, "OBJECTID_2": 8.0, "OBJECTID": 8.0, "GIS_ID": "mstn_043", "NAME": "Twinbrook", "WEB_URL": "http:\/\/www.wmata.com\/rail\/station_detail.cfm?station_id=16", "ADDRESS": "1600 CHAPMAN AVENUE, ROCKVILLE, MD", "LINE": "red" }, "geometry": { "type": "Point", "coordinates": [ -77.120817951768743, 39.062467651700409 ] } },
{ "type": "Feature", "properties": { "OBJECTID_1": 9, "OBJECTID_2": 9.0, "OBJECTID": 9.0, "GIS_ID": "mstn_045", "NAME": "White Flint", "WEB_URL": "http:\/\/www.wmata.com\/rail\/station_detail.cfm?station_id=15", "ADDRESS": "5500 MARINELLI ROAD, ROCKVILLE, MD", "LINE": "red" }, "geometry": { "type": "Point", "coordinates": [ -77.112829859036395, 39.048151357325018 ] } },
{ "type": "Feature", "properties": { "OBJECTID_1": 10, "OBJECTID_2": 10.0, "OBJECTID": 10.0, "GIS_ID": "mstn_047", "NAME": "Grosvenor-Strathmore", "WEB_URL": "http:\/\/www.wmata.com\/rail\/station_detail.cfm?station_id=14", "ADDRESS": "10300 ROCKVILLE PIKE, BETHESDA, MD", "LINE": "red" }, "geometry": { "type": "Point", "coordinates": [ -77.10384972001367, 39.02926895002534 ] } },
{ "type": "Feature", "properties": { "OBJECTID_1": 11, "OBJECTID_2": 11.0, "OBJECTID": 11.0, "GIS_ID": "mstn_050", "NAME": "Medical Center", "WEB_URL": "http:\/\/www.wmata.com\/rail\/station_detail.cfm?station_id=13", "ADDRESS": "8810 ROCKVILLE PIKE, BETHESDA, MD", "LINE": "red" }, "geometry": { "type": "Point", "coordinates": [ -77.096952290544053, 39.000056484346423 ] } },
{ "type": "Feature", "properties": { "OBJECTID_1": 12, "OBJECTID_2": 12.0, "OBJECTID": 12.0, "GIS_ID": "mstn_052", "NAME": "Bethesda", "WEB_URL": "http:\/\/www.wmata.com\/rail\/station_detail.cfm?station_id=12", "ADDRESS": "7450 WISCONSIN AVENUE, BETHESDA, MD", "LINE": "red" }, "geometry": { "type": "Point", "coordinates": [ -77.094129192226532, 38.984393660394474 ] } },
{ "type": "Feature", "properties": { "OBJECTID_1": 13, "OBJECTID_2": 13.0, "OBJECTID": 13.0, "GIS_ID": "mstn_016", "NAME": "Foggy Bottom GWU", "WEB_URL": "http:\/\/www.wmata.com\/rail\/station_detail.cfm?station_id=40", "ADDRESS": "2301 I STREET NW, WASHINGTON, DC", "LINE": "blue, orange" }, "geometry": { "type": "Point", "coordinates": [ -77.050277739061016, 38.900698009227014 ] } },
{ "type": "Feature", "properties": { "OBJECTID_1": 14, "OBJECTID_2": 15.0, "OBJECTID": 15.0, "GIS_ID": "mstn_061", "NAME": "Court House", "WEB_URL": "http:\/\/www.wmata.com\/rail\/station_detail.cfm?station_id=96", "ADDRESS": "2100 WILSON BLVD, ARLINGTON, VA", "LINE": "orange" }, "geometry": { "type": "Point", "coordinates": [ -77.087131231051799, 38.890175531218517 ] } },
{ "type": "Feature", "properties": { "OBJECTID_1": 15, "OBJECTID_2": 16.0, "OBJECTID": 16.0, "GIS_ID": "mstn_063", "NAME": "Clarendon", "WEB_URL": "http:\/\/www.wmata.com\/rail\/station_detail.cfm?station_id=97", "ADDRESS": "3100 WILSON BLVD, ARLINGTON, VA", "LINE": "orange" }, "geometry": { "type": "Point", "coordinates": [ -77.095394098356067, 38.886704839074675 ] } },
{ "type": "Feature", "properties": { "OBJECTID_1": 16, "OBJECTID_2": 17.0, "OBJECTID": 17.0, "GIS_ID": "mstn_064", "NAME": "East Falls Church", "WEB_URL": "http:\/\/www.wmata.com\/rail\/station_detail.cfm?station_id=100", "ADDRESS": "2001 N. SYCAMORE ST., ARLINGTON, VA", "LINE": "orange" }, "geometry": { "type": "Point", "coordinates": [ -77.156883019991511, 38.885953166372609 ] } },
{ "type": "Feature", "properties": { "OBJECTID_1": 17, "OBJECTID_2": 19.0, "OBJECTID": 19.0, "GIS_ID": "mstn_066", "NAME": "Virginia Square-GMU", "WEB_URL": "http:\/\/www.wmata.com\/rail\/station_detail.cfm?station_id=98", "ADDRESS": "3600 FAIRFAX DRIVE, ARLINGTON, VA", "LINE": "orange" }, "geometry": { "type": "Point", "coordinates": [ -77.102977294211172, 38.883366151803408 ] } },
{ "type": "Feature", "properties": { "OBJECTID_1": 18, "OBJECTID_2": 20.0, "OBJECTID": 20.0, "GIS_ID": "mstn_068", "NAME": "Ballston-MU", "WEB_URL": "http:\/\/www.wmata.com\/rail\/station_detail.cfm?station_id=99", "ADDRESS": "4230 FAIRFAX DRIVE, ARLINGTON, VA", "LINE": "orange" }, "geometry": { "type": "Point", "coordinates": [ -77.113168835055873, 38.882182873810734 ] } },
{ "type": "Feature", "properties": { "OBJECTID_1": 19, "OBJECTID_2": 21.0, "OBJECTID": 21.0, "GIS_ID": "mstn_013", "NAME": "Farragut West", "WEB_URL": "http:\/\/www.wmata.com\/rail\/station_detail.cfm?station_id=38", "ADDRESS": "900 18TH STREET NW, WASHINGTON, DC", "LINE": "blue, orange" }, "geometry": { "type": "Point", "coordinates": [ -77.0406954151549, 38.901312894179839 ] } },
{ "type": "Feature", "properties": { "OBJECTID_1": 20, "OBJECTID_2": 22.0, "OBJECTID": 22.0, "GIS_ID": "mstn_012", "NAME": "Farragut North", "WEB_URL": "http:\/\/www.wmata.com\/rail\/station_detail.cfm?station_id=4", "ADDRESS": "1001 CONNECTICUT AVENUE NW, WASHINGTON, DC", "LINE": "red" }, "geometry": { "type": "Point", "coordinates": [ -77.039700827247032, 38.903201946268432 ] } },
{ "type": "Feature", "properties": { "OBJECTID_1": 21, "OBJECTID_2": 24.0, "OBJECTID": 24.0, "GIS_ID": "mstn_040", "NAME": "Woodley Park-Zoo Adams Morgan", "WEB_URL": "http:\/\/www.wmata.com\/rail\/station_detail.cfm?station_id=7", "ADDRESS": "2700 24TH STREET NW, WASHINGTON, DC", "LINE": "red" }, "geometry": { "type": "Point", "coordinates": [ -77.052418020798711, 38.92508513710051 ] } },
{ "type": "Feature", "properties": { "OBJECTID_1": 22, "OBJECTID_2": 25.0, "OBJECTID": 25.0, "GIS_ID": "mstn_022", "NAME": "L'Enfant Plaza", "WEB_URL": "http:\/\/www.wmata.com\/rail\/station_detail.cfm?station_id=82", "ADDRESS": "600 MARYLAND AVENUE SW, WASHINGTON, DC", "LINE": "green, yellow, orange, blue" }, "geometry": { "type": "Point", "coordinates": [ -77.021908484095349, 38.884837727911972 ] } },
{ "type": "Feature", "properties": { "OBJECTID_1": 23, "OBJECTID_2": 26.0, "OBJECTID": 26.0, "GIS_ID": "mstn_032", "NAME": "Smithsonian", "WEB_URL": "http:\/\/www.wmata.com\/rail\/station_detail.cfm?station_id=54", "ADDRESS": "1200 INDEPENDENCE AVENUE SW, WASHINGTON, DC", "LINE": "blue, orange" }, "geometry": { "type": "Point", "coordinates": [ -77.028066234286015, 38.888018702051426 ] } },
{ "type": "Feature", "properties": { "OBJECTID_1": 24, "OBJECTID_2": 28.0, "OBJECTID": 28.0, "GIS_ID": "mstn_071", "NAME": "Pentagon City", "WEB_URL": "http:\/\/www.wmata.com\/rail\/station_detail.cfm?station_id=44", "ADDRESS": "1250 SOUTH HAYES ST., ARLINGTON, VA", "LINE": "blue, yellow" }, "geometry": { "type": "Point", "coordinates": [ -77.059538921544572, 38.861882386754488 ] } },
{ "type": "Feature", "properties": { "OBJECTID_1": 25, "OBJECTID_2": 29.0, "OBJECTID": 29.0, "GIS_ID": "mstn_015", "NAME": "Federal Triangle", "WEB_URL": "http:\/\/www.wmata.com\/rail\/station_detail.cfm?station_id=53", "ADDRESS": "302 12TH STREET NW, WASHINGTON, DC", "LINE": "blue, orange" }, "geometry": { "type": "Point", "coordinates": [ -77.028131998405357, 38.893180871854618 ] } },
{ "type": "Feature", "properties": { "OBJECTID_1": 26, "OBJECTID_2": 30.0, "OBJECTID": 30.0, "GIS_ID": "mstn_002", "NAME": "Archives-Navy Mem'l", "WEB_URL": "http:\/\/www.wmata.com\/rail\/station_detail.cfm?station_id=81", "ADDRESS": "701 PENNSYLVANIA AVENUE NW, WASHINGTON, DC", "LINE": "green, yellow" }, "geometry": { "type": "Point", "coordinates": [ -77.021914387999189, 38.893665223522078 ] } },
{ "type": "Feature", "properties": { "OBJECTID_1": 27, "OBJECTID_2": 31.0, "OBJECTID": 31.0, "GIS_ID": "mstn_039", "NAME": "Waterfront", "WEB_URL": "http:\/\/www.wmata.com\/rail\/station_detail.cfm?station_id=83", "ADDRESS": "399 M STREET SW, WASHINGTON, DC", "LINE": "green" }, "geometry": { "type": "Point", "coordinates": [ -77.01750520880347, 38.876461866896108 ] } },
{ "type": "Feature", "properties": { "OBJECTID_1": 28, "OBJECTID_2": 33.0, "OBJECTID": 33.0, "GIS_ID": "mstn_073", "NAME": "Ronald Reagan Washington National Airport", "WEB_URL": "http:\/\/www.wmata.com\/rail\/station_detail.cfm?station_id=93", "ADDRESS": "2400 S. SMITH BLVD., ARLINGTON, VA", "LINE": "blue, yellow" }, "geometry": { "type": "Point", "coordinates": [ -77.044042294383217, 38.85341638599062 ] } }
]
}
