{
"type": "FeatureCollection",
"crs": { "type": "name", "properties": { "name": "urn:ogc:def:crs:OGC:1.3:CRS84" } },
                                                                                
"features": [
{ "type": "Feature", "properties": { "NAME": "WALGREENS #10071", "ADDRESS": "1217 22ND STREET NW", "X": 395793.1, "Y": 137518.17, "ADDRID": 294975.0, "CITY": "WASHINGTON", "STATE": "DC", "ZIPCODE": 20037.0, "PHONE": "(202) 776-9084", "FACTYPE": "Pharmacy", "SEASONAL": "Y", "H1N1": "N" }, "geometry": { "type": "Point", "coordinates": [ -77.048501703671477, 38.905510870019427 ] } },
{ "type": "Feature", "properties": { "NAME": "SAFEWAY PHARMACY #4270", "ADDRESS": "1601 MARYLAND AVENUE NE", "X": 401754.81, "Y": 136968.47, "ADDRID": 297814.0, "CITY": "WASHINGTON", "STATE": "DC", "ZIPCODE": 20002.0, "PHONE": "(202) 398-6903", "FACTYPE": "Pharmacy", "SEASONAL": "Y", "H1N1": "Y" }, "geometry": { "type": "Point", "coordinates": [ -76.97977005088083, 38.900567293947134 ] } },
{ "type": "Feature", "properties": { "NAME": "SAFEWAY PHARMACY #4202", "ADDRESS": "1747 COLUMBIA ROAD NW", "X": 396445.44, "Y": 139593.32, "ADDRID": 284083.0, "CITY": "WASHINGTON", "STATE": "DC", "ZIPCODE": 20009.0, "PHONE": "(202) 667-0774", "FACTYPE": "Pharmacy", "SEASONAL": "Y", "H1N1": "Y" }, "geometry": { "type": "Point", "coordinates": [ -77.040991565017293, 38.924207392860218 ] } },
{ "type": "Feature", "properties": { "NAME": "SAFEWAY PHARMACY", "ADDRESS": "1855 WISCONSIN AVENUE NW", "X": 394238.15, "Y": 138730.9, "ADDRID": 224665.0, "CITY": "WASHINGTON", "STATE": "DC", "ZIPCODE": 20007.0, "PHONE": "(202) 333-3223", "FACTYPE": "Pharmacy", "SEASONAL": "Y", "H1N1": "N" }, "geometry": { "type": "Point", "coordinates": [ -77.066439023173004, 38.916426734402961 ] } },
{ "type": "Feature", "properties": { "NAME": "SAFEWAY PHARMACY #1445", "ADDRESS": "2845 ALABAMA AVENUE SE", "X": 402892.75, "Y": 132357.23, "ADDRID": 278282.0, "CITY": "WASHINGTON", "STATE": "DC", "ZIPCODE": 20020.0, "PHONE": "(202) 575-7527", "FACTYPE": "Pharmacy", "SEASONAL": "Y", "H1N1": "Y" }, "geometry": { "type": "Point", "coordinates": [ -76.966670963997373, 38.859024438791479 ] } },
{ "type": "Feature", "properties": { "NAME": "GRUBBS PHARMACY", "ADDRESS": "326 EAST CAPITOL STREET NE", "X": 399933.63, "Y": 135802.76, "ADDRID": 37469.0, "CITY": "WASHINGTON", "STATE": "DC", "ZIPCODE": 20003.0, "PHONE": "(202) 543-4400", "FACTYPE": "Pharmacy", "SEASONAL": "Y", "H1N1": "N" }, "geometry": { "type": "Point", "coordinates": [ -77.000765019643126, 38.890067900699982 ] } },
{ "type": "Feature", "properties": { "NAME": "RITE AID #3873", "ADDRESS": "3301 NEW MEXICO AVENUE NW", "X": 392614.49, "Y": 140643.14, "ADDRID": 223997.0, "CITY": "WASHINGTON", "STATE": "DC", "ZIPCODE": 20016.0, "PHONE": "(202) 966-4900", "FACTYPE": "Pharmacy", "SEASONAL": "Y", "H1N1": "N" }, "geometry": { "type": "Point", "coordinates": [ -77.085181766761991, 38.933640646491227 ] } },
{ "type": "Feature", "properties": { "NAME": "SAFEWAY PHARMACY #4873", "ADDRESS": "3830 GEORGIA AVENUE NW", "X": 397793.67, "Y": 141160.24, "ADDRID": 225076.0, "CITY": "WASHINGTON", "STATE": "DC", "ZIPCODE": 20011.0, "PHONE": "(202) 882-1140", "FACTYPE": "Pharmacy", "SEASONAL": "Y", "H1N1": "Y" }, "geometry": { "type": "Point", "coordinates": [ -77.025448671296132, 38.938327107530085 ] } },
{ "type": "Feature", "properties": { "NAME": "SAFEWAY PHARMACY #4205", "ADDRESS": "415 14TH STREET SE", "X": 401167.04, "Y": 135078.34, "ADDRID": 26239.0, "CITY": "WASHINGTON", "STATE": "DC", "ZIPCODE": 20003.0, "PHONE": "(202) 547-4333", "FACTYPE": "Pharmacy", "SEASONAL": "Y", "H1N1": "Y" }, "geometry": { "type": "Point", "coordinates": [ -76.986549241210582, 38.883541278400266 ] } },
{ "type": "Feature", "properties": { "NAME": "SAFEWAY PHARMACY #1395", "ADDRESS": "4203 DAVENPORT STREET NW", "X": 392852.16, "Y": 142717.87, "ADDRID": 301160.0, "CITY": "WASHINGTON", "STATE": "DC", "ZIPCODE": 20016.0, "PHONE": "(202) 364-0290", "FACTYPE": "Pharmacy", "SEASONAL": "Y", "H1N1": "Y" }, "geometry": { "type": "Point", "coordinates": [ -77.082462185119127, 38.952332366817075 ] } },
{ "type": "Feature", "properties": { "NAME": "SAFEWAY PHARMACY #2737", "ADDRESS": "490 L STREET NW", "X": 398408.1, "Y": 137292.77, "ADDRID": 304767.0, "CITY": "WASHINGTON", "STATE": "DC", "ZIPCODE": 20001.0, "PHONE": "(202) 719-2435", "FACTYPE": "Pharmacy", "SEASONAL": "Y", "H1N1": "Y" }, "geometry": { "type": "Point", "coordinates": [ -77.018352627938441, 38.903489013594623 ] } },
{ "type": "Feature", "properties": { "NAME": "SAFEWAY PHARMACY #4832", "ADDRESS": "5545 CONNECTICUT AVENUE NW", "X": 393508.13, "Y": 144078.34, "ADDRID": 263999.0, "CITY": "WASHINGTON", "STATE": "DC", "ZIPCODE": 20015.0, "PHONE": "(202) 244-6097", "FACTYPE": "Pharmacy", "SEASONAL": "Y", "H1N1": "Y" }, "geometry": { "type": "Point", "coordinates": [ -77.074907366032946, 38.964592922283472 ] } },
{ "type": "Feature", "properties": { "NAME": "SAFEWAY PHARMACY #1276", "ADDRESS": "6500 PINEY BRANCH ROAD NW", "X": 397699.34, "Y": 144623.03, "ADDRID": 285341.0, "CITY": "WASHINGTON", "STATE": "DC", "ZIPCODE": 20012.0, "PHONE": "(202) 723-5644", "FACTYPE": "Pharmacy", "SEASONAL": "Y", "H1N1": "Y" }, "geometry": { "type": "Point", "coordinates": [ -77.026548325875993, 38.96952060238867 ] } },
{ "type": "Feature", "properties": { "NAME": "CVS\/PHARMACY #21", "ADDRESS": "1117 10TH STREET NW", "X": 397768.87, "Y": 137436.24, "ADDRID": 300317.0, "CITY": "WASHINGTON", "STATE": "DC", "ZIPCODE": 20001.0, "PHONE": "(202) 326-1401", "FACTYPE": "Pharmacy", "SEASONAL": "Y", "H1N1": "N" }, "geometry": { "type": "Point", "coordinates": [ -77.0257226208699, 38.90478005166991 ] } },
{ "type": "Feature", "properties": { "NAME": "CVS\/PHARMACY #1348", "ADDRESS": "401 M STREET SW", "X": 398424.05, "Y": 134410.29, "ADDRID": 28161.0, "CITY": "WASHINGTON", "STATE": "DC", "ZIPCODE": 20024.0, "PHONE": "(202) 554-2144", "FACTYPE": "Pharmacy", "SEASONAL": "Y", "H1N1": "N" }, "geometry": { "type": "Point", "coordinates": [ -77.018162132779452, 38.877522586171366 ] } },
{ "type": "Feature", "properties": { "NAME": "CVS\/PHARMACY #1334", "ADDRESS": "717 14TH STREET NW", "X": 397262.45, "Y": 136783.55, "ADDRID": 279904.0, "CITY": "WASHINGTON", "STATE": "DC", "ZIPCODE": 20005.0, "PHONE": "(202) 737-9525", "FACTYPE": "Pharmacy", "SEASONAL": "Y", "H1N1": "N" }, "geometry": { "type": "Point", "coordinates": [ -77.031558517828842, 38.898898957142244 ] } },
{ "type": "Feature", "properties": { "NAME": "CVS\/PHARMACY #1842", "ADDRESS": "1901 PENNSYLVANIA AVENUE NW", "X": 396201.07, "Y": 136981.84, "ADDRID": 218549.0, "CITY": "WASHINGTON", "STATE": "DC", "ZIPCODE": 20006.0, "PHONE": "(202) 331-7077", "FACTYPE": "Pharmacy", "SEASONAL": "Y", "H1N1": "N" }, "geometry": { "type": "Point", "coordinates": [ -77.043795217560898, 38.900681278295565 ] } },
{ "type": "Feature", "properties": { "NAME": "CVS\/PHARMACY #22", "ADDRESS": "320 40TH STREET NE", "X": 404555.57, "Y": 136132.76, "ADDRID": 295139.0, "CITY": "WASHINGTON", "STATE": "DC", "ZIPCODE": 20019.0, "PHONE": "(202) 396-2331", "FACTYPE": "Pharmacy", "SEASONAL": "Y", "H1N1": "N" }, "geometry": { "type": "Point", "coordinates": [ -76.947487639395504, 38.893028862636235 ] } },
{ "type": "Feature", "properties": { "NAME": "CVS\/PHARMACY #1351", "ADDRESS": "1700 COLUMBIA ROAD NW", "X": 396585.14, "Y": 139625.7, "ADDRID": 284066.0, "CITY": "WASHINGTON", "STATE": "DC", "ZIPCODE": 20009.0, "PHONE": "(202) 265-7548", "FACTYPE": "Pharmacy", "SEASONAL": "Y", "H1N1": "N" }, "geometry": { "type": "Point", "coordinates": [ -77.039380691006187, 38.924499636168179 ] } },
{ "type": "Feature", "properties": { "NAME": "CVS\/PHARMACY #6214", "ADDRESS": "5335 WISCONSIN AVENUE NW", "X": 392646.48, "Y": 143583.12, "ADDRID": 303179.0, "CITY": "WASHINGTON", "STATE": "DC", "ZIPCODE": 20015.0, "PHONE": "(202)529-8559", "FACTYPE": "Pharmacy", "SEASONAL": "Y", "H1N1": "N" }, "geometry": { "type": "Point", "coordinates": [ -77.084844321018835, 38.960125065596529 ] } },
{ "type": "Feature", "properties": { "NAME": "CVS\/PHARMACY #1342", "ADDRESS": "1275 PENNSYLVANIA AVENUE NW", "X": 397492.18, "Y": 136426.96, "ADDRID": 300418.0, "CITY": "WASHINGTON", "STATE": "DC", "ZIPCODE": 20004.0, "PHONE": "(202) 638-4583", "FACTYPE": "Pharmacy", "SEASONAL": "Y", "H1N1": "N" }, "geometry": { "type": "Point", "coordinates": [ -77.028908885313356, 38.895687350611922 ] } },
{ "type": "Feature", "properties": { "NAME": "CVS\/PHARMACY #1346", "ADDRESS": "5550 CONNECTICUT AVENUE NW", "X": 393425.36, "Y": 144088.85, "ADDRID": 263843.0, "CITY": "WASHINGTON", "STATE": "DC", "ZIPCODE": 20015.0, "PHONE": "(202) 966-6600", "FACTYPE": "Pharmacy", "SEASONAL": "Y", "H1N1": "N" }, "geometry": { "type": "Point", "coordinates": [ -77.075862519800992, 38.964686983224354 ] } },
{ "type": "Feature", "properties": { "NAME": "SAFEWAY PHARMACY #0271", "ADDRESS": "514 RHODE ISLAND AVENUE NE", "X": 400008.27, "Y": 139329.72, "ADDRID": 288529.0, "CITY": "WASHINGTON", "STATE": "DC", "ZIPCODE": 20002.0, "PHONE": "(202) 636-0643", "FACTYPE": "Pharmacy", "SEASONAL": "Y", "H1N1": "Y" }, "geometry": { "type": "Point", "coordinates": [ -76.999904632647244, 38.92183998867354 ] } },
{ "type": "Feature", "properties": { "NAME": "CVS\/PHARMACY #1341", "ADDRESS": "1199 VERMONT AVENUE NW", "X": 397192.18, "Y": 137395.97, "ADDRID": 278914.0, "CITY": "WASHINGTON", "STATE": "DC", "ZIPCODE": 20005.0, "PHONE": "(202) 628-0720", "FACTYPE": "Pharmacy", "SEASONAL": "Y", "H1N1": "N" }, "geometry": { "type": "Point", "coordinates": [ -77.032371094871422, 38.90441563240045 ] } },
{ "type": "Feature", "properties": { "NAME": "Spring Valley Health and Wellness", "ADDRESS": "4910 MASSACHUSETTS AVENUE NW", "X": 391522.45, "Y": 142024.32, "ADDRID": 269771.0, "CITY": "WASHINGTON", "STATE": "DC", "ZIPCODE": 20016.0, "PHONE": "(202) 244-0812", "FACTYPE": "Other", "SEASONAL": "N", "H1N1": "Y" }, "geometry": { "type": "Point", "coordinates": [ -77.097794012296561, 38.946072854061924 ] } },
{ "type": "Feature", "properties": { "NAME": "Chevy Chase Pediatric Center", "ADDRESS": "5225 CONNECTICUT AVENUE NW", "X": 393811.52, "Y": 143387.8, "ADDRID": 264203.0, "CITY": "WASHINGTON", "STATE": "DC", "ZIPCODE": 20015.0, "PHONE": "(202) 363-0300", "FACTYPE": "Other", "SEASONAL": "N", "H1N1": "Y" }, "geometry": { "type": "Point", "coordinates": [ -77.071400426786184, 38.95837455461011 ] } },
{ "type": "Feature", "properties": { "NAME": "Children's Pediatricians and Associates- Drs. Hudson & Simrel", "ADDRESS": "2600 NAYLOR ROAD SE", "X": 402586.22, "Y": 133338.47, "ADDRID": 46160.0, "CITY": "WASHINGTON", "STATE": "DC", "ZIPCODE": 20020.0, "PHONE": "(202) 582-6800 x12", "FACTYPE": "Other", "SEASONAL": "N", "H1N1": "Y" }, "geometry": { "type": "Point", "coordinates": [ -76.970198981464463, 38.867864810785058 ] } },
{ "type": "Feature", "properties": { "NAME": "Medical Faculty Associates", "ADDRESS": "2150 PENNSYLVANIA AVENUE NW", "X": 395788.2, "Y": 137086.96, "ADDRID": 242494.0, "CITY": "WASHINGTON", "STATE": "DC", "ZIPCODE": 20037.0, "PHONE": "(202) 741-3000", "FACTYPE": "Other", "SEASONAL": "N", "H1N1": "Y" }, "geometry": { "type": "Point", "coordinates": [ -77.048555551898943, 38.901626355341087 ] } },
{ "type": "Feature", "properties": { "NAME": "American University Student Health Center", "ADDRESS": "4400 MASSACHUSETTS AVENUE NW", "X": 392334.76, "Y": 141247.38, "ADDRID": 223994.0, "CITY": "WASHINGTON", "STATE": "DC", "ZIPCODE": 20016.0, "PHONE": "(202) 885-3380", "FACTYPE": "Other", "SEASONAL": "N", "H1N1": "Y" }, "geometry": { "type": "Point", "coordinates": [ -77.088414817826205, 38.939081422058187 ] } },
{ "type": "Feature", "properties": { "NAME": "MedStar Physician Partners- Washington Primary Care Physicians", "ADDRESS": "660 PENNSYLVANIA AVENUE SE", "X": 400298.25, "Y": 135258.46, "ADDRID": 300871.0, "CITY": "WASHINGTON", "STATE": "DC", "ZIPCODE": 20003.0, "PHONE": "(202) 546-4504", "FACTYPE": "Other", "SEASONAL": "N", "H1N1": "Y" }, "geometry": { "type": "Point", "coordinates": [ -76.996562431392746, 38.885164592348204 ] } },
{ "type": "Feature", "properties": { "NAME": "Faculty Practice Plan Howard University, Family Medicine Group", "ADDRESS": "2041 GEORGIA AVENUE NW", "X": 398257.42, "Y": 138853.51, "ADDRID": 279523.0, "CITY": "WASHINGTON", "STATE": "DC", "ZIPCODE": 20060.0, "PHONE": "(202) 865-3790", "FACTYPE": "Other", "SEASONAL": "N", "H1N1": "Y" }, "geometry": { "type": "Point", "coordinates": [ -77.020093741528953, 38.917548406081231 ] } },
{ "type": "Feature", "properties": { "NAME": "Community of Hope Health Services", "ADDRESS": "2250 CHAMPLAIN STREET NW", "X": 396490.06, "Y": 139052.45, "ADDRID": 303241.0, "CITY": "WASHINGTON", "STATE": "DC", "ZIPCODE": 20009.0, "PHONE": "(202) 232-9022", "FACTYPE": "Other", "SEASONAL": "N", "H1N1": "Y" }, "geometry": { "type": "Point", "coordinates": [ -77.040474237047192, 38.919335241205559 ] } },
{ "type": "Feature", "properties": { "NAME": "Pediatric Professionals", "ADDRESS": "106 IRVING STREET NW", "X": 398751.95, "Y": 140165.35, "ADDRID": 301960.0, "CITY": "WASHINGTON", "STATE": "DC", "ZIPCODE": 20010.0, "PHONE": "(202) 726-5800", "FACTYPE": "Other", "SEASONAL": "N", "H1N1": "Y" }, "geometry": { "type": "Point", "coordinates": [ -77.014393686673785, 38.929366721676807 ] } },
{ "type": "Feature", "properties": { "NAME": "Capital Pulmonary Internists, P.C.", "ADDRESS": "2440 M STREET NW", "X": 395430.99, "Y": 137469.0, "ADDRID": 274799.0, "CITY": "WASHINGTON", "STATE": "DC", "ZIPCODE": 20037.0, "PHONE": "(202) 833-3000", "FACTYPE": "Other", "SEASONAL": "N", "H1N1": "Y" }, "geometry": { "type": "Point", "coordinates": [ -77.052676172295776, 38.905066121827801 ] } },
{ "type": "Feature", "properties": { "NAME": "Georgetown Day School Lower\/Middle School Campus", "ADDRESS": "4530 MACARTHUR BOULEVARD NW", "X": 392498.57, "Y": 137771.15, "ADDRID": 275307.0, "CITY": "WASHINGTON", "STATE": "DC", "ZIPCODE": 20007.0, "PHONE": "(202) 295-6137", "FACTYPE": "Other", "SEASONAL": "N", "H1N1": "Y" }, "geometry": { "type": "Point", "coordinates": [ -77.08648736242796, 38.907767858492562 ] } },
{ "type": "Feature", "properties": { "NAME": "Susan B. Hurson, M.D.", "ADDRESS": "3301 NEW MEXICO AVENUE NW", "X": 392614.49, "Y": 140643.14, "ADDRID": 223997.0, "CITY": "WASHINGTON", "STATE": "DC", "ZIPCODE": 20016.0, "PHONE": "(202) 362-9872", "FACTYPE": "Other", "SEASONAL": "N", "H1N1": "Y" }, "geometry": { "type": "Point", "coordinates": [ -77.085181766761991, 38.933640646491227 ] } },
{ "type": "Feature", "properties": { "NAME": "Mark M. Sklar, M.D.", "ADDRESS": "3 WASHINGTON CIRCLE NW", "X": 395617.05, "Y": 137261.09, "ADDRID": 226081.0, "CITY": "WASHINGTON", "STATE": "DC", "ZIPCODE": 20037.0, "PHONE": "(202) 887-4769", "FACTYPE": "Other", "SEASONAL": "N", "H1N1": "Y" }, "geometry": { "type": "Point", "coordinates": [ -77.050529757943579, 38.903194143160434 ] } },
{ "type": "Feature", "properties": { "NAME": "Arthritis and Rheumatism Associates, PC", "ADDRESS": "2021 K STREET NW", "X": 396029.37, "Y": 137227.38, "ADDRID": 242500.0, "CITY": "WASHINGTON", "STATE": "DC", "ZIPCODE": 20006.0, "PHONE": "(301) 742-7600", "FACTYPE": "Other", "SEASONAL": "N", "H1N1": "Y" }, "geometry": { "type": "Point", "coordinates": [ -77.045776046343093, 38.902892430838186 ] } },
{ "type": "Feature", "properties": { "NAME": "Harris Teeter, Inc.", "ADDRESS": "1350 POTOMAC AVENUE SE", "X": 401160.72, "Y": 134707.64, "ADDRID": 303730.0, "CITY": "WASHINGTON", "STATE": "DC", "ZIPCODE": 20003.0, "PHONE": "(202) 543-1040", "FACTYPE": "Pharmacy", "SEASONAL": "N", "H1N1": "Y" }, "geometry": { "type": "Point", "coordinates": [ -76.986622708670708, 38.880201877644986 ] } },
{ "type": "Feature", "properties": { "NAME": "Harris Teeter, Inc.", "ADDRESS": "1631 KALORAMA ROAD NW", "X": 396666.63, "Y": 139345.87, "ADDRID": 284059.0, "CITY": "WASHINGTON", "STATE": "DC", "ZIPCODE": 20009.0, "PHONE": "(202) 986-1415", "FACTYPE": "Pharmacy", "SEASONAL": "N", "H1N1": "Y" }, "geometry": { "type": "Point", "coordinates": [ -77.038439577062263, 38.921979151040262 ] } },
{ "type": "Feature", "properties": { "NAME": "Foer Pharnacy", "ADDRESS": "2141 K STREET NW", "X": 395834.07, "Y": 137230.68, "ADDRID": 242481.0, "CITY": "WASHINGTON", "STATE": "DC", "ZIPCODE": 20037.0, "PHONE": "(202) 296-7190", "FACTYPE": "Pharmacy", "SEASONAL": "N", "H1N1": "Y" }, "geometry": { "type": "Point", "coordinates": [ -77.048027613402752, 38.902921254499631 ] } },
{ "type": "Feature", "properties": { "NAME": "Foer Pharnacy", "ADDRESS": "818 18TH STREET NW", "X": 396353.0, "Y": 136981.79, "ADDRID": 218770.0, "CITY": "WASHINGTON", "STATE": "DC", "ZIPCODE": 20006.0, "PHONE": "(202) 775-4400", "FACTYPE": "Pharmacy", "SEASONAL": "N", "H1N1": "Y" }, "geometry": { "type": "Point", "coordinates": [ -77.042043722415684, 38.900681471346417 ] } },
{ "type": "Feature", "properties": { "NAME": "SAFEWAY PHARMACY #4504", "ADDRESS": "1815 WISCONSIN AVENUE NW", "X": 394177.38, "Y": 138595.63, "ADDRID": 273701.0, "CITY": "WASHINGTON", "STATE": "DC", "ZIPCODE": 20007.0, "PHONE": "(202) 333-6048", "FACTYPE": "Pharmacy", "SEASONAL": "Y", "H1N1": "Y" }, "geometry": { "type": "Point", "coordinates": [ -77.067138599712436, 38.915207777064268 ] } },
{ "type": "Feature", "properties": { "NAME": "Georgetown University Hospital KIDS Mobile Medical Clinic", "ADDRESS": "MOBILE", "X": 0.0, "Y": 0.0, "ADDRID": 0.0, "CITY": "WASHINGTON", "STATE": "DC", "ZIPCODE": 0.0, "PHONE": "(202) 444-8888", "FACTYPE": "Other", "SEASONAL": "N", "H1N1": "Y" }, "geometry": { "type": "Point", "coordinates": [ -77.075281962496661, 38.91220321755533 ] } }
]
}
