{
"type": "FeatureCollection",
"crs": { "type": "name", "properties": { "name": "urn:ogc:def:crs:OGC:1.3:CRS84" } },
                                                                                
"features": [
{ "type": "Feature", "properties": { "OBJECTID": 1, "CONTACT": "Cmdr  Robin Hoey", "ROOM": null, "ZIP": 20019.0, "PHONE": "(202) 698-0880", "FAX": "(202) 398-5397", "NAME": "District 6 (6D)", "ADDRESS": "100 42ND STREET NE", "WEB_URL": "http:\/\/mpdc.dc.gov\/mpdc\/cwp\/view,a,1239,q,546269.asp", "GIS_ID": "pol_1", "TYPE": "Station", "ADDRESS_ID": 294469 }, "geometry": { "type": "Point", "coordinates": [ -76.942885323337677, 38.892483498203184 ] } },
{ "type": "Feature", "properties": { "OBJECTID": 2, "CONTACT": "Insp  Alton Bigelow", "ROOM": null, "ZIP": 20019.0, "PHONE": "(202) 698-2088", "FAX": "(202) 584-5397", "NAME": "District 6 Substation (6D-1)", "ADDRESS": "2701 PENNSYLVANIA AVENUE SE", "WEB_URL": "http:\/\/mpdc.dc.gov\/mpdc\/cwp\/view,a,1239,q,546269.asp", "GIS_ID": "pol_2", "TYPE": "Substation", "ADDRESS_ID": 45427 }, "geometry": { "type": "Point", "coordinates": [ -76.968708692104514, 38.872363759390566 ] } },
{ "type": "Feature", "properties": { "OBJECTID": 3, "CONTACT": "Cmdr  Larry McCoy", "ROOM": null, "ZIP": 20009.0, "PHONE": "(202) 673-6815", "FAX": "(202) 518-0008", "NAME": "District 3 (3D)", "ADDRESS": "1620 V STREET NW", "WEB_URL": "http:\/\/mpdc.dc.gov\/mpdc\/cwp\/view,a,1239,q,544981.asp", "GIS_ID": "pol_3", "TYPE": "Station", "ADDRESS_ID": 241847 }, "geometry": { "type": "Point", "coordinates": [ -77.03797080741613, 38.917867273474194 ] } },
{ "type": "Feature", "properties": { "OBJECTID": 4, "CONTACT": "Insp  Diane Groomes", "ROOM": null, "ZIP": 20010.0, "PHONE": "(202) 576-8222", "FAX": "(202) 576-3350", "NAME": "District 3 Substation (3D-1)", "ADDRESS": "750 PARK ROAD NW", "WEB_URL": "http:\/\/mpdc.dc.gov\/mpdc\/cwp\/view,a,1239,q,544981.asp", "GIS_ID": "pol_4", "TYPE": "Substation", "ADDRESS_ID": 233054 }, "geometry": { "type": "Point", "coordinates": [ -77.025634192725306, 38.932671296038244 ] } },
{ "type": "Feature", "properties": { "OBJECTID": 5, "CONTACT": "Off Myra Jordan", "ROOM": null, "ZIP": 20009.0, "PHONE": "(202) 671-3550", "FAX": null, "NAME": "Deaf and Hard Hearing Liaison Unit", "ADDRESS": "310 MCMILLAN DRIVE NW", "WEB_URL": "http:\/\/mpdc.dc.gov\/mpdc\/cwp\/view,a,1232,q,540921.asp", "GIS_ID": "pol_5", "TYPE": null, "ADDRESS_ID": 299642 }, "geometry": { "type": "Point", "coordinates": [ -77.01656033116177, 38.922181402952631 ] } },
{ "type": "Feature", "properties": { "OBJECTID": 6, "CONTACT": "Cmdr  Jennifer Gree", "ROOM": null, "ZIP": 20002.0, "PHONE": "(202) 698-0150", "FAX": "(202) 727-8727", "NAME": "District 5 (5D)", "ADDRESS": "1805 BLADENSBURG ROAD NE", "WEB_URL": "http:\/\/mpdc.dc.gov\/mpdc\/cwp\/view,a,1239,q,545954.asp", "GIS_ID": "pol_6", "TYPE": "Station", "ADDRESS_ID": 286486 }, "geometry": { "type": "Point", "coordinates": [ -76.973640051353854, 38.915077256038344 ] } },
{ "type": "Feature", "properties": { "OBJECTID": 7, "CONTACT": "Insp  Andrew Solberg", "ROOM": null, "ZIP": 20003.0, "PHONE": "(202) 698-0068", "FAX": "(202) 543-2352", "NAME": "District 1 Substation (1D-1)", "ADDRESS": "500 E STREET SE", "WEB_URL": "http:\/\/mpdc.dc.gov\/mpdc\/cwp\/view,a,1239,q,543658.asp", "GIS_ID": "pol_7", "TYPE": "Substation", "ADDRESS_ID": 289645 }, "geometry": { "type": "Point", "coordinates": [ -76.999240693930886, 38.88336764812405 ] } },
{ "type": "Feature", "properties": { "OBJECTID": 8, "CONTACT": "Sgt  Juan Espinal", "ROOM": null, "ZIP": 20009.0, "PHONE": "(202) 673-4445", "FAX": null, "NAME": "Latino Liaison Unit", "ADDRESS": "1800 COLUMBIA ROAD NW", "WEB_URL": "http:\/\/mpdc.dc.gov\/mpdc\/cwp\/view,a,1232,q,540963.asp", "GIS_ID": "pol_8", "TYPE": null, "ADDRESS_ID": 235413 }, "geometry": { "type": "Point", "coordinates": [ -77.042864883794962, 38.922159399569892 ] } },
{ "type": "Feature", "properties": { "OBJECTID": 9, "CONTACT": "Sgt Kenny Temsupasiri", "ROOM": null, "ZIP": 20001.0, "PHONE": "(202) 724-8009", "FAX": "(202) 727-9422", "NAME": "Asian Liaison Unit", "ADDRESS": "616 H STREET NW", "WEB_URL": "http:\/\/mpdc.dc.gov\/mpdc\/cwp\/view,a,1232,q,540914.asp", "GIS_ID": "pol_10", "TYPE": null, "ADDRESS_ID": 295093 }, "geometry": { "type": "Point", "coordinates": [ -77.020833381884017, 38.899547802035599 ] } },
{ "type": "Feature", "properties": { "OBJECTID": 10, "CONTACT": "Carla Okonkwo, Supervisor", "ROOM": null, "ZIP": 20020.0, "PHONE": "(202) 645-9629", "FAX": null, "NAME": "Family Liaison Specialist Unit", "ADDRESS": "3244 PENNSYLVANIA AVENUE SE", "WEB_URL": "http:\/\/mpdc.dc.gov\/mpdc\/cwp\/view,a,1232,q,540942.asp", "GIS_ID": "pol_12", "TYPE": null, "ADDRESS_ID": 302990 }, "geometry": { "type": "Point", "coordinates": [ -76.959685580258949, 38.869768283996947 ] } },
{ "type": "Feature", "properties": { "OBJECTID": 11, "CONTACT": "Cmdr  Thomas McGuire", "ROOM": null, "ZIP": 20024.0, "PHONE": "(202) 698-0555", "FAX": "(202) 727-8503", "NAME": "District 1 (1D)", "ADDRESS": "101 M STREET SW", "WEB_URL": "http:\/\/mpdc.dc.gov\/mpdc\/cwp\/view,a,1239,q,543658.asp", "GIS_ID": "pol_13", "TYPE": "Station", "ADDRESS_ID": 152387 }, "geometry": { "type": "Point", "coordinates": [ -77.012908982757324, 38.876782885575189 ] } },
{ "type": "Feature", "properties": { "OBJECTID": 12, "CONTACT": "Cmdr  Hilton Burton", "ROOM": null, "ZIP": 20011.0, "PHONE": "(202) 715-7400", "FAX": "(202) 722-1791", "NAME": "District 4 (4D)", "ADDRESS": "6001 GEORGIA AVENUE NW", "WEB_URL": "http:\/\/mpdc.dc.gov\/mpdc\/cwp\/view,a,1239,q,545499.asp", "GIS_ID": "pol_14", "TYPE": "Station", "ADDRESS_ID": 243485 }, "geometry": { "type": "Point", "coordinates": [ -77.027410983594336, 38.963125449653411 ] } },
{ "type": "Feature", "properties": { "OBJECTID": 13, "CONTACT": "Sgt  Brett A  Parso\/Ofc Joe Morquecho", "ROOM": "Room 5125", "ZIP": 20001.0, "PHONE": "(202) 727-5427", "FAX": "(202) 727-4406", "NAME": "Gay and Lesbian Liaison Unit", "ADDRESS": "300 INDIANA AVENUE NW", "WEB_URL": "http:\/\/mpdc.dc.gov\/mpdc\/cwp\/view,a,1232,q,540949.asp", "GIS_ID": "pol_15", "TYPE": null, "ADDRESS_ID": 279642 }, "geometry": { "type": "Point", "coordinates": [ -77.01653824886121, 38.894138155893479 ] } },
{ "type": "Feature", "properties": { "OBJECTID": 14, "CONTACT": "Cmdr  Robert J  Con", "ROOM": null, "ZIP": 20016.0, "PHONE": "(202) 715-7300", "FAX": "(202) 364-3961", "NAME": "District 2 (2D)", "ADDRESS": "3320 IDAHO AVENUE NW", "WEB_URL": "http:\/\/mpdc.dc.gov\/mpdc\/cwp\/view,a,1239,q,544652.asp", "GIS_ID": "pol_18", "TYPE": "Station", "ADDRESS_ID": 222229 }, "geometry": { "type": "Point", "coordinates": [ -77.074838057652229, 38.934845831784592 ] } },
{ "type": "Feature", "properties": { "OBJECTID": 15, "CONTACT": "Cmdr  Joel Maupin", "ROOM": null, "ZIP": 20020.0, "PHONE": "(202) 698-1500", "FAX": "(202) 889-3574", "NAME": "District 7 (7D)", "ADDRESS": "2455 ALABAMA AVENUE SE", "WEB_URL": "http:\/\/mpdc.dc.gov\/mpdc\/cwp\/view,a,1239,q,546633.asp", "GIS_ID": "pol_19", "TYPE": "Station", "ADDRESS_ID": 278162 }, "geometry": { "type": "Point", "coordinates": [ -76.969521397067084, 38.853355764139451 ] } }
]
}
