{"type":"FeatureCollection","features":[{"type":"Feature","id":1,"geometry":{"type":"Point","coordinates":[-76.94916920681133,38.894756550861956],"bbox":[-76.94916920681133,38.894756550861956,-76.94916920681133,38.894756550861956]},"properties":{"OBJECTID":1,"AID":"288047","NAME":"EAST RIVER PARK SHOPPING CENTER","ADDRESS":"3939 MINNESOTA AVE NE","STATUS":"ACTIVE","SSL":"5051N   0015","WARD":"Ward 7","ZIPCODE":20019,"GIS_ID":"ShpCenter_1"}},{"type":"Feature","id":2,"geometry":{"type":"Point","coordinates":[-77.03298601467985,38.929308227973344],"bbox":[-77.03298601467985,38.929308227973344,-77.03298601467985,38.929308227973344]},"properties":{"OBJECTID":2,"AID":"3063040","NAME":"THE HEIGHTS SHOPPING CENTER","ADDRESS":"3100 14TH STREET NW","STATUS":"ACTIVE","SSL":"2674    0721","WARD":"Ward 1","ZIPCODE":20010,"GIS_ID":"ShpCenter_2"}},{"type":"Feature","id":3,"geometry":{"type":"Point","coordinates":[-77.04136515805581,38.90109820954873],"bbox":[-77.04136515805581,38.90109820954873,-77.04136515805581,38.90109820954873]},"properties":{"OBJECTID":3,"AID":"218481","NAME":"SOCIAL DEAL SPOT","ADDRESS":"1776 I STREET NW","STATUS":"ACTIVE","SSL":"0127    0053","WARD":"Ward 2","ZIPCODE":20006,"GIS_ID":"ShpCenter_3"}},{"type":"Feature","id":4,"geometry":{"type":"Point","coordinates":[-77.0280139728965,38.881248067470686],"bbox":[-77.0280139728965,38.881248067470686,-77.0280139728965,38.881248067470686]},"properties":{"OBJECTID":4,"AID":"303878","NAME":"WASHINGTON DC FISH MARKET","ADDRESS":"1100 MAINE AVENUE SW","STATUS":"ACTIVE","SSL":"0473    0086","WARD":"Ward 6","ZIPCODE":20024,"GIS_ID":"ShpCenter_4"}},{"type":"Feature","id":5,"geometry":{"type":"Point","coordinates":[-77.02083567188193,38.89955558844359],"bbox":[-77.02083567188193,38.89955558844359,-77.02083567188193,38.89955558844359]},"properties":{"OBJECTID":5,"AID":"295093","NAME":"GALLERY PLACE SHOPPING CENTER","ADDRESS":"616 H STREET NW","STATUS":"ACTIVE","SSL":"0455    0842","WARD":"Ward 2","ZIPCODE":20001,"GIS_ID":"ShpCenter_5"}},{"type":"Feature","id":6,"geometry":{"type":"Point","coordinates":[-77.03973727274916,38.90403991310442],"bbox":[-77.03973727274916,38.90403991310442,-77.03973727274916,38.90403991310442]},"properties":{"OBJECTID":6,"AID":"241795","NAME":"CONNECTICUT CONNECTION","ADDRESS":"1101 CONNECTICUT AVE NW","STATUS":"ACTIVE","SSL":"0162    0096","WARD":"Ward 2","ZIPCODE":20036,"GIS_ID":"ShpCenter_6"}},{"type":"Feature","id":7,"geometry":{"type":"Point","coordinates":[-76.95020928001911,38.86590834171453],"bbox":[-76.95020928001911,38.86590834171453,-76.95020928001911,38.86590834171453]},"properties":{"OBJECTID":7,"AID":"278428","NAME":"FORT DAVIS SHOPPING CENTER","ADDRESS":"3839 ALABAMA AVE SE","STATUS":"ACTIVE","SSL":"5522    0801","WARD":"Ward 7","ZIPCODE":20020,"GIS_ID":"ShpCenter_7"}},{"type":"Feature","id":8,"geometry":{"type":"Point","coordinates":[-77.03137410230161,38.89637517260519],"bbox":[-77.03137410230161,38.89637517260519,-77.03137410230161,38.89637517260519]},"properties":{"OBJECTID":8,"AID":"279081","NAME":"SHOPS AT NATIONAL PLACE","ADDRESS":"1331 PENNSYLVANIA AVENUE NW","STATUS":"ACTIVE","SSL":"0254    0838","WARD":"Ward 2","ZIPCODE":20004,"GIS_ID":"ShpCenter_8"}},{"type":"Feature","id":9,"geometry":{"type":"Point","coordinates":[-77.0637426866717,38.905003445090536],"bbox":[-77.0637426866717,38.905003445090536,-77.0637426866717,38.905003445090536]},"properties":{"OBJECTID":9,"AID":"300197","NAME":"SHOPS AT GEORGETOWN PARK","ADDRESS":"3222 M STREET NW","STATUS":"ACTIVE","SSL":"1200    0868","WARD":"Ward 2","ZIPCODE":20007,"GIS_ID":"ShpCenter_9"}},{"type":"Feature","id":10,"geometry":{"type":"Point","coordinates":[-77.04577809351335,38.90036283266846],"bbox":[-77.04577809351335,38.90036283266846,-77.04577809351335,38.90036283266846]},"properties":{"OBJECTID":10,"AID":"243283","NAME":"THE SHOPS AT 2000 PENN","ADDRESS":"2000 PENNSYLVANIA AVENUE NW","STATUS":"ACTIVE","SSL":"0101    0058","WARD":"Ward 2","ZIPCODE":20006,"GIS_ID":"ShpCenter_10"}},{"type":"Feature","id":11,"geometry":{"type":"Point","coordinates":[-76.97415380319735,38.86455555547827],"bbox":[-76.97415380319735,38.86455555547827,-76.97415380319735,38.86455555547827]},"properties":{"OBJECTID":11,"AID":"286775","NAME":"MARBURY PLAZA","ADDRESS":"2300 GOOD HOPE ROAD SE","STATUS":"ACTIVE","SSL":"5627    0099","WARD":"Ward 8","ZIPCODE":20020,"GIS_ID":"ShpCenter_11"}},{"type":"Feature","id":12,"geometry":{"type":"Point","coordinates":[-77.00618140825563,38.89754625633314],"bbox":[-77.00618140825563,38.89754625633314,-77.00618140825563,38.89754625633314]},"properties":{"OBJECTID":12,"AID":"293243","NAME":"SHOPS AT UNION STATION","ADDRESS":"50 MASSACHUSETTS AVENUE NE","STATUS":"ACTIVE","SSL":"0720    0171","WARD":"Ward 6","ZIPCODE":20002,"GIS_ID":"ShpCenter_12"}},{"type":"Feature","id":13,"geometry":{"type":"Point","coordinates":[-77.02758510654374,38.8967402470086],"bbox":[-77.02758510654374,38.8967402470086,-77.02758510654374,38.8967402470086]},"properties":{"OBJECTID":13,"AID":"239135","NAME":"INTERNATIONAL COUNCIL SHOPPING CENTER","ADDRESS":"555 12TH STREET NW","STATUS":"ACTIVE","SSL":"0321    0027","WARD":"Ward 2","ZIPCODE":20004,"GIS_ID":"ShpCenter_13"}},{"type":"Feature","id":14,"geometry":{"type":"Point","coordinates":[-76.99219832587853,38.92032906772045],"bbox":[-76.99219832587853,38.92032906772045,-76.99219832587853,38.92032906772045]},"properties":{"OBJECTID":14,"AID":"303872","NAME":"RHODE ISLAND PLAZA","ADDRESS":"680 RHODE ISLAND AVE NE","STATUS":"ACTIVE","SSL":"3848    0820","WARD":"Ward 5","ZIPCODE":20018,"GIS_ID":"ShpCenter_14"}},{"type":"Feature","id":15,"geometry":{"type":"Point","coordinates":[-77.09585016861831,38.946030884653126],"bbox":[-77.09585016861831,38.946030884653126,-77.09585016861831,38.946030884653126]},"properties":{"OBJECTID":15,"AID":"294298","NAME":"SPRING VALLEY SHOPPING CENTER","ADDRESS":"4851 MASSACHUSETTS AVE NW","STATUS":"ACTIVE","SSL":"1499    0803","WARD":"Ward 3","ZIPCODE":20016,"GIS_ID":"ShpCenter_15"}},{"type":"Feature","id":16,"geometry":{"type":"Point","coordinates":[-76.9964545684169,38.88676145217296],"bbox":[-76.9964545684169,38.88676145217296,-76.9964545684169,38.88676145217296]},"properties":{"OBJECTID":16,"AID":"294388","NAME":"EASTERN MARKET","ADDRESS":"225 7TH STREET SE","STATUS":"RETIRE","SSL":"0872    0800","WARD":"Ward 6","ZIPCODE":20003,"GIS_ID":"ShpCenter_16"}},{"type":"Feature","id":17,"geometry":{"type":"Point","coordinates":[-77.00439472713981,38.929730507221514],"bbox":[-77.00439472713981,38.929730507221514,-77.00439472713981,38.929730507221514]},"properties":{"OBJECTID":17,"AID":"303869","NAME":"TRINITY SQUARE SHOPPING CENTER","ADDRESS":"200 MICHIGAN AVE NE","STATUS":"ACTIVE","SSL":"3499    0003","WARD":"Ward 5","ZIPCODE":20017,"GIS_ID":"ShpCenter_17"}},{"type":"Feature","id":18,"geometry":{"type":"Point","coordinates":[-76.99369951665973,38.89983632005448],"bbox":[-76.99369951665973,38.89983632005448,-76.99369951665973,38.89983632005448]},"properties":{"OBJECTID":18,"AID":"303867","NAME":"H STREET CONNECTION SHOPPING CENTER","ADDRESS":"801 H STREET NE","STATUS":"ACTIVE","SSL":"0912    0055","WARD":"Ward 6","ZIPCODE":20002,"GIS_ID":"ShpCenter_18"}},{"type":"Feature","id":19,"geometry":{"type":"Point","coordinates":[-77.06659777328676,38.904864691233776],"bbox":[-77.06659777328676,38.904864691233776,-77.06659777328676,38.904864691233776]},"properties":{"OBJECTID":19,"AID":"303861","NAME":"CADYS ALLEY","ADDRESS":"3318 M STREET NW","STATUS":"ACTIVE","SSL":"1184    0057","WARD":"Ward 2","ZIPCODE":20007,"GIS_ID":"ShpCenter_19"}},{"type":"Feature","id":20,"geometry":{"type":"Point","coordinates":[-77.0510690178563,38.896719431720136],"bbox":[-77.0510690178563,38.896719431720136,-77.0510690178563,38.896719431720136]},"properties":{"OBJECTID":20,"AID":"303863","NAME":"MARKET AT COLUMBIA PLAZA","ADDRESS":"506 23RD STREET NW","STATUS":"ACTIVE","SSL":"0033    0087","WARD":"Ward 2","ZIPCODE":20037,"GIS_ID":"ShpCenter_20"}},{"type":"Feature","id":21,"geometry":{"type":"Point","coordinates":[-76.96825587873232,38.86170150432892],"bbox":[-76.96825587873232,38.86170150432892,-76.96825587873232,38.86170150432892]},"properties":{"OBJECTID":21,"AID":"303876","NAME":"SKYLAND SHOPPING CENTER","ADDRESS":" ","STATUS":"RETIRE","SSL":"5632    0005","WARD":"Ward 7","ZIPCODE":20020,"GIS_ID":"ShpCenter_21"}},{"type":"Feature","id":22,"geometry":{"type":"Point","coordinates":[-76.96641702812096,38.85904698250634],"bbox":[-76.96641702812096,38.85904698250634,-76.96641702812096,38.85904698250634]},"properties":{"OBJECTID":22,"AID":"303874","NAME":"GOOD HOPE MARKETPLACE","ADDRESS":"2845 ALABAMA AVE SE","STATUS":"ACTIVE","SSL":"5642    0001","WARD":"Ward 7","ZIPCODE":20020,"GIS_ID":"ShpCenter_22"}},{"type":"Feature","id":23,"geometry":{"type":"Point","coordinates":[-77.02500532976053,38.88391587296317],"bbox":[-77.02500532976053,38.88391587296317,-77.02500532976053,38.88391587296317]},"properties":{"OBJECTID":23,"AID":"291695","NAME":"LENFANT PLAZA SHOPPING MALL","ADDRESS":"429 LENFANT PLAZA SW","STATUS":"ACTIVE","SSL":"0387    0870","WARD":"Ward 6","ZIPCODE":20024,"GIS_ID":"ShpCenter_23"}},{"type":"Feature","id":24,"geometry":{"type":"Point","coordinates":[-76.95976378644514,38.86973801431811],"bbox":[-76.95976378644514,38.86973801431811,-76.95976378644514,38.86973801431811]},"properties":{"OBJECTID":24,"AID":"303877","NAME":"PENN BRANCH SHOPPING CENTER","ADDRESS":"3230 PENNSYLVANIA AVE SE","STATUS":"ACTIVE","SSL":"5539    0838","WARD":"Ward 7","ZIPCODE":20020,"GIS_ID":"ShpCenter_24"}},{"type":"Feature","id":25,"geometry":{"type":"Point","coordinates":[-76.93672650587811,38.889244014636944],"bbox":[-76.93672650587811,38.889244014636944,-76.93672650587811,38.889244014636944]},"properties":{"OBJECTID":25,"AID":"303875","NAME":"BENCO SHOPPING CENTER","ADDRESS":"4520 BENNING ROAD SE","STATUS":"ACTIVE","SSL":"5346    0011","WARD":"Ward 7","ZIPCODE":20019,"GIS_ID":"ShpCenter_25"}},{"type":"Feature","id":26,"geometry":{"type":"Point","coordinates":[-77.00861203346435,38.83215433421799],"bbox":[-77.00861203346435,38.83215433421799,-77.00861203346435,38.83215433421799]},"properties":{"OBJECTID":26,"AID":"303879","NAME":"ATLANTIC SHOPPING CENTER","ADDRESS":"3921 SOUTH CAPITOL STREET SW","STATUS":"ACTIVE","SSL":"6150    0817","WARD":"Ward 8","ZIPCODE":20032,"GIS_ID":"ShpCenter_26"}},{"type":"Feature","id":27,"geometry":{"type":"Point","coordinates":[-76.98038875877687,38.90050666059393],"bbox":[-76.98038875877687,38.90050666059393,-76.98038875877687,38.90050666059393]},"properties":{"OBJECTID":27,"AID":"303868","NAME":"HECHINGER MALL","ADDRESS":"1600 BENNING ROAD NE","STATUS":"ACTIVE","SSL":"4493    0001","WARD":"Ward 5","ZIPCODE":20002,"GIS_ID":"ShpCenter_27"}},{"type":"Feature","id":28,"geometry":{"type":"Point","coordinates":[-77.08561952283286,38.959424519181184],"bbox":[-77.08561952283286,38.959424519181184,-77.08561952283286,38.959424519181184]},"properties":{"OBJECTID":28,"AID":"265944","NAME":"MAZZA GALLERIE","ADDRESS":"5300 WISCONSIN AVENUE NW","STATUS":"ACTIVE","SSL":"1660    0812","WARD":"Ward 3","ZIPCODE":20015,"GIS_ID":"ShpCenter_28"}},{"type":"Feature","id":29,"geometry":{"type":"Point","coordinates":[-77.0848466288906,38.96013286182189],"bbox":[-77.0848466288906,38.96013286182189,-77.0848466288906,38.96013286182189]},"properties":{"OBJECTID":29,"AID":"303179","NAME":"CHEVY CHASE PAVILION","ADDRESS":"5335 WISCONSIN AVENUE NW","STATUS":"ACTIVE","SSL":"1661    0813","WARD":"Ward 3","ZIPCODE":20015,"GIS_ID":"ShpCenter_29"}},{"type":"Feature","id":30,"geometry":{"type":"Point","coordinates":[-77.05439115874468,38.89882829485218],"bbox":[-77.05439115874468,38.89882829485218,-77.05439115874468,38.89882829485218]},"properties":{"OBJECTID":30,"AID":"303866","NAME":"WATER GATE SHOPPING CENTER","ADDRESS":"2500 VIRGINIA AVE NW","STATUS":"ACTIVE","SSL":"0008    0806","WARD":"Ward 2","ZIPCODE":20037,"GIS_ID":"ShpCenter_30"}}],"name":"Shopping_Centers","updated_at":1429022196000,"retrieved_at":1444518657534,"expires_at":1444605057534,"count":30}