{"type":"FeatureCollection","features":[{"type":"Feature","properties":{"FISCAL_YEAR":2012,"GRANTEE":"National New Play Network, Ltd.","ADDRESS":"641 D STREET NW","ADDRESS2":null,"ZIP_4":"20004-2904","GRANT_CATEGORY":"Art Works","DISCIPLINE":"Theater","PROJECT_DESCRIPTION":"To support productions of new plays through the \"Continued Life of New Plays Fund.\"","OBJECTID":1,"GRANT":45000},"geometry":{"type":"Point","coordinates":[-77.0214487530495,38.894987695957774]}},{"type":"Feature","properties":{"FISCAL_YEAR":2012,"GRANTEE":"D.C. Wheel Productions, Inc.","ADDRESS":"3225 8TH STREET NE","ADDRESS2":null,"ZIP_4":"20017-3502","GRANT_CATEGORY":"Our Town","DISCIPLINE":"Design","PROJECT_DESCRIPTION":"To support the creation of an outdoor Arts Plaza and cultural programming.","OBJECTID":2,"GRANT":150000},"geometry":{"type":"Point","coordinates":[-76.99456488255515,38.9303601535627]}},{"type":"Feature","properties":{"FISCAL_YEAR":2012,"GRANTEE":"Studio Theatre, Inc.","ADDRESS":"1501 14TH STREET NW","ADDRESS2":null,"ZIP_4":"20005-3706","GRANT_CATEGORY":"Art Works","DISCIPLINE":"Theater","PROJECT_DESCRIPTION":"To support the U.S. premiere of \"Sucker Punch\" by playwright Roy Williams, directed by Leah C. Gardiner.","OBJECTID":5,"GRANT":35000},"geometry":{"type":"Point","coordinates":[-77.03166269750027,38.910039148713246]}},{"type":"Feature","properties":{"FISCAL_YEAR":2012,"GRANTEE":"Future of Music Coalition","ADDRESS":"1615 L STREET NW","ADDRESS2":"Ste. 520","ZIP_4":"20036-5608","GRANT_CATEGORY":"Art Works","DISCIPLINE":"Music","PROJECT_DESCRIPTION":"To support the Future of Music Policy Summit.","OBJECTID":7,"GRANT":20000},"geometry":{"type":"Point","coordinates":[-77.03745340529828,38.90427677659399]}},{"type":"Feature","properties":{"FISCAL_YEAR":2012,"GRANTEE":"Thelonious Monk Institute of Jazz","ADDRESS":"5225 WISCONSIN AVENUE NW","ADDRESS2":"Suite 605","ZIP_4":"20015-2024","GRANT_CATEGORY":"Art Works","DISCIPLINE":"Music","PROJECT_DESCRIPTION":"To support the Peer-to-Peer jazz education tour, in consortium with the Los Angeles County High School for the Arts Foundation.","OBJECTID":8,"GRANT":60000},"geometry":{"type":"Point","coordinates":[-77.08408942584195,38.958389138757774]}},{"type":"Feature","properties":{"FISCAL_YEAR":2012,"GRANTEE":"Vocal Arts Society","ADDRESS":"1050 17TH STREET NW","ADDRESS2":"Suite 1000","ZIP_4":"20036-5513","GRANT_CATEGORY":"Art Works","DISCIPLINE":"Music","PROJECT_DESCRIPTION":"To support the presentation of solo vocal recitalists in the Terrace Theater at the John F. Kennedy Center for the Performing Arts.","OBJECTID":9,"GRANT":14000},"geometry":{"type":"Point","coordinates":[-77.03882865418936,38.90337071768143]}},{"type":"Feature","properties":{"FISCAL_YEAR":2012,"GRANTEE":"Global Alliance for Arts & Health","ADDRESS":"2647 CONNECTICUT AVENUE NW","ADDRESS2":"Suite 200","ZIP_4":"20008-1500","GRANT_CATEGORY":"Art Works","DISCIPLINE":"Presenting","PROJECT_DESCRIPTION":"To support training programs for arts in health care networks.","OBJECTID":10,"GRANT":10000},"geometry":{"type":"Point","coordinates":[-77.05189001283597,38.92490458397269]}},{"type":"Feature","properties":{"FISCAL_YEAR":2012,"GRANTEE":"District of Columbia Jewish Community Center","ADDRESS":"1529 16TH STREET NW","ADDRESS2":null,"ZIP_4":"20036-1466","GRANT_CATEGORY":"Art Works","DISCIPLINE":"Media Arts","PROJECT_DESCRIPTION":"To support the 23rd Washington Jewish Film Festival.","OBJECTID":12,"GRANT":10000},"geometry":{"type":"Point","coordinates":[-77.03595326633784,38.91088640307269]}},{"type":"Feature","properties":{"FISCAL_YEAR":2012,"GRANTEE":"Landscape Architecture Foundation","ADDRESS":"1129 20TH STREET NW","ADDRESS2":"Suite 202","ZIP_4":"20036-3403","GRANT_CATEGORY":"Art Works","DISCIPLINE":"Design","PROJECT_DESCRIPTION":"To support the Case Study Investigation initiative, in consortium with the Council of Educators in Landscape Architecture.","OBJECTID":13,"GRANT":25000},"geometry":{"type":"Point","coordinates":[-77.04451258764584,38.904532839953674]}},{"type":"Feature","properties":{"FISCAL_YEAR":2012,"GRANTEE":"Washington Performing Arts Society","ADDRESS":"2000 L STREET NW","ADDRESS2":"Suite 510","ZIP_4":"20036-4918","GRANT_CATEGORY":"Art Works","DISCIPLINE":"Music","PROJECT_DESCRIPTION":"To support the Jazz/World Music Series.","OBJECTID":14,"GRANT":25000},"geometry":{"type":"Point","coordinates":[-77.04578709665066,38.90341531137431]}},{"type":"Feature","properties":{"FISCAL_YEAR":2012,"GRANTEE":"National Trust for Historic Preservation in the United States","ADDRESS":"2600 VIRGINIA AVENUE NW","ADDRESS2":null,"ZIP_4":"20037","GRANT_CATEGORY":"Art Works","DISCIPLINE":"Design","PROJECT_DESCRIPTION":"To support the production of a short film on the Farnsworth House.","OBJECTID":15,"GRANT":20000},"geometry":{"type":"Point","coordinates":[-77.05549690865818,38.89965155355274]}},{"type":"Feature","properties":{"FISCAL_YEAR":2012,"GRANTEE":"DC Jazz Festival","ADDRESS":"2550 M STREET NW","ADDRESS2":"9th Floor","ZIP_4":"20037-1301","GRANT_CATEGORY":"Art Works","DISCIPLINE":"Music","PROJECT_DESCRIPTION":"To support the expansion of the DC Jazz Festival's Jazz for a Healthier Generation program, in consortium with the Children's National Medical Center.","OBJECTID":16,"GRANT":20000},"geometry":{"type":"Point","coordinates":[-77.05421026558022,38.90497753870528]}},{"type":"Feature","properties":{"FISCAL_YEAR":2012,"GRANTEE":"City Arts, Inc.","ADDRESS":"614 S STREET NW","ADDRESS2":null,"ZIP_4":"20001","GRANT_CATEGORY":"Art Works","DISCIPLINE":"Arts Education","PROJECT_DESCRIPTION":"To support the Urban Arts Mentoring Program.","OBJECTID":17,"GRANT":24000},"geometry":{"type":"Point","coordinates":[-77.02069262582029,38.913923030592066]}},{"type":"Feature","properties":{"FISCAL_YEAR":2012,"GRANTEE":"Cultural Development Corporation of the District of Columbia","ADDRESS":"916 G STREET NW","ADDRESS2":null,"ZIP_4":"20001-4565","GRANT_CATEGORY":"Art Works","DISCIPLINE":"Presenting","PROJECT_DESCRIPTION":"To support the Flashpoint and Source Business Centers.","OBJECTID":19,"GRANT":20000},"geometry":{"type":"Point","coordinates":[-77.02491210452543,38.89812444241147]}},{"type":"Feature","properties":{"FISCAL_YEAR":2012,"GRANTEE":"Cultural Landscape Foundation","ADDRESS":"1711 CONNECTICUT AVENUE NW","ADDRESS2":"Suite 200","ZIP_4":"20009-1050","GRANT_CATEGORY":"Art Works","DISCIPLINE":"Design","PROJECT_DESCRIPTION":"To support the Pioneers Oral History Series.","OBJECTID":21,"GRANT":10000},"geometry":{"type":"Point","coordinates":[-77.04514830209698,38.913108001895644]}},{"type":"Feature","properties":{"FISCAL_YEAR":2012,"GRANTEE":"Women in Film & Video, Inc.","ADDRESS":"3628 12TH STREET NE","ADDRESS2":null,"ZIP_4":"20017-2546","GRANT_CATEGORY":"Arts in Media","DISCIPLINE":"Media Arts","PROJECT_DESCRIPTION":"To support post-production and national outreach costs for the documentary \"Essakane Film.\"","OBJECTID":22,"GRANT":20000},"geometry":{"type":"Point","coordinates":[-76.99137088162446,38.934364694259415]}},{"type":"Feature","properties":{"FISCAL_YEAR":2012,"GRANTEE":"Daniel Phoenix Singh & Company","ADDRESS":"4607 GEORGIA AVENUE NW","ADDRESS2":null,"ZIP_4":"20011-7127","GRANT_CATEGORY":"Art Works","DISCIPLINE":"Dance","PROJECT_DESCRIPTION":"To support Dakshina's reconstruction and presentation of Anna Sokolow's \"Lyric Suite\" and \"Magritte Magritte.\"","OBJECTID":24,"GRANT":15000},"geometry":{"type":"Point","coordinates":[-77.02633046769947,38.94645261718608]}},{"type":"Feature","properties":{"FISCAL_YEAR":2012,"GRANTEE":"Shakespeare Theatre","ADDRESS":"516 8TH STREET SE","ADDRESS2":null,"ZIP_4":"20003-2834","GRANT_CATEGORY":"Art Works","DISCIPLINE":"Theater","PROJECT_DESCRIPTION":"To support a production of \"Strange Interlude\" by Eugene O'Neill, directed by artistic director Michael Kahn.","OBJECTID":25,"GRANT":70000},"geometry":{"type":"Point","coordinates":[-76.9946107399779,38.882098641559516]}},{"type":"Feature","properties":{"FISCAL_YEAR":2012,"GRANTEE":"John F. Kennedy Center for the Performing Arts","ADDRESS":"2700 F STREET NW","ADDRESS2":null,"ZIP_4":"20566-0001","GRANT_CATEGORY":"Art Works","DISCIPLINE":"Presenting","PROJECT_DESCRIPTION":"To support Look Both Ways: Street Arts Across America.","OBJECTID":27,"GRANT":50000},"geometry":{"type":"Point","coordinates":[-77.0557184462483,38.8959192822561]}},{"type":"Feature","properties":{"FISCAL_YEAR":2012,"GRANTEE":"Washington Ballet","ADDRESS":"3515 WISCONSIN AVENUE NW","ADDRESS2":null,"ZIP_4":"20016-3010","GRANT_CATEGORY":"Art Works","DISCIPLINE":"Dance","PROJECT_DESCRIPTION":"To support pre-production costs for the presentation of \"Twyla Tharp: All American,\" an evening of work by choreographer Twyla Tharp.","OBJECTID":29,"GRANT":20000},"geometry":{"type":"Point","coordinates":[-77.07325774930956,38.93693932756416]}},{"type":"Feature","properties":{"FISCAL_YEAR":2012,"GRANTEE":"Contemporary Music Forum","ADDRESS":"500 17TH STREET NW","ADDRESS2":null,"ZIP_4":"20006-4804","GRANT_CATEGORY":"Art Works","DISCIPLINE":"Music","PROJECT_DESCRIPTION":"To support the John Cage Centennial Festival.","OBJECTID":31,"GRANT":25000},"geometry":{"type":"Point","coordinates":[-77.0397427304576,38.895854463821884]}},{"type":"Feature","properties":{"FISCAL_YEAR":2012,"GRANTEE":"Washington Drama Society, Inc.","ADDRESS":"1101 6TH STREET SW","ADDRESS2":"Arena Stage","ZIP_4":"20024-2605","GRANT_CATEGORY":"Art Works","DISCIPLINE":"Theater","PROJECT_DESCRIPTION":"To support the world premiere of \"Mary T. & Lizzy K.,\" a new play written and directed by Tazewell Thompson.","OBJECTID":37,"GRANT":30000},"geometry":{"type":"Point","coordinates":[-77.02036042050828,38.87712561908211]}},{"type":"Feature","properties":{"FISCAL_YEAR":2012,"GRANTEE":"Post-Classical Ensemble, Inc.","ADDRESS":"5104 44TH STREET NW","ADDRESS2":null,"ZIP_4":"20016-4039","GRANT_CATEGORY":"Art Works","DISCIPLINE":"Music","PROJECT_DESCRIPTION":"To support the \"Mexican Revolution\" festival, in consortium with the Mexican Cultural Institute.","OBJECTID":39,"GRANT":35000},"geometry":{"type":"Point","coordinates":[-77.08643989292969,38.95622562063408]}},{"type":"Feature","properties":{"FISCAL_YEAR":2012,"GRANTEE":"Washington Concert Opera","ADDRESS":"1808 CONNECTICUT AVENUE NW","ADDRESS2":"Suite 101","ZIP_4":"20009-4101","GRANT_CATEGORY":"Art Works","DISCIPLINE":"Opera","PROJECT_DESCRIPTION":"To support a concert opera presentation of \"Samson and Delilah\" by Camille Saint-Saens.","OBJECTID":40,"GRANT":10000},"geometry":{"type":"Point","coordinates":[-77.04660506746525,38.91455831296616]}},{"type":"Feature","properties":{"FISCAL_YEAR":2012,"GRANTEE":"GALA Inc., Grupo de Artistas Latinoamericanos","ADDRESS":"2437 15TH STREET NW","ADDRESS2":null,"ZIP_4":"20009","GRANT_CATEGORY":"Art Works","DISCIPLINE":"Theater","PROJECT_DESCRIPTION":"To support the production of the United States Spanish-language premiere of the comedy \"El desden con el desden\" by Agustin Moreto y Cavana.","OBJECTID":41,"GRANT":40000},"geometry":{"type":"Point","coordinates":[-77.0349227390632,38.92248890886329]}},{"type":"Feature","properties":{"FISCAL_YEAR":2012,"GRANTEE":"Ford's Theatre Society","ADDRESS":"514 10TH STREET NW","ADDRESS2":null,"ZIP_4":"20004-1403","GRANT_CATEGORY":"Art Works","DISCIPLINE":"Theater","PROJECT_DESCRIPTION":"To support the world premiere of a new work by Richard Hellesen about Abraham Lincoln and Frederick Douglass, directed by Jennifer Nelson.","OBJECTID":42,"GRANT":20000},"geometry":{"type":"Point","coordinates":[-77.02628569437209,38.896704062761245]}},{"type":"Feature","properties":{"FISCAL_YEAR":2012,"GRANTEE":"National Building Museum","ADDRESS":"401 F STREET NW","ADDRESS2":null,"ZIP_4":"20001-2637","GRANT_CATEGORY":"Art Works","DISCIPLINE":"Design","PROJECT_DESCRIPTION":"To support \"Welcome Home,\" a media exhibition.","OBJECTID":43,"GRANT":20000},"geometry":{"type":"Point","coordinates":[-77.01755351967125,38.89776256277723]}},{"type":"Feature","properties":{"FISCAL_YEAR":2012,"GRANTEE":"Washington DC International Film Festival, Inc.","ADDRESS":"1838 ONTARIO PLACE NW","ADDRESS2":null,"ZIP_4":"20009-0896","GRANT_CATEGORY":"Art Works","DISCIPLINE":"Media Arts","PROJECT_DESCRIPTION":"To support the 26th annual Filmfest DC.","OBJECTID":44,"GRANT":15000},"geometry":{"type":"Point","coordinates":[-77.04299034356764,38.924867749497054]}},{"type":"Feature","properties":{"FISCAL_YEAR":2012,"GRANTEE":"National Center for Creative Aging","ADDRESS":"4125 ALBEMARLE STREET NW","ADDRESS2":null,"ZIP_4":"20016-2105","GRANT_CATEGORY":"Art Works","DISCIPLINE":"Presenting","PROJECT_DESCRIPTION":"To support the NCCA Research Center for Arts and Culture's ART CART.","OBJECTID":45,"GRANT":20000},"geometry":{"type":"Point","coordinates":[-77.08165862511485,38.94818457739296]}},{"type":"Feature","properties":{"FISCAL_YEAR":2012,"GRANTEE":"PEN/Faulkner","ADDRESS":"201 EAST CAPITOL STREET SE","ADDRESS2":null,"ZIP_4":"20003-1004","GRANT_CATEGORY":"Art Works","DISCIPLINE":"Literature","PROJECT_DESCRIPTION":"To support a reading series, literary programming for at-risk groups, and writers in the schools.","OBJECTID":46,"GRANT":40000},"geometry":{"type":"Point","coordinates":[-77.00276978713596,38.88944083528497]}},{"type":"Feature","properties":{"FISCAL_YEAR":2012,"GRANTEE":"FotoDC Inc","ADDRESS":"1050 17TH STREET NW","ADDRESS2":null,"ZIP_4":"20036-5559","GRANT_CATEGORY":"Art Works","DISCIPLINE":"Visual Arts","PROJECT_DESCRIPTION":"To support \"FotoWeek DC.\"","OBJECTID":48,"GRANT":30000},"geometry":{"type":"Point","coordinates":[-77.03882865418936,38.90337071768143]}},{"type":"Feature","properties":{"FISCAL_YEAR":2012,"GRANTEE":"Dance Heritage Coalition, Inc.","ADDRESS":"1111 16TH STREET NW","ADDRESS2":"Suite 300","ZIP_4":"20036-4830","GRANT_CATEGORY":"Art Works","DISCIPLINE":"Dance","PROJECT_DESCRIPTION":"To support the design, testing, and implementation of the Dance Heritage Coalition Records-Management System.","OBJECTID":53,"GRANT":20000},"geometry":{"type":"Point","coordinates":[-77.03617821755088,38.904071067309026]}},{"type":"Feature","properties":{"FISCAL_YEAR":2012,"GRANTEE":"National Public Radio, Inc.","ADDRESS":"1111 NORTH CAPITOL STREET NE","ADDRESS2":null,"ZIP_4":"20002-7502","GRANT_CATEGORY":"Arts in Media","DISCIPLINE":"Media Arts","PROJECT_DESCRIPTION":"To support a music Web site.","OBJECTID":55,"GRANT":70000},"geometry":{"type":"Point","coordinates":[-77.00860894193897,38.90431282143369]}},{"type":"Feature","properties":{"FISCAL_YEAR":2012,"GRANTEE":"National Public Radio, Inc.","ADDRESS":"1111 NORTH CAPITOL STREET NE","ADDRESS2":null,"ZIP_4":"20002-7502","GRANT_CATEGORY":"Arts in Media","DISCIPLINE":"Media Arts","PROJECT_DESCRIPTION":"To support the production and distribution of a multimedia arts project that explores Latin alternative music and culture.","OBJECTID":56,"GRANT":40000},"geometry":{"type":"Point","coordinates":[-77.00860894193897,38.90431282143369]}},{"type":"Feature","properties":{"FISCAL_YEAR":2012,"GRANTEE":"Young Playwrights' Theater, Inc.","ADDRESS":"2437 15TH STREET NW","ADDRESS2":null,"ZIP_4":"20009-4101","GRANT_CATEGORY":"Art Works","DISCIPLINE":"Arts Education","PROJECT_DESCRIPTION":"To support the In-School Playwriting Program.","OBJECTID":69,"GRANT":62000},"geometry":{"type":"Point","coordinates":[-77.0349227390632,38.92248890886329]}},{"type":"Feature","properties":{"FISCAL_YEAR":2012,"GRANTEE":"DC Jazz Festival","ADDRESS":"2550 M STREET NW","ADDRESS2":"9th Floor","ZIP_4":"20037-1301","GRANT_CATEGORY":"Art Works","DISCIPLINE":"Music","PROJECT_DESCRIPTION":"To support the 2012 DC Jazz Festival.","OBJECTID":72,"GRANT":35000},"geometry":{"type":"Point","coordinates":[-77.05421026558022,38.90497753870528]}},{"type":"Feature","properties":{"FISCAL_YEAR":2012,"GRANTEE":"National Symphony Orchestra Association of Washington, DC","ADDRESS":"2700 F STREET NW","ADDRESS2":null,"ZIP_4":"20566-0001","GRANT_CATEGORY":"Art Works","DISCIPLINE":"Music","PROJECT_DESCRIPTION":"To support \"The Music of Budapest, Prague, and Vienna,\" a month-long tribute to that region's impact on the history of Western music.","OBJECTID":77,"GRANT":40000},"geometry":{"type":"Point","coordinates":[-77.0557184462483,38.8959192822561]}},{"type":"Feature","properties":{"FISCAL_YEAR":2012,"GRANTEE":"Washington National Opera","ADDRESS":"2700 F STREET NW","ADDRESS2":null,"ZIP_4":"20566-0001","GRANT_CATEGORY":"Art Works","DISCIPLINE":"Opera","PROJECT_DESCRIPTION":"To support a new production of Giuseppe Verdi's NABUCCO.","OBJECTID":78,"GRANT":45000},"geometry":{"type":"Point","coordinates":[-77.0557184462483,38.8959192822561]}},{"type":"Feature","properties":{"FISCAL_YEAR":2012,"GRANTEE":"D.C. Wheel Productions, Inc.","ADDRESS":"3225 8TH STREET NE","ADDRESS2":null,"ZIP_4":"20017-3502","GRANT_CATEGORY":"Art Works","DISCIPLINE":"Dance","PROJECT_DESCRIPTION":"To support the presentation of dance performances and accompanying residency activities at Dance Place.","OBJECTID":89,"GRANT":40000},"geometry":{"type":"Point","coordinates":[-76.99456488255515,38.9303601535627]}},{"type":"Feature","properties":{"FISCAL_YEAR":2012,"GRANTEE":"National Building Museum","ADDRESS":"401 F STREET NW","ADDRESS2":null,"ZIP_4":"20001-2637","GRANT_CATEGORY":"Art Works","DISCIPLINE":"Design","PROJECT_DESCRIPTION":"To support the dissemination of the Green Community Teaching Kits and an on-line teacher training film, in consortium with the California University of Pennsylvania.","OBJECTID":93,"GRANT":30000},"geometry":{"type":"Point","coordinates":[-77.01755351967125,38.89776256277723]}},{"type":"Feature","properties":{"FISCAL_YEAR":2012,"GRANTEE":"Thelonious Monk Institute of Jazz","ADDRESS":"5225 WISCONSIN AVENUE NW","ADDRESS2":"Suite 605","ZIP_4":"20015-2024","GRANT_CATEGORY":"Art Works","DISCIPLINE":"Music","PROJECT_DESCRIPTION":"To support the New Orleans Community Outreach Program.","OBJECTID":102,"GRANT":50000},"geometry":{"type":"Point","coordinates":[-77.08408942584195,38.958389138757774]}},{"type":"Feature","properties":{"FISCAL_YEAR":2012,"GRANTEE":"Woolly Mammoth Theatre Company","ADDRESS":"641 D STREET NW","ADDRESS2":null,"ZIP_4":"20004-2904","GRANT_CATEGORY":"Art Works","DISCIPLINE":"Theater","PROJECT_DESCRIPTION":"To support the world premiere of \"Mr. Burns,\" a new play by Anne Washburn, featuring music by Michael Friedman.","OBJECTID":104,"GRANT":60000},"geometry":{"type":"Point","coordinates":[-77.0214487530495,38.894987695957774]}}]}