{"type":"FeatureCollection","features":[{"type":"Feature","properties":{"OBJECTID":207,"FISCAL_YEAR":2014,"APPLICANT":"Duane Gautier","ORGANIZATION":"Arch Development Corporation","ADDRESS":"1227 GOOD HOPE ROAD SE","ADDRESS2":null,"ZIP_4":"20020","GRANT_CATEGORY":"East of the River","DISCIPLINE":"Multi-Disciplinary","GRANT_":16250,"URL":null,"WARD":8},"geometry":{"type":"Point","coordinates":[-76.98777328894488,38.8670059923147]}},{"type":"Feature","properties":{"OBJECTID":212,"FISCAL_YEAR":2014,"APPLICANT":"Marsha Middleton","ORGANIZATION":"East of the River Boys and","ADDRESS":"3715 ALABAMA AVENUE SE","ADDRESS2":null,"ZIP_4":"20020","GRANT_CATEGORY":"East of the River","DISCIPLINE":"Music","GRANT_":25000,"URL":null,"WARD":7},"geometry":{"type":"Point","coordinates":[-76.95274461552468,38.86486712153978]}},{"type":"Feature","properties":{"OBJECTID":263,"FISCAL_YEAR":2014,"APPLICANT":"Leith Mondry","ORGANIZATION":"One World Education","ADDRESS":"1800 KENYON STREET NW","ADDRESS2":null,"ZIP_4":"20010","GRANT_CATEGORY":"East of the River","DISCIPLINE":"Humanities","GRANT_":10850,"URL":null,"WARD":1},"geometry":{"type":"Point","coordinates":[-77.04149235814263,38.929511087133086]}},{"type":"Feature","properties":{"OBJECTID":269,"FISCAL_YEAR":2014,"APPLICANT":"Janet Stone","ORGANIZATION":"Building Bridges Across the River t/a THEARC","ADDRESS":"1901 MISSISSIPPI AVENUE SE","ADDRESS2":null,"ZIP_4":"20020","GRANT_CATEGORY":"East of the River","DISCIPLINE":"Theatre (General/Classical/Contemporary/Experimental)","GRANT_":10580,"URL":null,"WARD":8},"geometry":{"type":"Point","coordinates":[-76.97532414962986,38.843564901387076]}},{"type":"Feature","properties":{"OBJECTID":272,"FISCAL_YEAR":2014,"APPLICANT":"Cora Barry","ORGANIZATION":"Recreation Wish List Committee","ADDRESS":"701 MISSISSIPPI AVENUE SE","ADDRESS2":null,"ZIP_4":"20032","GRANT_CATEGORY":"East of the River","DISCIPLINE":"Non-Arts/Non-Humanities","GRANT_":10580,"URL":null,"WARD":8},"geometry":{"type":"Point","coordinates":[-76.9945495259737,38.8385187759316]}},{"type":"Feature","properties":{"OBJECTID":273,"FISCAL_YEAR":2014,"APPLICANT":"lyn dyson","ORGANIZATION":"Multi-Media Training Institute","ADDRESS":"5327 EAST CAPITOL STREET SE","ADDRESS2":null,"ZIP_4":"20019","GRANT_CATEGORY":"East of the River","DISCIPLINE":"Multi-Disciplinary","GRANT_":10580,"URL":null,"WARD":7},"geometry":{"type":"Point","coordinates":[-76.92466659006067,38.88949431896261]}},{"type":"Feature","properties":{"OBJECTID":287,"FISCAL_YEAR":2014,"APPLICANT":"Karen baker","ORGANIZATION":"Social Art and Culture","ADDRESS":"1918 MARTIN LUTHER KING JR AVENUE SE","ADDRESS2":null,"ZIP_4":"20020","GRANT_CATEGORY":"East of the River","DISCIPLINE":"Multi-Disciplinary","GRANT_":17750,"URL":null,"WARD":8},"geometry":{"type":"Point","coordinates":[-76.9885699939121,38.86699030828315]}},{"type":"Feature","properties":{"OBJECTID":292,"FISCAL_YEAR":2014,"APPLICANT":"Gerald Norde","ORGANIZATION":"Do The Write Thing Foundation of DC","ADDRESS":"56 T STREET NW","ADDRESS2":null,"ZIP_4":"20001","GRANT_CATEGORY":"East of the River","DISCIPLINE":"Arts Administration/General Operating Support","GRANT_":10580,"URL":null,"WARD":5},"geometry":{"type":"Point","coordinates":[-77.01093255604096,38.91537118048302]}},{"type":"Feature","properties":{"OBJECTID":308,"FISCAL_YEAR":2014,"APPLICANT":"Amir Muhammad","ORGANIZATION":"Collections & Stories of American Muslims, Inc","ADDRESS":"2315 MARTIN LUTHER KING JR AVENUE SE","ADDRESS2":null,"ZIP_4":"20020","GRANT_CATEGORY":"East of the River","DISCIPLINE":"Humanities","GRANT_":10580,"URL":null,"WARD":8},"geometry":{"type":"Point","coordinates":[-76.99188518986358,38.86324767935189]}},{"type":"Feature","properties":{"OBJECTID":321,"FISCAL_YEAR":2014,"APPLICANT":"Beverly Lindsay-Johnson","ORGANIZATION":"The National Hand Dance Association","ADDRESS":"2500 MARTIN LUTHER KING JR AVENUE SE","ADDRESS2":null,"ZIP_4":"20020","GRANT_CATEGORY":"East of the River","DISCIPLINE":"Dance","GRANT_":7210,"URL":null,"WARD":8},"geometry":{"type":"Point","coordinates":[-76.99355296868038,38.861450423537015]}},{"type":"Feature","properties":{"OBJECTID":327,"FISCAL_YEAR":2014,"APPLICANT":"Anthony Gittens","ORGANIZATION":"The Washington, DC International Film Festival","ADDRESS":"1838 ONTARIO PLACE NW","ADDRESS2":null,"ZIP_4":"20009","GRANT_CATEGORY":"East of the River","DISCIPLINE":"Film","GRANT_":10580,"URL":null,"WARD":1},"geometry":{"type":"Point","coordinates":[-77.04299034356764,38.924867749497054]}},{"type":"Feature","properties":{"OBJECTID":424,"FISCAL_YEAR":2014,"APPLICANT":"Dannie Greenberg","ORGANIZATION":"CityDance","ADDRESS":"1111 16TH STREET NW","ADDRESS2":"Suite 300","ZIP_4":"20036","GRANT_CATEGORY":"East of the River","DISCIPLINE":"Dance","GRANT_":17500,"URL":null,"WARD":2},"geometry":{"type":"Point","coordinates":[-77.03617821755088,38.904071067309026]}},{"type":"Feature","properties":{"OBJECTID":455,"FISCAL_YEAR":2014,"APPLICANT":"Joanne Coutts","ORGANIZATION":"Step Afrika! USA Incorporated","ADDRESS":"1333 H STREET NE","ADDRESS2":null,"ZIP_4":"20002","GRANT_CATEGORY":"East of the River","DISCIPLINE":"Multi-Disciplinary","GRANT_":22500,"URL":null,"WARD":6},"geometry":{"type":"Point","coordinates":[-76.98721924204297,38.899980321081834]}},{"type":"Feature","properties":{"OBJECTID":459,"FISCAL_YEAR":2014,"APPLICANT":"Noura Hemady","ORGANIZATION":"Thurgood Marshall Academy","ADDRESS":"2427 MARTIN LUTHER KING JR AVENUE SE","ADDRESS2":null,"ZIP_4":"20020","GRANT_CATEGORY":"East of the River","DISCIPLINE":"Interdisciplinary","GRANT_":2000,"URL":null,"WARD":8},"geometry":{"type":"Point","coordinates":[-76.99368804763371,38.86228452050824]}},{"type":"Feature","properties":{"OBJECTID":470,"FISCAL_YEAR":2014,"APPLICANT":"Janey Moskowitz","ORGANIZATION":"Washington Bach Consort","ADDRESS":"1010 VERMONT AVENUE NW","ADDRESS2":"202","ZIP_4":"20005","GRANT_CATEGORY":"East of the River","DISCIPLINE":"Music","GRANT_":17500,"URL":null,"WARD":2},"geometry":{"type":"Point","coordinates":[-77.03381963718607,38.90308283668486]}},{"type":"Feature","properties":{"OBJECTID":472,"FISCAL_YEAR":2014,"APPLICANT":"Sarah Browning","ORGANIZATION":"Split This Rock, Inc.","ADDRESS":"1112 16TH STREET NW","ADDRESS2":"Suite 600","ZIP_4":"20036","GRANT_CATEGORY":"East of the River","DISCIPLINE":"Poetry","GRANT_":17500,"URL":null,"WARD":2},"geometry":{"type":"Point","coordinates":[-77.03696030749322,38.9042627004388]}},{"type":"Feature","properties":{"OBJECTID":480,"FISCAL_YEAR":2014,"APPLICANT":"Jason King","ORGANIZATION":"Turning the Page","ADDRESS":"1625 K STREET NW","ADDRESS2":"Suite 102","ZIP_4":"20006","GRANT_CATEGORY":"East of the River","DISCIPLINE":"Humanities","GRANT_":17500,"URL":null,"WARD":2},"geometry":{"type":"Point","coordinates":[-77.03741188698231,38.902930671377156]}},{"type":"Feature","properties":{"OBJECTID":483,"FISCAL_YEAR":2014,"APPLICANT":"Jacquelyn Horstmann","ORGANIZATION":"Critical Exposure","ADDRESS":"1816 12TH STREET NW","ADDRESS2":"Third Floor","ZIP_4":"20009","GRANT_CATEGORY":"East of the River","DISCIPLINE":"Photography (Including Holography)","GRANT_":16250,"URL":null,"WARD":1},"geometry":{"type":"Point","coordinates":[-77.02849246662294,38.914936538352656]}},{"type":"Feature","properties":{"OBJECTID":487,"FISCAL_YEAR":2014,"APPLICANT":"Sunny Sumter","ORGANIZATION":"Festivals DC, Ltd.","ADDRESS":"2550 M STREET NW","ADDRESS2":"9th Floor","ZIP_4":"20037","GRANT_CATEGORY":"East of the River","DISCIPLINE":"Music","GRANT_":25000,"URL":null,"WARD":2},"geometry":{"type":"Point","coordinates":[-77.05421026558022,38.90497753870528]}},{"type":"Feature","properties":{"OBJECTID":493,"FISCAL_YEAR":2014,"APPLICANT":"Joe Callahan","ORGANIZATION":"826DC","ADDRESS":"3233 14TH STREET NW","ADDRESS2":null,"ZIP_4":"20010","GRANT_CATEGORY":"East of the River","DISCIPLINE":"Literature","GRANT_":10580,"URL":null,"WARD":1},"geometry":{"type":"Point","coordinates":[-77.0321466908113,38.930171187871615]}},{"type":"Feature","properties":{"OBJECTID":503,"FISCAL_YEAR":2014,"APPLICANT":"Selvon Waldron","ORGANIZATION":"Life Pieces To Masterpieces","ADDRESS":"5600 EADS STREET NE","ADDRESS2":null,"ZIP_4":"20019","GRANT_CATEGORY":"East of the River","DISCIPLINE":"Visual Arts","GRANT_":25000,"URL":null,"WARD":7},"geometry":{"type":"Point","coordinates":[-76.9199292605129,38.89600143048365]}},{"type":"Feature","properties":{"OBJECTID":505,"FISCAL_YEAR":2014,"APPLICANT":"Abbey Chung","ORGANIZATION":"DC Creative Writing Workshop","ADDRESS":"601 MISSISSIPPI AVENUE SE","ADDRESS2":null,"ZIP_4":"20032","GRANT_CATEGORY":"East of the River","DISCIPLINE":"Poetry","GRANT_":16250,"URL":null,"WARD":8},"geometry":{"type":"Point","coordinates":[-76.99718101999316,38.837745313083275]}},{"type":"Feature","properties":{"OBJECTID":507,"FISCAL_YEAR":2014,"APPLICANT":"Sabrina Thornton","ORGANIZATION":"Woolly Mammoth Theatre Company","ADDRESS":"641 D STREET NW","ADDRESS2":null,"ZIP_4":"20004","GRANT_CATEGORY":"East of the River","DISCIPLINE":"Theatre","GRANT_":4550,"URL":null,"WARD":2},"geometry":{"type":"Point","coordinates":[-77.0214487530495,38.894987695957774]}},{"type":"Feature","properties":{"OBJECTID":518,"FISCAL_YEAR":2014,"APPLICANT":"Christie Walser","ORGANIZATION":"Project Create","ADDRESS":"2401 VIRGINIA AVENUE NW","ADDRESS2":null,"ZIP_4":"20037","GRANT_CATEGORY":"East of the River","DISCIPLINE":"Multi-Disciplinary","GRANT_":10580,"URL":null,"WARD":2},"geometry":{"type":"Point","coordinates":[-77.05196328779058,38.89853884429101]}},{"type":"Feature","properties":{"OBJECTID":521,"FISCAL_YEAR":2014,"APPLICANT":"Tony Schaffer","ORGANIZATION":"Corcoran Gallery of Art","ADDRESS":"500 17TH STREET NW","ADDRESS2":null,"ZIP_4":"20006","GRANT_CATEGORY":"East of the River","DISCIPLINE":"Visual Arts","GRANT_":25000,"URL":null,"WARD":2},"geometry":{"type":"Point","coordinates":[-77.0397427304576,38.895854463821884]}},{"type":"Feature","properties":{"OBJECTID":528,"FISCAL_YEAR":2014,"APPLICANT":"Mazi Mutafa","ORGANIZATION":"Words Beats & Life","ADDRESS":"1525 NEWTON STREET NW","ADDRESS2":null,"ZIP_4":"20010","GRANT_CATEGORY":"East of the River","DISCIPLINE":"Oral Traditions","GRANT_":25000,"URL":null,"WARD":1},"geometry":{"type":"Point","coordinates":[-77.03575012673143,38.93348727045944]}},{"type":"Feature","properties":{"OBJECTID":536,"FISCAL_YEAR":2014,"APPLICANT":"Briana Maley","ORGANIZATION":"Levine School of Music","ADDRESS":"2801 UPTON STREET NW","ADDRESS2":null,"ZIP_4":"20008-3829","GRANT_CATEGORY":"East of the River","DISCIPLINE":"Music","GRANT_":25000,"URL":null,"WARD":3},"geometry":{"type":"Point","coordinates":[-77.05651992732595,38.943037506818946]}},{"type":"Feature","properties":{"OBJECTID":547,"FISCAL_YEAR":2014,"APPLICANT":"Brigitte Moore","ORGANIZATION":"Young Playwrights' Theater","ADDRESS":"2437 15TH STREET NW","ADDRESS2":null,"ZIP_4":"20009","GRANT_CATEGORY":"East of the River","DISCIPLINE":"Theatre","GRANT_":16250,"URL":null,"WARD":1},"geometry":{"type":"Point","coordinates":[-77.0349227390632,38.92248890886329]}},{"type":"Feature","properties":{"OBJECTID":566,"FISCAL_YEAR":2014,"APPLICANT":"Raji Rankins","ORGANIZATION":"Sewing Opportunity Never Ending (SONE)","ADDRESS":"3210 LOUD PLACE SE","ADDRESS2":null,"ZIP_4":"20019","GRANT_CATEGORY":"East of the River","DISCIPLINE":"Design Arts","GRANT_":13000,"URL":null,"WARD":7},"geometry":{"type":"Point","coordinates":[-76.96012620666063,38.876584408147714]}}]}