{"type":"FeatureCollection","features":[{"type":"Feature","properties":{"FISCAL_YEAR":2014,"ADDRESS":"10 4TH STREET NE","ADDRESS2":null,"ZIP_4":"20002-5930","GRANT_CATEGORY":"Art Works","DISCIPLINE":"Opera","OBJECTID":47,"GRANTEE":"Opera Lafayette","PROJECT_DESCRIPTION":"To support performances of Jean-Philippe Rameau's \"Les Fetes de l'Hymen et de l'Amour, ou Les Dieux d'Egypte.\"","GRANT":15000},"geometry":{"type":"Point","coordinates":[-77.0007789527969,38.890291526555465]}},{"type":"Feature","properties":{"FISCAL_YEAR":2014,"ADDRESS":"1101 6TH STREET SW","ADDRESS2":"Arena Stage","ZIP_4":"20024-2605","GRANT_CATEGORY":"Art Works","DISCIPLINE":"Theater & Musical Theater","OBJECTID":51,"GRANTEE":"Washington Drama Society, Inc.","PROJECT_DESCRIPTION":"To support the world premiere of \"Camp David,\" a new play by journalist Lawrence Wright, directed by Artistic Director Molly Smith.","GRANT":35000},"geometry":{"type":"Point","coordinates":[-77.02036042050828,38.87712561908211]}},{"type":"Feature","properties":{"FISCAL_YEAR":2014,"ADDRESS":"1111 16TH STREET NW","ADDRESS2":"Suite 300","ZIP_4":"20036-4830","GRANT_CATEGORY":"Art Works","DISCIPLINE":"Arts Education","OBJECTID":52,"GRANTEE":"CityDance Ensemble, Inc.","PROJECT_DESCRIPTION":"To support the Conservatory Professional Guest Artist Project.","GRANT":20000},"geometry":{"type":"Point","coordinates":[-77.03617821755088,38.904071067309026]}},{"type":"Feature","properties":{"FISCAL_YEAR":2014,"ADDRESS":"1228 1/2 31ST STREET NW","ADDRESS2":null,"ZIP_4":"20007-3414","GRANT_CATEGORY":"Art Works","DISCIPLINE":"Media Arts","OBJECTID":59,"GRANTEE":"Environmental Film Festival in the Nation's Capital","PROJECT_DESCRIPTION":"To support the 2014 Environmental Film Festival in the Nation's Capitol.","GRANT":15000},"geometry":{"type":"Point","coordinates":[-77.06181165492,38.90575731083495]}},{"type":"Feature","properties":{"FISCAL_YEAR":2014,"ADDRESS":"1333 H STREET NE","ADDRESS2":null,"ZIP_4":"20002-4446","GRANT_CATEGORY":"Art Works","DISCIPLINE":"Presenting & Multidisciplinary Works","OBJECTID":61,"GRANTEE":"Atlas Performing Arts Center","PROJECT_DESCRIPTION":"To support Intersections, a multidisciplinary arts festival.","GRANT":20000},"geometry":{"type":"Point","coordinates":[-76.98721924204297,38.899980321081834]}},{"type":"Feature","properties":{"FISCAL_YEAR":2014,"ADDRESS":"1404 P STREET NW","ADDRESS2":null,"ZIP_4":"20005-1908","GRANT_CATEGORY":"Art Works","DISCIPLINE":"Visual Arts","OBJECTID":62,"GRANTEE":"Transformer, Inc.","PROJECT_DESCRIPTION":"To support an exhibition series.","GRANT":20000},"geometry":{"type":"Point","coordinates":[-77.03233799891947,38.9095050391436]}},{"type":"Feature","properties":{"FISCAL_YEAR":2014,"ADDRESS":"1501 14TH STREET NW","ADDRESS2":null,"ZIP_4":"20005-3706","GRANT_CATEGORY":"Art Works","DISCIPLINE":"Theater & Musical Theater","OBJECTID":64,"GRANTEE":"Studio Theatre, Inc.","PROJECT_DESCRIPTION":"To support a production of \"Tribes\" by Nina Raine.","GRANT":30000},"geometry":{"type":"Point","coordinates":[-77.03166269750027,38.910039148713246]}},{"type":"Feature","properties":{"FISCAL_YEAR":2014,"ADDRESS":"1808 CONNECTICUT AVENUE NW","ADDRESS2":"Suite 101","ZIP_4":"20009-4101","GRANT_CATEGORY":"Art Works","DISCIPLINE":"Opera","OBJECTID":67,"GRANTEE":"Washington Concert Opera","PROJECT_DESCRIPTION":"To support a concert presentation of Verdi's \"Il Corsaro.\"","GRANT":10000},"geometry":{"type":"Point","coordinates":[-77.04660506746525,38.91455831296616]}},{"type":"Feature","properties":{"FISCAL_YEAR":2014,"ADDRESS":"2000 L STREET NW","ADDRESS2":"Suite 510","ZIP_4":"20036-4918","GRANT_CATEGORY":"Art Works","DISCIPLINE":"Music","OBJECTID":68,"GRANTEE":"Washington Performing Arts Society","PROJECT_DESCRIPTION":"To support the Spirit and Society: Music and Cultural Representation, a series of concerts showcasing national and international artists.","GRANT":25000},"geometry":{"type":"Point","coordinates":[-77.04578709665066,38.90341531137431]}},{"type":"Feature","properties":{"FISCAL_YEAR":2014,"ADDRESS":"2550 M STREET NW","ADDRESS2":"9th Floor","ZIP_4":"20037-1301","GRANT_CATEGORY":"Art Works","DISCIPLINE":"Music","OBJECTID":74,"GRANTEE":"DC Jazz Festival","PROJECT_DESCRIPTION":"To support the DC Jazz Festival.","GRANT":40000},"geometry":{"type":"Point","coordinates":[-77.05421026558022,38.90497753870528]}},{"type":"Feature","properties":{"FISCAL_YEAR":2014,"ADDRESS":"2700 F STREET NW","ADDRESS2":null,"ZIP_4":"20566-0001","GRANT_CATEGORY":"Art Works","DISCIPLINE":"Music","OBJECTID":83,"GRANTEE":"National Symphony Orchestra Association of Washington, DC","PROJECT_DESCRIPTION":"To support New Moves: Symphony + Dance, a performance project featuring works by American composers.","GRANT":50000},"geometry":{"type":"Point","coordinates":[-77.0557184462483,38.8959192822561]}},{"type":"Feature","properties":{"FISCAL_YEAR":2014,"ADDRESS":"2700 F STREET NW","ADDRESS2":null,"ZIP_4":"20566-0001","GRANT_CATEGORY":"Art Works","DISCIPLINE":"Opera","OBJECTID":84,"GRANTEE":"Washington National Opera","PROJECT_DESCRIPTION":"To support performances of \"Moby-Dick\" by composer Jake Heggie and librettist Gene Scheer.","GRANT":50000},"geometry":{"type":"Point","coordinates":[-77.0557184462483,38.8959192822561]}},{"type":"Feature","properties":{"FISCAL_YEAR":2014,"ADDRESS":"2700 F STREET NW","ADDRESS2":null,"ZIP_4":"20566-0001","GRANT_CATEGORY":"Art Works","DISCIPLINE":"Presenting & Multidisciplinary Works","OBJECTID":85,"GRANTEE":"John F. Kennedy Center for the Performing Arts","PROJECT_DESCRIPTION":"To support the One Mic: Hip-Hop Culture Worldwide festival.","GRANT":65000},"geometry":{"type":"Point","coordinates":[-77.0557184462483,38.8959192822561]}},{"type":"Feature","properties":{"FISCAL_YEAR":2014,"ADDRESS":"2801 UPTON STREET NW","ADDRESS2":null,"ZIP_4":"20008-3829","GRANT_CATEGORY":"Art Works","DISCIPLINE":"Arts Education","OBJECTID":87,"GRANTEE":"Levine School of Music","PROJECT_DESCRIPTION":"To support the Early Childhood and Elementary Music program.","GRANT":15000},"geometry":{"type":"Point","coordinates":[-77.05651992732595,38.943037506818946]}},{"type":"Feature","properties":{"FISCAL_YEAR":2014,"ADDRESS":"2801 UPTON STREET NW","ADDRESS2":null,"ZIP_4":"20008-3829","GRANT_CATEGORY":"Art Works","DISCIPLINE":"Music","OBJECTID":88,"GRANTEE":"Washington Chorus, Inc.","PROJECT_DESCRIPTION":"To support the \"The Essential Verdi\" concert program, including outreach activities.","GRANT":27500},"geometry":{"type":"Point","coordinates":[-77.05651992732595,38.943037506818946]}},{"type":"Feature","properties":{"FISCAL_YEAR":2014,"ADDRESS":"3515 WISCONSIN AVENUE NW","ADDRESS2":null,"ZIP_4":"20016-3010","GRANT_CATEGORY":"Art Works","DISCIPLINE":"Dance","OBJECTID":92,"GRANTEE":"Washington Ballet","PROJECT_DESCRIPTION":"To support the creation and presentation of new dances as part of the Jazz Blues Project.","GRANT":20000},"geometry":{"type":"Point","coordinates":[-77.07325774930956,38.93693932756416]}},{"type":"Feature","properties":{"FISCAL_YEAR":2014,"ADDRESS":"514 10TH STREET NW","ADDRESS2":null,"ZIP_4":"20004-1403","GRANT_CATEGORY":"Art Works","DISCIPLINE":"Theater & Musical Theater","OBJECTID":99,"GRANTEE":"Ford's Theatre Society","PROJECT_DESCRIPTION":"To support the production of the musical, \"Violet,\" created by Jeanine Tesori and Brian Crawley with direction by Jeff Calhoun.","GRANT":20000},"geometry":{"type":"Point","coordinates":[-77.02628569437209,38.896704062761245]}},{"type":"Feature","properties":{"FISCAL_YEAR":2014,"ADDRESS":"516 8TH STREET SE","ADDRESS2":null,"ZIP_4":"20003-2834","GRANT_CATEGORY":"Art Works","DISCIPLINE":"Theater & Musical Theater","OBJECTID":101,"GRANTEE":"Shakespeare Theatre","PROJECT_DESCRIPTION":"To support the Henry IV Repertory, directed by Artistic Director Michael Kahn.","GRANT":20000},"geometry":{"type":"Point","coordinates":[-76.9946107399779,38.882098641559516]}},{"type":"Feature","properties":{"FISCAL_YEAR":2014,"ADDRESS":"641 D STREET NW","ADDRESS2":null,"ZIP_4":"20004-2904","GRANT_CATEGORY":"Art Works","DISCIPLINE":"Theater & Musical Theater","OBJECTID":107,"GRANTEE":"National New Play Network, Ltd.","PROJECT_DESCRIPTION":"To support the Continued Life of New Plays Fund, a program that launches sequential premiere productions of new plays at theaters throughout the country.","GRANT":40000},"geometry":{"type":"Point","coordinates":[-77.0214487530495,38.894987695957774]}},{"type":"Feature","properties":{"FISCAL_YEAR":2014,"ADDRESS":"641 D STREET NW","ADDRESS2":null,"ZIP_4":"20004-2904","GRANT_CATEGORY":"Art Works","DISCIPLINE":"Theater & Musical Theater","OBJECTID":108,"GRANTEE":"Woolly Mammoth Theatre Company","PROJECT_DESCRIPTION":"To support a production of Jackie Sibblies Drury's \"We are Proud to Present a Presentation about the Herero of Namibia, Formerly Known as Southwest Africa, from the German Sudwestafrika, Between the Years 1884-1915,\" directed by Michael John Garces.","GRANT":60000},"geometry":{"type":"Point","coordinates":[-77.0214487530495,38.894987695957774]}}]}