{"type":"FeatureCollection","features":[{"type":"Feature","properties":{"OBJECTID":578,"FISCAL_YEAR":2015,"APPLICANT":"Robert Verdile","ORGANIZATION":"Thomas Circle Singers","ADDRESS":"5 THOMAS CIRCLE NW","ADDRESS2":"#24","ZIP_4":"20005","GRANT_CATEGORY":"City Arts Projects","DISCIPLINE":"Choral Music","GRANT_":1500,"URL":"http://thomascirclesingers.org","WARD":2},"geometry":{"type":"Point","coordinates":[-77.03260282555516,38.90647888132085]}},{"type":"Feature","properties":{"OBJECTID":599,"FISCAL_YEAR":2015,"APPLICANT":"Ellyn Weiss","ORGANIZATION":"Touchstone Foundation for the Arts","ADDRESS":"901 NEW YORK AVENUE NW","ADDRESS2":null,"ZIP_4":"20001","GRANT_CATEGORY":"City Arts Projects","DISCIPLINE":"Visual Arts","GRANT_":2788,"URL":"http://touchstonefoundationdc.org","WARD":2},"geometry":{"type":"Point","coordinates":[-77.02526668869662,38.90202336485067]}},{"type":"Feature","properties":{"OBJECTID":607,"FISCAL_YEAR":2015,"APPLICANT":"Jessie Brinkley","ORGANIZATION":"Environmental Film Festival in the Nation's Capital","ADDRESS":"1228 1/2 31ST STREET NW","ADDRESS2":null,"ZIP_4":"20007","GRANT_CATEGORY":"City Arts Projects","DISCIPLINE":"Film","GRANT_":25000,"URL":"http://dceff.org","WARD":2},"geometry":{"type":"Point","coordinates":[-77.06181165492,38.90575731083495]}},{"type":"Feature","properties":{"OBJECTID":611,"FISCAL_YEAR":2015,"APPLICANT":"Charles Rohlfs","ORGANIZATION":"Opera Lafayette","ADDRESS":"10 4TH STREET NE","ADDRESS2":null,"ZIP_4":"20002","GRANT_CATEGORY":"City Arts Projects","DISCIPLINE":"Opera","GRANT_":25000,"URL":"http://operalafayette.org","WARD":6},"geometry":{"type":"Point","coordinates":[-77.0007789527969,38.890291526555465]}},{"type":"Feature","properties":{"OBJECTID":652,"FISCAL_YEAR":2015,"APPLICANT":"Sue Bell","ORGANIZATION":"Miriam's Kitchen","ADDRESS":"2401 VIRGINIA AVENUE NW","ADDRESS2":null,"ZIP_4":"20037","GRANT_CATEGORY":"City Arts Projects","DISCIPLINE":"Multi-Disciplinary","GRANT_":18000,"URL":"http://miriamskitchen.org","WARD":2},"geometry":{"type":"Point","coordinates":[-77.05196328779058,38.89853884429101]}},{"type":"Feature","properties":{"OBJECTID":654,"FISCAL_YEAR":2015,"APPLICANT":"S. Robert Morgan","ORGANIZATION":"THE ESSENTIAL THEATRE","ADDRESS":"1112 11TH STREET NW","ADDRESS2":"#100","ZIP_4":"20001-4301","GRANT_CATEGORY":"City Arts Projects","DISCIPLINE":"Theatre","GRANT_":10648,"URL":"http://theessentialtheatre.org","WARD":2},"geometry":{"type":"Point","coordinates":[-77.02734165718002,38.90486953784331]}},{"type":"Feature","properties":{"OBJECTID":667,"FISCAL_YEAR":2015,"APPLICANT":"Diana Ingraham","ORGANIZATION":"Old Naval Hospital Foundation","ADDRESS":"921 PENNSYLVANIA AVENUE SE","ADDRESS2":null,"ZIP_4":"20003","GRANT_CATEGORY":"City Arts Projects","DISCIPLINE":"Multi-Disciplinary","GRANT_":12000,"URL":"http://HillCenterDC.org","WARD":6},"geometry":{"type":"Point","coordinates":[-76.99314290714912,38.8829885933721]}},{"type":"Feature","properties":{"OBJECTID":696,"FISCAL_YEAR":2015,"APPLICANT":"Caitlin Wood","ORGANIZATION":"CAPITAL FRINGE INC","ADDRESS":"607 NEW YORK AVENUE NW","ADDRESS2":null,"ZIP_4":"20001","GRANT_CATEGORY":"City Arts Projects","DISCIPLINE":"Multi-Disciplinary","GRANT_":16000,"URL":"http://capitalfringe.org","WARD":6},"geometry":{"type":"Point","coordinates":[-77.02034555868845,38.90377627064401]}},{"type":"Feature","properties":{"OBJECTID":709,"FISCAL_YEAR":2015,"APPLICANT":"Giovanni Russonello","ORGANIZATION":"CapitalBop, Inc.","ADDRESS":"2029 CONNECTICUT AVENUE NW","ADDRESS2":"#55","ZIP_4":"20008","GRANT_CATEGORY":"City Arts Projects","DISCIPLINE":"Jazz Music","GRANT_":6000,"URL":"http://capitalbop.com","WARD":1},"geometry":{"type":"Point","coordinates":[-77.04676977014921,38.91761810835944]}},{"type":"Feature","properties":{"OBJECTID":728,"FISCAL_YEAR":2015,"APPLICANT":"Sean Casey","ORGANIZATION":"WASHINGTON MASTER CHORALE INC","ADDRESS":"721 8TH STREET SE","ADDRESS2":null,"ZIP_4":"20003","GRANT_CATEGORY":"City Arts Projects","DISCIPLINE":"Choral Music","GRANT_":10000,"URL":"http://washingtonmasterchorale.org","WARD":6},"geometry":{"type":"Point","coordinates":[-76.99533163477003,38.88053364499682]}},{"type":"Feature","properties":{"OBJECTID":760,"FISCAL_YEAR":2015,"APPLICANT":"Patsy Jones","ORGANIZATION":"American Turkish Association of Washington DC (ATA-DC","ADDRESS":"1526 18TH STREET NW","ADDRESS2":null,"ZIP_4":"20036","GRANT_CATEGORY":"City Arts Projects","DISCIPLINE":"Multi-Disciplinary","GRANT_":15000,"URL":"http://atadc.org","WARD":2},"geometry":{"type":"Point","coordinates":[-77.041885729629,38.9104369824516]}},{"type":"Feature","properties":{"OBJECTID":761,"FISCAL_YEAR":2015,"APPLICANT":"Linda Levy","ORGANIZATION":"theatreWashington","ADDRESS":"1825 CONNECTICUT AVENUE NW","ADDRESS2":null,"ZIP_4":"20009","GRANT_CATEGORY":"City Arts Projects","DISCIPLINE":"Theatre","GRANT_":18500,"URL":"http://theatrewashington.org","WARD":1},"geometry":{"type":"Point","coordinates":[-77.04572321935804,38.915110872450406]}},{"type":"Feature","properties":{"OBJECTID":813,"FISCAL_YEAR":2015,"APPLICANT":"Brant Miller","ORGANIZATION":"The DC Center for the LGBT Community","ADDRESS":"2000 14TH STREET NW","ADDRESS2":"#105","ZIP_4":"20009","GRANT_CATEGORY":"City Arts Projects","DISCIPLINE":"Literature","GRANT_":2250,"URL":"http://thedccenter.org","WARD":1},"geometry":{"type":"Point","coordinates":[-77.03240581877091,38.917451816558355]}},{"type":"Feature","properties":{"OBJECTID":851,"FISCAL_YEAR":2015,"APPLICANT":"Janey Moskowitz","ORGANIZATION":"Washington Bach Consort","ADDRESS":"1010 VERMONT AVENUE NW","ADDRESS2":"#202","ZIP_4":"20005","GRANT_CATEGORY":"City Arts Projects","DISCIPLINE":"Music","GRANT_":22000,"URL":"http://bachconsort.org","WARD":2},"geometry":{"type":"Point","coordinates":[-77.03381963718607,38.90308283668486]}},{"type":"Feature","properties":{"OBJECTID":854,"FISCAL_YEAR":2015,"APPLICANT":"Merin Guthrie","ORGANIZATION":"FotoDC, Inc.","ADDRESS":"1050 17TH STREET NW","ADDRESS2":"#560","ZIP_4":"20036","GRANT_CATEGORY":"City Arts Projects","DISCIPLINE":"Photography: Including Holography","GRANT_":20000,"URL":"http://fotoweekdc.org","WARD":2},"geometry":{"type":"Point","coordinates":[-77.03882865418936,38.90337071768143]}},{"type":"Feature","properties":{"OBJECTID":866,"FISCAL_YEAR":2015,"APPLICANT":"Ali Rahmaan","ORGANIZATION":"KanKouran West African Dance Company","ADDRESS":"118 U STREET NW","ADDRESS2":null,"ZIP_4":"20001","GRANT_CATEGORY":"City Arts Projects","DISCIPLINE":"Dance","GRANT_":17500,"URL":"http://kankouran.org","WARD":5},"geometry":{"type":"Point","coordinates":[-77.01292254835863,38.91679591560124]}},{"type":"Feature","properties":{"OBJECTID":872,"FISCAL_YEAR":2015,"APPLICANT":"Colin Hovde","ORGANIZATION":"Theater Alliance Of Washington DC","ADDRESS":"1231-B GOOD HOPE ROAD SE","ADDRESS2":null,"ZIP_4":null,"GRANT_CATEGORY":"City Arts Projects","DISCIPLINE":"Theatre","GRANT_":21000,"URL":"http://theateralliance.com","WARD":8},"geometry":{"type":"Point","coordinates":[-76.98769090730744,38.86696625656349]}},{"type":"Feature","properties":{"OBJECTID":873,"FISCAL_YEAR":2015,"APPLICANT":"Jessie Brinkley","ORGANIZATION":"Environmental Film Festival in the Nation's Capital","ADDRESS":"1228 1/2 31ST STREET NW","ADDRESS2":null,"ZIP_4":"20007","GRANT_CATEGORY":"City Arts Projects","DISCIPLINE":"Film","GRANT_":25000,"URL":"http://dceff.org","WARD":2},"geometry":{"type":"Point","coordinates":[-77.06181165492,38.90575731083495]}},{"type":"Feature","properties":{"OBJECTID":877,"FISCAL_YEAR":2015,"APPLICANT":"Maureen Dunn","ORGANIZATION":"Pan American Symphony Orchestra","ADDRESS":"125 MICHIGAN AVENUE NE","ADDRESS2":null,"ZIP_4":"20017","GRANT_CATEGORY":"City Arts Projects","DISCIPLINE":"Orchestral: Includes Symphonic and Orchestral","GRANT_":14000,"URL":"http://panamsymphony.org","WARD":5},"geometry":{"type":"Point","coordinates":[-77.00428505174506,38.92748609911511]}},{"type":"Feature","properties":{"OBJECTID":882,"FISCAL_YEAR":2015,"APPLICANT":"Molly Hubbs","ORGANIZATION":"DC Film Alliance","ADDRESS":"1317 F STREET NW","ADDRESS2":"#920","ZIP_4":"20004","GRANT_CATEGORY":"City Arts Projects","DISCIPLINE":"Media Arts","GRANT_":28000,"URL":"http://dcshorts.com","WARD":2},"geometry":{"type":"Point","coordinates":[-77.03040504101101,38.89762272717034]}},{"type":"Feature","properties":{"OBJECTID":885,"FISCAL_YEAR":2015,"APPLICANT":"Joanne Coutts","ORGANIZATION":"Step Afrika! U.S.A. Incorporated","ADDRESS":"1333 H STREET NE","ADDRESS2":null,"ZIP_4":"20002","GRANT_CATEGORY":"City Arts Projects","DISCIPLINE":"Dance","GRANT_":38500,"URL":"http://stepafrika.org","WARD":6},"geometry":{"type":"Point","coordinates":[-76.98721924204297,38.899980321081834]}},{"type":"Feature","properties":{"OBJECTID":886,"FISCAL_YEAR":2015,"APPLICANT":"Atlas Performing Arts Center","ORGANIZATION":"Atlas Performing Arts Center","ADDRESS":"1333 H STREET NE","ADDRESS2":null,"ZIP_4":"20002","GRANT_CATEGORY":"City Arts Projects","DISCIPLINE":"Multi-Disciplinary","GRANT_":25000,"URL":"http://atlasarts.org","WARD":6},"geometry":{"type":"Point","coordinates":[-76.98721924204297,38.899980321081834]}},{"type":"Feature","properties":{"OBJECTID":887,"FISCAL_YEAR":2015,"APPLICANT":"Christopher Bulbulia","ORGANIZATION":"Congressional Chorus","ADDRESS":"1333 H STREET NE","ADDRESS2":null,"ZIP_4":"20002-4446","GRANT_CATEGORY":"City Arts Projects","DISCIPLINE":"Music","GRANT_":15000,"URL":"http://congressionalchorus.org","WARD":6},"geometry":{"type":"Point","coordinates":[-76.98721924204297,38.899980321081834]}},{"type":"Feature","properties":{"OBJECTID":888,"FISCAL_YEAR":2015,"APPLICANT":"Richard Strange","ORGANIZATION":"Capital City Symphony c/o Atlas Performing Arts Center","ADDRESS":"1333 H STREET NE","ADDRESS2":null,"ZIP_4":"20002-4446","GRANT_CATEGORY":"City Arts Projects","DISCIPLINE":"Orchestral: Includes Symphonic and Orchestral","GRANT_":18000,"URL":"http://capitalcitysymphony.org","WARD":6},"geometry":{"type":"Point","coordinates":[-76.98721924204297,38.899980321081834]}},{"type":"Feature","properties":{"OBJECTID":899,"FISCAL_YEAR":2015,"APPLICANT":"Stephanie Richards","ORGANIZATION":"The Studio Theatre","ADDRESS":"1501 14TH STREET NW","ADDRESS2":null,"ZIP_4":"20005-3706","GRANT_CATEGORY":"City Arts Projects","DISCIPLINE":"Theatre","GRANT_":30000,"URL":"http://studiotheatre.org","WARD":2},"geometry":{"type":"Point","coordinates":[-77.03166269750027,38.910039148713246]}},{"type":"Feature","properties":{"OBJECTID":901,"FISCAL_YEAR":2015,"APPLICANT":"Amy Saidman","ORGANIZATION":"Washington Storytellers Theatre","ADDRESS":"1525 NEWTON STREET NW","ADDRESS2":null,"ZIP_4":"20010","GRANT_CATEGORY":"City Arts Projects","DISCIPLINE":"Oral Traditions","GRANT_":24000,"URL":"http://speakeasydc.org","WARD":1},"geometry":{"type":"Point","coordinates":[-77.03575012673143,38.93348727045944]}},{"type":"Feature","properties":{"OBJECTID":920,"FISCAL_YEAR":2015,"APPLICANT":"Allison Stockman","ORGANIZATION":"Constellation Theatre Company","ADDRESS":"1835 14TH STREET NW","ADDRESS2":null,"ZIP_4":"20009","GRANT_CATEGORY":"City Arts Projects","DISCIPLINE":"Theatre","GRANT_":20000,"URL":"http://constellationtheatre.org/index.html","WARD":1},"geometry":{"type":"Point","coordinates":[-77.03158602013413,38.91521067743368]}},{"type":"Feature","properties":{"OBJECTID":921,"FISCAL_YEAR":2015,"APPLICANT":"Andruski","ORGANIZATION":"The In Series, Inc.","ADDRESS":"1835 14TH STREET NW","ADDRESS2":null,"ZIP_4":"20009","GRANT_CATEGORY":"City Arts Projects","DISCIPLINE":"Opera/Musical Theatre","GRANT_":17500,"URL":"http://inseries.org","WARD":1},"geometry":{"type":"Point","coordinates":[-77.03158602013413,38.91521067743368]}},{"type":"Feature","properties":{"OBJECTID":927,"FISCAL_YEAR":2015,"APPLICANT":"Anthony Gittens","ORGANIZATION":"Washington DC International Film Festival","ADDRESS":"1838 ONTARIO PLACE NW","ADDRESS2":null,"ZIP_4":"20009","GRANT_CATEGORY":"City Arts Projects","DISCIPLINE":"Film","GRANT_":20000,"URL":"http://filmfestdc.org","WARD":1},"geometry":{"type":"Point","coordinates":[-77.04299034356764,38.924867749497054]}},{"type":"Feature","properties":{"OBJECTID":946,"FISCAL_YEAR":2015,"APPLICANT":"Arts Enables","ORGANIZATION":"Arts Enables","ADDRESS":"2204 RHODE ISLAND AVENUE NE","ADDRESS2":null,"ZIP_4":"20018-2827","GRANT_CATEGORY":"City Arts Projects","DISCIPLINE":"Visual Arts","GRANT_":7000,"URL":"http://art-enables.org","WARD":5},"geometry":{"type":"Point","coordinates":[-76.9738345444896,38.930483197482154]}},{"type":"Feature","properties":{"OBJECTID":949,"FISCAL_YEAR":2015,"APPLICANT":"Eliza Ward","ORGANIZATION":"The Textile Museum","ADDRESS":"2320 S STREET NW","ADDRESS2":null,"ZIP_4":"20008-4088","GRANT_CATEGORY":"City Arts Projects","DISCIPLINE":"Visual Arts","GRANT_":11400,"URL":"http://textilemuseum.org","WARD":2},"geometry":{"type":"Point","coordinates":[-77.0510982814856,38.913899636411784]}},{"type":"Feature","properties":{"OBJECTID":963,"FISCAL_YEAR":2015,"APPLICANT":"Sunny Sumter","ORGANIZATION":"DC Jazz Festival","ADDRESS":"2550 M STREET NW","ADDRESS2":"9th Floor","ZIP_4":"20037","GRANT_CATEGORY":"City Arts Projects","DISCIPLINE":"Jazz Music","GRANT_":32000,"URL":"http://dcjazzfest.org","WARD":2},"geometry":{"type":"Point","coordinates":[-77.05421026558022,38.90497753870528]}},{"type":"Feature","properties":{"OBJECTID":976,"FISCAL_YEAR":2015,"APPLICANT":"Grossman","ORGANIZATION":"Dog and Pony DC, Inc.","ADDRESS":"32 SHERMAN CIRCLE NW","ADDRESS2":null,"ZIP_4":"20011","GRANT_CATEGORY":"City Arts Projects","DISCIPLINE":"Theatre","GRANT_":12600,"URL":"http://dogandponydc.com","WARD":4},"geometry":{"type":"Point","coordinates":[-77.02276283584379,38.947623902490285]}},{"type":"Feature","properties":{"OBJECTID":979,"FISCAL_YEAR":2015,"APPLICANT":"Carla Perlo","ORGANIZATION":"DC Wheel Productions, Inc.","ADDRESS":"3225 8TH STREET NE","ADDRESS2":null,"ZIP_4":"20017","GRANT_CATEGORY":"City Arts Projects","DISCIPLINE":"Dance","GRANT_":37500,"URL":"http://danceplace.org","WARD":5},"geometry":{"type":"Point","coordinates":[-76.99456488255515,38.9303601535627]}},{"type":"Feature","properties":{"OBJECTID":998,"FISCAL_YEAR":2015,"APPLICANT":"Susan Messina","ORGANIZATION":"Iona Senior Services","ADDRESS":"4125 ALBEMARLE STREET NW","ADDRESS2":null,"ZIP_4":"20016","GRANT_CATEGORY":"City Arts Projects","DISCIPLINE":"Multi-Disciplinary","GRANT_":9800,"URL":"http://iona.org","WARD":3},"geometry":{"type":"Point","coordinates":[-77.08165862511485,38.94818457739296]}},{"type":"Feature","properties":{"OBJECTID":1011,"FISCAL_YEAR":2015,"APPLICANT":"Catherine Lundblad","ORGANIZATION":"Abraham Laura Lisner Home for Aged Women","ADDRESS":"5425 WESTERN AVENUE NW","ADDRESS2":null,"ZIP_4":"20015","GRANT_CATEGORY":"City Arts Projects","DISCIPLINE":"Visual Arts","GRANT_":4647,"URL":"http://lldhhome.org","WARD":3},"geometry":{"type":"Point","coordinates":[-77.08321223825736,38.9619733430468]}},{"type":"Feature","properties":{"OBJECTID":1025,"FISCAL_YEAR":2015,"APPLICANT":"Sabrina Thornton","ORGANIZATION":"Woolly Mammoth Theatre Company","ADDRESS":"641 D STREET NW","ADDRESS2":null,"ZIP_4":"20004","GRANT_CATEGORY":"City Arts Projects","DISCIPLINE":"Theatre","GRANT_":18000,"URL":"http://woollymammoth.net","WARD":2},"geometry":{"type":"Point","coordinates":[-77.0214487530495,38.894987695957774]}},{"type":"Feature","properties":{"OBJECTID":1026,"FISCAL_YEAR":2015,"APPLICANT":"Anne McCaw","ORGANIZATION":"The Inkwell c/o Woolly Mammoth Theatre","ADDRESS":"641 D STREET NW","ADDRESS2":null,"ZIP_4":"20003-2456","GRANT_CATEGORY":"City Arts Projects","DISCIPLINE":"Theatre","GRANT_":4000,"URL":"http://inkwelltheatre.org","WARD":2},"geometry":{"type":"Point","coordinates":[-77.0214487530495,38.894987695957774]}},{"type":"Feature","properties":{"OBJECTID":1028,"FISCAL_YEAR":2015,"APPLICANT":"Laura Apelbaum","ORGANIZATION":"Jewish Historical Society of Greater Washington","ADDRESS":"701 4TH STREET NW","ADDRESS2":"#200","ZIP_4":"20001","GRANT_CATEGORY":"City Arts Projects","DISCIPLINE":"Ethnic Music","GRANT_":1140,"URL":"http://jhsgw.org","WARD":2},"geometry":{"type":"Point","coordinates":[-77.01596468225681,38.89847382086905]}},{"type":"Feature","properties":{"OBJECTID":1034,"FISCAL_YEAR":2015,"APPLICANT":"Kate Conrad","ORGANIZATION":"International Arts and Artist","ADDRESS":"9 HILLYER COURT NW","ADDRESS2":null,"ZIP_4":"20008","GRANT_CATEGORY":"City Arts Projects","DISCIPLINE":"Visual Arts","GRANT_":22000,"URL":"http://artsandartists.org","WARD":2},"geometry":{"type":"Point","coordinates":[-77.04730884101534,38.91222144699389]}},{"type":"Feature","properties":{"OBJECTID":1038,"FISCAL_YEAR":2015,"APPLICANT":"Solas Nua Solas Nua","ORGANIZATION":"Solas Nua","ADDRESS":"916 G STREET NW","ADDRESS2":null,"ZIP_4":"20001","GRANT_CATEGORY":"City Arts Projects","DISCIPLINE":"Multi-Disciplinary","GRANT_":6500,"URL":"http://solasnua.org","WARD":2},"geometry":{"type":"Point","coordinates":[-77.02491210452543,38.89812444241147]}}]}