{"type":"FeatureCollection","features":[{"type":"Feature","properties":{"OBJECTID":604,"FISCAL_YEAR":2015,"APPLICANT":"Maru Montero","ORGANIZATION":"Maru Montero Dance Company","ADDRESS":"4312 ELLICOTT STREET NW","ADDRESS2":null,"ZIP_4":"20016","GRANT_CATEGORY":"Grants in Aid","DISCIPLINE":"Dance","GRANT_":15000,"URL":"http://marumontero.com","WARD":3},"geometry":{"type":"Point","coordinates":[-77.0843978236443,38.9531247538582]}},{"type":"Feature","properties":{"OBJECTID":605,"FISCAL_YEAR":2015,"APPLICANT":"Melissa Houghton","ORGANIZATION":"Women in Film & Video","ADDRESS":"3628 12TH STREET NE","ADDRESS2":null,"ZIP_4":"20017","GRANT_CATEGORY":"Grants in Aid","DISCIPLINE":"Media Arts","GRANT_":20000,"URL":"http://wifv.org","WARD":5},"geometry":{"type":"Point","coordinates":[-76.99137088162446,38.934364694259415]}},{"type":"Feature","properties":{"OBJECTID":615,"FISCAL_YEAR":2015,"APPLICANT":"Richard Tappen","ORGANIZATION":"THE WASHINGTON MENS CAMERATA INC","ADDRESS":"1503 S STREET NW","ADDRESS2":null,"ZIP_4":"20009","GRANT_CATEGORY":"Grants in Aid","DISCIPLINE":"Choral Music","GRANT_":15000,"URL":"http://camerata.com","WARD":2},"geometry":{"type":"Point","coordinates":[-77.0348476897016,38.91427666664452]}},{"type":"Feature","properties":{"OBJECTID":665,"FISCAL_YEAR":2015,"APPLICANT":"Executive Director","ORGANIZATION":"Children's Chorus of Washington","ADDRESS":"4626 WISCONSIN AVENUE NW","ADDRESS2":"#100","ZIP_4":"20016","GRANT_CATEGORY":"Grants in Aid","DISCIPLINE":"Choral Music","GRANT_":50000,"URL":"http://childrenschorus.com","WARD":3},"geometry":{"type":"Point","coordinates":[-77.08101566189623,38.95066725651076]}},{"type":"Feature","properties":{"OBJECTID":707,"FISCAL_YEAR":2015,"APPLICANT":"Katherine Makris","ORGANIZATION":"Ford's Theatre Society","ADDRESS":"514 10TH STREET NW","ADDRESS2":null,"ZIP_4":"20004","GRANT_CATEGORY":"Grants in Aid","DISCIPLINE":"Interdisciplinary","GRANT_":65000,"URL":"http://fords.org","WARD":2},"geometry":{"type":"Point","coordinates":[-77.02628569437209,38.896704062761245]}},{"type":"Feature","properties":{"OBJECTID":773,"FISCAL_YEAR":2015,"APPLICANT":"Sara Trautman-Yegenoglu","ORGANIZATION":"ELLINGTON FUND","ADDRESS":"3500 R STREET NW","ADDRESS2":"#100","ZIP_4":"20007-2326","GRANT_CATEGORY":"Grants in Aid","DISCIPLINE":"Multi-Disciplinary","GRANT_":70000,"URL":"http://ellingtonarts.org/ellington-fund/","WARD":2},"geometry":{"type":"Point","coordinates":[-77.0703098685473,38.91345383178779]}},{"type":"Feature","properties":{"OBJECTID":793,"FISCAL_YEAR":2015,"APPLICANT":"John Davison","ORGANIZATION":"President Lincoln's Cottage","ADDRESS":"3700 NORTH CAPITOL STREET NW","ADDRESS2":"AFRH-W Box 558","ZIP_4":"20011","GRANT_CATEGORY":"Grants in Aid","DISCIPLINE":"Humanities","GRANT_":50000,"URL":"http://lincolncottage.org","WARD":5},"geometry":{"type":"Point","coordinates":[-77.00695630778053,38.93655562440845]}},{"type":"Feature","properties":{"OBJECTID":850,"FISCAL_YEAR":2015,"APPLICANT":null,"ORGANIZATION":"Washington Project for the Arts, Inc.","ADDRESS":"10 I STREET SW","ADDRESS2":null,"ZIP_4":"20024-4266","GRANT_CATEGORY":"Grants in Aid","DISCIPLINE":"Visual Arts","GRANT_":50000,"URL":"http://wpadc.org","WARD":6},"geometry":{"type":"Point","coordinates":[-77.00973244693998,38.879032804610326]}},{"type":"Feature","properties":{"OBJECTID":852,"FISCAL_YEAR":2015,"APPLICANT":"Janey Moskowitz","ORGANIZATION":"Washington Bach Consort","ADDRESS":"1010 VERMONT AVENUE NW","ADDRESS2":"#202","ZIP_4":"20005","GRANT_CATEGORY":"Grants in Aid","DISCIPLINE":"Music","GRANT_":35000,"URL":"http://bachconsort.org","WARD":2},"geometry":{"type":"Point","coordinates":[-77.03381963718607,38.90308283668486]}},{"type":"Feature","properties":{"OBJECTID":855,"FISCAL_YEAR":2015,"APPLICANT":"Merin Guthrie","ORGANIZATION":"FotoDC, Inc.","ADDRESS":"1050 17TH STREET NW","ADDRESS2":"#560","ZIP_4":"20036","GRANT_CATEGORY":"Grants in Aid","DISCIPLINE":"Photography: Including Holography","GRANT_":35000,"URL":"http://fotoweekdc.org","WARD":2},"geometry":{"type":"Point","coordinates":[-77.03882865418936,38.90337071768143]}},{"type":"Feature","properties":{"OBJECTID":856,"FISCAL_YEAR":2015,"APPLICANT":"Julia Suszynski","ORGANIZATION":"Washington Drama Society, Inc.","ADDRESS":"1101 6TH STREET SW","ADDRESS2":null,"ZIP_4":"20024","GRANT_CATEGORY":"Grants in Aid","DISCIPLINE":"Theatre","GRANT_":70000,"URL":"http://arenastage.org","WARD":6},"geometry":{"type":"Point","coordinates":[-77.02036042050828,38.87712561908211]}},{"type":"Feature","properties":{"OBJECTID":860,"FISCAL_YEAR":2015,"APPLICANT":"Dannie Greenberg","ORGANIZATION":"CityDance","ADDRESS":"1111 16TH STREET NW","ADDRESS2":"#300","ZIP_4":"20036","GRANT_CATEGORY":"Grants in Aid","DISCIPLINE":"Dance","GRANT_":65000,"URL":"http://citydance.net","WARD":2},"geometry":{"type":"Point","coordinates":[-77.03617821755088,38.904071067309026]}},{"type":"Feature","properties":{"OBJECTID":863,"FISCAL_YEAR":2015,"APPLICANT":"Sarah Browning","ORGANIZATION":"Split this Rock, Inc.","ADDRESS":"1112 16TH STREET NW","ADDRESS2":"#600","ZIP_4":"20036","GRANT_CATEGORY":"Grants in Aid","DISCIPLINE":"Poetry","GRANT_":50000,"URL":"http://splitthisrock.org","WARD":2},"geometry":{"type":"Point","coordinates":[-77.03696030749322,38.9042627004388]}},{"type":"Feature","properties":{"OBJECTID":867,"FISCAL_YEAR":2015,"APPLICANT":"Ali Rahmaan","ORGANIZATION":"KanKouran West African Dance Company","ADDRESS":"118 U STREET NW","ADDRESS2":null,"ZIP_4":"20001","GRANT_CATEGORY":"Grants in Aid","DISCIPLINE":"Dance","GRANT_":20000,"URL":"http://kankouran.org","WARD":5},"geometry":{"type":"Point","coordinates":[-77.01292254835863,38.91679591560124]}},{"type":"Feature","properties":{"OBJECTID":870,"FISCAL_YEAR":2015,"APPLICANT":"Duane Gautier","ORGANIZATION":"Arch Development Corporation","ADDRESS":"1227 GOOD HOPE ROAD SE","ADDRESS2":null,"ZIP_4":"20020","GRANT_CATEGORY":"Grants in Aid","DISCIPLINE":"Multi-Disciplinary","GRANT_":45000,"URL":"http://honfleurgallery.com","WARD":8},"geometry":{"type":"Point","coordinates":[-76.98777328894488,38.8670059923147]}},{"type":"Feature","properties":{"OBJECTID":871,"FISCAL_YEAR":2015,"APPLICANT":"Jessie Brinkley","ORGANIZATION":"Environmental Film Festival in the Nation's Capital","ADDRESS":"1228 1/2 31ST STREET NW","ADDRESS2":null,"ZIP_4":"20007","GRANT_CATEGORY":"Grants in Aid","DISCIPLINE":"Film","GRANT_":35000,"URL":"http://dceff.org","WARD":2},"geometry":{"type":"Point","coordinates":[-77.06181165492,38.90575731083495]}},{"type":"Feature","properties":{"OBJECTID":874,"FISCAL_YEAR":2015,"APPLICANT":"Jessie Brinkley","ORGANIZATION":"Environmental Film Festival in the Nation's Capital","ADDRESS":"1228 1/2 31ST STREET NW","ADDRESS2":null,"ZIP_4":"20007","GRANT_CATEGORY":"Grants in Aid","DISCIPLINE":"Film","GRANT_":35000,"URL":"http://dceff.org","WARD":2},"geometry":{"type":"Point","coordinates":[-77.06181165492,38.90575731083495]}},{"type":"Feature","properties":{"OBJECTID":876,"FISCAL_YEAR":2015,"APPLICANT":"Colin Hovde","ORGANIZATION":"Theater Alliance Of Washington DC","ADDRESS":"1231-B GOOD HOPE ROAD SE","ADDRESS2":null,"ZIP_4":null,"GRANT_CATEGORY":"Grants in Aid","DISCIPLINE":"Theatre","GRANT_":19000,"URL":"http://theateralliance.com","WARD":8},"geometry":{"type":"Point","coordinates":[-76.98769090730744,38.86696625656349]}},{"type":"Feature","properties":{"OBJECTID":878,"FISCAL_YEAR":2015,"APPLICANT":"Maureen Dunn","ORGANIZATION":"Pan American Symphony Orchestra","ADDRESS":"125 MICHIGAN AVENUE NE","ADDRESS2":null,"ZIP_4":"20017","GRANT_CATEGORY":"Grants in Aid","DISCIPLINE":"Orchestral: Includes Symphonic and Orchestral","GRANT_":18000,"URL":"http://panamsymphony.org","WARD":5},"geometry":{"type":"Point","coordinates":[-77.00428505174506,38.92748609911511]}},{"type":"Feature","properties":{"OBJECTID":881,"FISCAL_YEAR":2015,"APPLICANT":"Ellen Pollak","ORGANIZATION":"National Museum of Women in the Arts","ADDRESS":"1250 NEW YORK AVENUE NW","ADDRESS2":null,"ZIP_4":"20005","GRANT_CATEGORY":"Grants in Aid","DISCIPLINE":"Visual Arts","GRANT_":45000,"URL":"http://nmwa.org","WARD":2},"geometry":{"type":"Point","coordinates":[-77.029163689541,38.90005647268176]}},{"type":"Feature","properties":{"OBJECTID":883,"FISCAL_YEAR":2015,"APPLICANT":"Molly Hubbs","ORGANIZATION":"DC Film Alliance","ADDRESS":"1317 F STREET NW","ADDRESS2":"#920","ZIP_4":"20004","GRANT_CATEGORY":"Grants in Aid","DISCIPLINE":"Media Arts","GRANT_":15000,"URL":"http://dcshorts.com","WARD":2},"geometry":{"type":"Point","coordinates":[-77.03040504101101,38.89762272717034]}},{"type":"Feature","properties":{"OBJECTID":891,"FISCAL_YEAR":2015,"APPLICANT":"Joanne Coutts","ORGANIZATION":"Step Afrika! U.S.A. Incorporated","ADDRESS":"1333 H STREET NE","ADDRESS2":null,"ZIP_4":"20002","GRANT_CATEGORY":"Grants in Aid","DISCIPLINE":"Dance","GRANT_":65000,"URL":"http://stepafrika.org","WARD":6},"geometry":{"type":"Point","coordinates":[-76.98721924204297,38.899980321081834]}},{"type":"Feature","properties":{"OBJECTID":892,"FISCAL_YEAR":2015,"APPLICANT":"Atlas Performing Arts Center","ORGANIZATION":"Atlas Performing Arts Center","ADDRESS":"1333 H STREET NE","ADDRESS2":null,"ZIP_4":"20002","GRANT_CATEGORY":"Grants in Aid","DISCIPLINE":"Multi-Disciplinary","GRANT_":45000,"URL":"http://atlasarts.org","WARD":6},"geometry":{"type":"Point","coordinates":[-76.98721924204297,38.899980321081834]}},{"type":"Feature","properties":{"OBJECTID":893,"FISCAL_YEAR":2015,"APPLICANT":"Julia Cain","ORGANIZATION":"Joy of Motion Dance Center","ADDRESS":"1333 H STREET NE","ADDRESS2":null,"ZIP_4":"20002","GRANT_CATEGORY":"Grants in Aid","DISCIPLINE":"Dance","GRANT_":70000,"URL":"http://joyofmotion.org","WARD":6},"geometry":{"type":"Point","coordinates":[-76.98721924204297,38.899980321081834]}},{"type":"Feature","properties":{"OBJECTID":894,"FISCAL_YEAR":2015,"APPLICANT":"Christopher Bulbulia","ORGANIZATION":"Congressional Chorus","ADDRESS":"1333 H STREET NE","ADDRESS2":null,"ZIP_4":"20002-4446","GRANT_CATEGORY":"Grants in Aid","DISCIPLINE":"Music","GRANT_":50000,"URL":"http://congressionalchorus.org","WARD":6},"geometry":{"type":"Point","coordinates":[-76.98721924204297,38.899980321081834]}},{"type":"Feature","properties":{"OBJECTID":895,"FISCAL_YEAR":2015,"APPLICANT":"Richard Strange","ORGANIZATION":"Capital City Symphony c/o Atlas Performing Arts Center","ADDRESS":"1333 H STREET NE","ADDRESS2":null,"ZIP_4":"20002-4446","GRANT_CATEGORY":"Grants in Aid","DISCIPLINE":"Orchestral: Includes Symphonic and Orchestral","GRANT_":9000,"URL":"http://capitalcitysymphony.org","WARD":6},"geometry":{"type":"Point","coordinates":[-76.98721924204297,38.899980321081834]}},{"type":"Feature","properties":{"OBJECTID":896,"FISCAL_YEAR":2015,"APPLICANT":"Victoria Reis","ORGANIZATION":"Transformer, Inc.","ADDRESS":"1404 P STREET NW","ADDRESS2":null,"ZIP_4":"20005","GRANT_CATEGORY":"Grants in Aid","DISCIPLINE":"Visual Arts","GRANT_":50000,"URL":"http://transformerdc.org/","WARD":2},"geometry":{"type":"Point","coordinates":[-77.03233799891947,38.9095050391436]}},{"type":"Feature","properties":{"OBJECTID":898,"FISCAL_YEAR":2015,"APPLICANT":"Randy Baker","ORGANIZATION":"Rorschach Theatre","ADDRESS":"1421 COLUMBIA ROAD NW","ADDRESS2":"#303","ZIP_4":"20009","GRANT_CATEGORY":"Grants in Aid","DISCIPLINE":"Theatre","GRANT_":11500,"URL":"http://rorschachtheatre.com","WARD":1},"geometry":{"type":"Point","coordinates":[-77.03363446249779,38.92774951478235]}},{"type":"Feature","properties":{"OBJECTID":900,"FISCAL_YEAR":2015,"APPLICANT":"Stephanie Richards","ORGANIZATION":"The Studio Theatre","ADDRESS":"1501 14TH STREET NW","ADDRESS2":null,"ZIP_4":"20005-3706","GRANT_CATEGORY":"Grants in Aid","DISCIPLINE":"Theatre","GRANT_":45000,"URL":"http://studiotheatre.org","WARD":2},"geometry":{"type":"Point","coordinates":[-77.03166269750027,38.910039148713246]}},{"type":"Feature","properties":{"OBJECTID":904,"FISCAL_YEAR":2015,"APPLICANT":"Amy Saidman","ORGANIZATION":"Washington Storytellers Theatre","ADDRESS":"1525 NEWTON STREET NW","ADDRESS2":null,"ZIP_4":"20010","GRANT_CATEGORY":"Grants in Aid","DISCIPLINE":"Oral Traditions","GRANT_":15000,"URL":"http://speakeasydc.org","WARD":1},"geometry":{"type":"Point","coordinates":[-77.03575012673143,38.93348727045944]}},{"type":"Feature","properties":{"OBJECTID":905,"FISCAL_YEAR":2015,"APPLICANT":"Mazi Mutafa","ORGANIZATION":"Words, Beats, & Life, Inc.","ADDRESS":"1525 NEWTON STREET NW","ADDRESS2":null,"ZIP_4":"20010","GRANT_CATEGORY":"Grants in Aid","DISCIPLINE":"Multi-Disciplinary","GRANT_":50000,"URL":"http://wblinc.org","WARD":1},"geometry":{"type":"Point","coordinates":[-77.03575012673143,38.93348727045944]}},{"type":"Feature","properties":{"OBJECTID":910,"FISCAL_YEAR":2015,"APPLICANT":"Christine Hollins","ORGANIZATION":"The Phillips Collection","ADDRESS":"1600 21ST STREET NW","ADDRESS2":null,"ZIP_4":"20009","GRANT_CATEGORY":"Grants in Aid","DISCIPLINE":"Visual Arts","GRANT_":65000,"URL":"http://phillipscollection.org","WARD":2},"geometry":{"type":"Point","coordinates":[-77.04685454590388,38.91150979086159]}},{"type":"Feature","properties":{"OBJECTID":913,"FISCAL_YEAR":2015,"APPLICANT":"Courtney Oliver","ORGANIZATION":"Washington Youth Choir","ADDRESS":"1700 EAST CAPITOL STREET NE","ADDRESS2":null,"ZIP_4":"20003","GRANT_CATEGORY":"Grants in Aid","DISCIPLINE":"Choral Music","GRANT_":23000,"URL":"http://washingtonyouthchoir.org","WARD":6},"geometry":{"type":"Point","coordinates":[-76.97968656417852,38.89041011512715]}},{"type":"Feature","properties":{"OBJECTID":914,"FISCAL_YEAR":2015,"APPLICANT":"Liz Schurgin","ORGANIZATION":"DC Youth Orchestra Program","ADDRESS":"1700 EAST CAPITOL STREET NE","ADDRESS2":null,"ZIP_4":"20003-1622","GRANT_CATEGORY":"Grants in Aid","DISCIPLINE":"Orchestral: Includes Symphonic and Orchestral","GRANT_":50000,"URL":"http://dcyop.org","WARD":6},"geometry":{"type":"Point","coordinates":[-76.97968656417852,38.89041011512715]}},{"type":"Feature","properties":{"OBJECTID":916,"FISCAL_YEAR":2015,"APPLICANT":"Zachary Clark","ORGANIZATION":"Patricia M. Sitar Center for the Arts","ADDRESS":"1700 KALORAMA ROAD NW","ADDRESS2":"#101","ZIP_4":"20009","GRANT_CATEGORY":"Grants in Aid","DISCIPLINE":"Multi-Disciplinary","GRANT_":65000,"URL":"http://sitarartscenter.org","WARD":1},"geometry":{"type":"Point","coordinates":[-77.0391235030823,38.92092355246827]}},{"type":"Feature","properties":{"OBJECTID":918,"FISCAL_YEAR":2015,"APPLICANT":"Leith Mondry","ORGANIZATION":"One World Education","ADDRESS":"1800 KENYON STREET NW","ADDRESS2":null,"ZIP_4":"20010","GRANT_CATEGORY":"Grants in Aid","DISCIPLINE":"Humanities","GRANT_":19000,"URL":"http://www.oneworldeducation.org","WARD":1},"geometry":{"type":"Point","coordinates":[-77.04149235814263,38.929511087133086]}},{"type":"Feature","properties":{"OBJECTID":923,"FISCAL_YEAR":2015,"APPLICANT":"Allison Stockman","ORGANIZATION":"Constellation Theatre Company","ADDRESS":"1835 14TH STREET NW","ADDRESS2":null,"ZIP_4":"20009","GRANT_CATEGORY":"Grants in Aid","DISCIPLINE":"Theatre","GRANT_":50000,"URL":"http://constellationtheatre.org/index.html","WARD":1},"geometry":{"type":"Point","coordinates":[-77.03158602013413,38.91521067743368]}},{"type":"Feature","properties":{"OBJECTID":924,"FISCAL_YEAR":2015,"APPLICANT":"Andruski","ORGANIZATION":"The In Series, Inc.","ADDRESS":"1835 14TH STREET NW","ADDRESS2":null,"ZIP_4":"20009","GRANT_CATEGORY":"Grants in Aid","DISCIPLINE":"Opera/Musical Theatre","GRANT_":35000,"URL":"http://inseries.org","WARD":1},"geometry":{"type":"Point","coordinates":[-77.03158602013413,38.91521067743368]}},{"type":"Feature","properties":{"OBJECTID":930,"FISCAL_YEAR":2015,"APPLICANT":"Janet Stone","ORGANIZATION":"Building Bridges Across the River t/a THEARC","ADDRESS":"1901 MISSISSIPPI AVENUE SE","ADDRESS2":null,"ZIP_4":"20020","GRANT_CATEGORY":"Grants in Aid","DISCIPLINE":"Theatre","GRANT_":45000,"URL":"http://thearcdc.org","WARD":8},"geometry":{"type":"Point","coordinates":[-76.97532414962986,38.843564901387076]}},{"type":"Feature","properties":{"OBJECTID":934,"FISCAL_YEAR":2015,"APPLICANT":"Chase Maggiano","ORGANIZATION":"Federal City Performing Arts Association, Inc.","ADDRESS":"2000 P STREET NW","ADDRESS2":"#730","ZIP_4":"20036","GRANT_CATEGORY":"Grants in Aid","DISCIPLINE":"Music","GRANT_":50000,"URL":"http://GMCW.org","WARD":2},"geometry":{"type":"Point","coordinates":[-77.04514243806005,38.909472507176325]}},{"type":"Feature","properties":{"OBJECTID":938,"FISCAL_YEAR":2015,"APPLICANT":"Emma Snyder","ORGANIZATION":"PEN/Faulkner Foundation","ADDRESS":"201 EAST CAPITOL STREET SE","ADDRESS2":null,"ZIP_4":"20003","GRANT_CATEGORY":"Grants in Aid","DISCIPLINE":"Literature","GRANT_":55000,"URL":"http://penfaulkner.org","WARD":6},"geometry":{"type":"Point","coordinates":[-77.00276978713596,38.88944083528497]}},{"type":"Feature","properties":{"OBJECTID":939,"FISCAL_YEAR":2015,"APPLICANT":"Connie Perez","ORGANIZATION":"Folger Shakespeare Library","ADDRESS":"201 EAST CAPITOL STREET SE","ADDRESS2":null,"ZIP_4":"20003","GRANT_CATEGORY":"Grants in Aid","DISCIPLINE":"Multi-Disciplinary","GRANT_":45000,"URL":"http://folger.edu/","WARD":6},"geometry":{"type":"Point","coordinates":[-77.00276978713596,38.88944083528497]}},{"type":"Feature","properties":{"OBJECTID":941,"FISCAL_YEAR":2015,"APPLICANT":"Adele Robey","ORGANIZATION":"DC Theater Arts Collaborative","ADDRESS":"2020 SHANNON PLACE SE","ADDRESS2":null,"ZIP_4":"20020","GRANT_CATEGORY":"Grants in Aid","DISCIPLINE":"Theatre","GRANT_":17000,"URL":"http://anacostia.com","WARD":8},"geometry":{"type":"Point","coordinates":[-76.98984264027521,38.866478117480064]}},{"type":"Feature","properties":{"OBJECTID":943,"FISCAL_YEAR":2015,"APPLICANT":"Christie Walser","ORGANIZATION":"Project Create","ADDRESS":"2028 MARTIN LUTHER KING JR AVENUE SE","ADDRESS2":"2nd Floor","ZIP_4":"20020","GRANT_CATEGORY":"Grants in Aid","DISCIPLINE":"Multi-Disciplinary","GRANT_":23000,"URL":"http://projectcreatedc.org","WARD":8},"geometry":{"type":"Point","coordinates":[-76.98913743373626,38.86580224284477]}},{"type":"Feature","properties":{"OBJECTID":945,"FISCAL_YEAR":2015,"APPLICANT":"Tara Libert","ORGANIZATION":"Free Minds Book Club & Writing Workshop","ADDRESS":"2201 P STREET NW","ADDRESS2":null,"ZIP_4":"20037","GRANT_CATEGORY":"Grants in Aid","DISCIPLINE":"Literature","GRANT_":55000,"URL":"http://freemindsbookclub.org","WARD":2},"geometry":{"type":"Point","coordinates":[-77.04932233576015,38.9103430053897]}},{"type":"Feature","properties":{"OBJECTID":948,"FISCAL_YEAR":2015,"APPLICANT":"Arts Enables","ORGANIZATION":"Arts Enables","ADDRESS":"2204 RHODE ISLAND AVENUE NE","ADDRESS2":null,"ZIP_4":"20018-2827","GRANT_CATEGORY":"Grants in Aid","DISCIPLINE":"Visual Arts","GRANT_":55000,"URL":"http://art-enables.org","WARD":5},"geometry":{"type":"Point","coordinates":[-76.9738345444896,38.930483197482154]}},{"type":"Feature","properties":{"OBJECTID":950,"FISCAL_YEAR":2015,"APPLICANT":"Eliza Ward","ORGANIZATION":"The Textile Museum","ADDRESS":"2320 S STREET NW","ADDRESS2":null,"ZIP_4":"20008-4088","GRANT_CATEGORY":"Grants in Aid","DISCIPLINE":"Visual Arts","GRANT_":70000,"URL":"http://textilemuseum.org","WARD":2},"geometry":{"type":"Point","coordinates":[-77.0510982814856,38.913899636411784]}},{"type":"Feature","properties":{"OBJECTID":959,"FISCAL_YEAR":2015,"APPLICANT":"Rebecca Medrano","ORGANIZATION":"GALA Inc, Grupo de Artistas Latinoamericanos","ADDRESS":"2437 15TH STREET NW","ADDRESS2":null,"ZIP_4":"20009-9209","GRANT_CATEGORY":"Grants in Aid","DISCIPLINE":"Theatre","GRANT_":65000,"URL":"http://galatheatre.org","WARD":1},"geometry":{"type":"Point","coordinates":[-77.0349227390632,38.92248890886329]}},{"type":"Feature","properties":{"OBJECTID":960,"FISCAL_YEAR":2015,"APPLICANT":"Brigitte Moore","ORGANIZATION":"Young Playwrights' Theatre, Inc.","ADDRESS":"2437 15TH STREET NW","ADDRESS2":null,"ZIP_4":"20009","GRANT_CATEGORY":"Grants in Aid","DISCIPLINE":"Theatre","GRANT_":55000,"URL":"http://yptdc.org","WARD":1},"geometry":{"type":"Point","coordinates":[-77.0349227390632,38.92248890886329]}},{"type":"Feature","properties":{"OBJECTID":961,"FISCAL_YEAR":2015,"APPLICANT":"Nancy Petrisko","ORGANIZATION":"Washington Concert Opera","ADDRESS":"2437 15TH STREET NW","ADDRESS2":null,"ZIP_4":"20009","GRANT_CATEGORY":"Grants in Aid","DISCIPLINE":"Opera","GRANT_":50000,"URL":"http://concertopera.org","WARD":1},"geometry":{"type":"Point","coordinates":[-77.0349227390632,38.92248890886329]}},{"type":"Feature","properties":{"OBJECTID":962,"FISCAL_YEAR":2015,"APPLICANT":"B Stanley","ORGANIZATION":"District of Columbia Arts Center","ADDRESS":"2438 18TH STREET NW","ADDRESS2":null,"ZIP_4":"20009-2004","GRANT_CATEGORY":"Grants in Aid","DISCIPLINE":"Multi-Disciplinary","GRANT_":11500,"URL":"http://dcartscenter.org","WARD":1},"geometry":{"type":"Point","coordinates":[-77.04269630018604,38.921621347762624]}},{"type":"Feature","properties":{"OBJECTID":965,"FISCAL_YEAR":2015,"APPLICANT":"Sunny Sumter","ORGANIZATION":"DC Jazz Festival","ADDRESS":"2550 M STREET NW","ADDRESS2":"9th Floor","ZIP_4":"20037","GRANT_CATEGORY":"Grants in Aid","DISCIPLINE":"Jazz Music","GRANT_":70000,"URL":"http://dcjazzfest.org","WARD":2},"geometry":{"type":"Point","coordinates":[-77.05421026558022,38.90497753870528]}},{"type":"Feature","properties":{"OBJECTID":968,"FISCAL_YEAR":2015,"APPLICANT":"Madeleine Odendahl","ORGANIZATION":"John F. Kennedy Center for the Performing Arts","ADDRESS":"2700 F STREET NW","ADDRESS2":null,"ZIP_4":"20566","GRANT_CATEGORY":"Grants in Aid","DISCIPLINE":"Multi-Disciplinary","GRANT_":70000,"URL":"http://kennedy-center.org/","WARD":2},"geometry":{"type":"Point","coordinates":[-77.0557184462483,38.8959192822561]}},{"type":"Feature","properties":{"OBJECTID":970,"FISCAL_YEAR":2015,"APPLICANT":"Dana Burgess","ORGANIZATION":null,"ADDRESS":"2745 ARIZONA AVENUE NW","ADDRESS2":null,"ZIP_4":"20016","GRANT_CATEGORY":"Grants in Aid","DISCIPLINE":"Dance:Modern","GRANT_":50000,"URL":"http://dtsbco.com","WARD":3},"geometry":{"type":"Point","coordinates":[-77.10496348314386,38.92700375859151]}},{"type":"Feature","properties":{"OBJECTID":973,"FISCAL_YEAR":2015,"APPLICANT":"Briana Maley","ORGANIZATION":"The Selma M. Levine School of Music","ADDRESS":"2801 UPTON STREET NW","ADDRESS2":null,"ZIP_4":"20008-3829","GRANT_CATEGORY":"Grants in Aid","DISCIPLINE":"Music","GRANT_":70000,"URL":"http://levineschool.org","WARD":3},"geometry":{"type":"Point","coordinates":[-77.05651992732595,38.943037506818946]}},{"type":"Feature","properties":{"OBJECTID":974,"FISCAL_YEAR":2015,"APPLICANT":"Emma Moores","ORGANIZATION":"The Washington Chorus","ADDRESS":"2801 UPTON STREET NW","ADDRESS2":null,"ZIP_4":"20008","GRANT_CATEGORY":"Grants in Aid","DISCIPLINE":"Choral Music","GRANT_":50000,"URL":"http://thewashingtonchorus.org","WARD":3},"geometry":{"type":"Point","coordinates":[-77.05651992732595,38.943037506818946]}},{"type":"Feature","properties":{"OBJECTID":977,"FISCAL_YEAR":2015,"APPLICANT":"Grossman","ORGANIZATION":"Dog and Pony DC, Inc.","ADDRESS":"32 SHERMAN CIRCLE NW","ADDRESS2":null,"ZIP_4":"20011","GRANT_CATEGORY":"Grants in Aid","DISCIPLINE":"Theatre","GRANT_":20000,"URL":"http://dogandponydc.com","WARD":4},"geometry":{"type":"Point","coordinates":[-77.02276283584379,38.947623902490285]}},{"type":"Feature","properties":{"OBJECTID":981,"FISCAL_YEAR":2015,"APPLICANT":"Carla Perlo","ORGANIZATION":"DC Wheel Productions, Inc.","ADDRESS":"3225 8TH STREET NE","ADDRESS2":null,"ZIP_4":"20017","GRANT_CATEGORY":"Grants in Aid","DISCIPLINE":"Dance","GRANT_":70000,"URL":"http://danceplace.org","WARD":5},"geometry":{"type":"Point","coordinates":[-76.99456488255515,38.9303601535627]}},{"type":"Feature","properties":{"OBJECTID":983,"FISCAL_YEAR":2015,"APPLICANT":"Callahan","ORGANIZATION":"826DC","ADDRESS":"3233 14TH STREET NW","ADDRESS2":null,"ZIP_4":"20010","GRANT_CATEGORY":"Grants in Aid","DISCIPLINE":"Literature","GRANT_":50000,"URL":"http://826dc.org","WARD":1},"geometry":{"type":"Point","coordinates":[-77.0321466908113,38.930171187871615]}},{"type":"Feature","properties":{"OBJECTID":988,"FISCAL_YEAR":2015,"APPLICANT":"Fabian Barnes","ORGANIZATION":"Dance Institute of Washington Inc","ADDRESS":"3400 14TH STREET NW","ADDRESS2":null,"ZIP_4":"20010-3514","GRANT_CATEGORY":"Grants in Aid","DISCIPLINE":"Dance","GRANT_":50000,"URL":"http://danceinstitute.org","WARD":1},"geometry":{"type":"Point","coordinates":[-77.03296066423694,38.931613641938576]}},{"type":"Feature","properties":{"OBJECTID":994,"FISCAL_YEAR":2015,"APPLICANT":"Lauren Hallford","ORGANIZATION":"The Washington Ballet","ADDRESS":"3515 WISCONSIN AVENUE NW","ADDRESS2":null,"ZIP_4":"20016","GRANT_CATEGORY":"Grants in Aid","DISCIPLINE":"Dance","GRANT_":70000,"URL":"http://washingtonballet.org","WARD":3},"geometry":{"type":"Point","coordinates":[-77.07325774930956,38.93693932756416]}},{"type":"Feature","properties":{"OBJECTID":1002,"FISCAL_YEAR":2015,"APPLICANT":"Daniel Singh","ORGANIZATION":"Dakshina/Daniel Phoenix Singh Company","ADDRESS":"4607 GEORGIA AVENUE NW","ADDRESS2":null,"ZIP_4":"20011","GRANT_CATEGORY":"Grants in Aid","DISCIPLINE":"Dance:Ethnic/Jazz","GRANT_":15000,"URL":"http://dakshina.org","WARD":4},"geometry":{"type":"Point","coordinates":[-77.02633046769947,38.94645261718608]}},{"type":"Feature","properties":{"OBJECTID":1003,"FISCAL_YEAR":2015,"APPLICANT":"Robert Verdile","ORGANIZATION":"Thomas Circle Singers","ADDRESS":"5 THOMAS CIRCLE NW","ADDRESS2":"#24","ZIP_4":"20005","GRANT_CATEGORY":"Grants in Aid","DISCIPLINE":"Choral Music","GRANT_":13000,"URL":"http://thomascirclesingers.org","WARD":2},"geometry":{"type":"Point","coordinates":[-77.03260282555516,38.90647888132085]}},{"type":"Feature","properties":{"OBJECTID":1007,"FISCAL_YEAR":2015,"APPLICANT":"Meghann Babo","ORGANIZATION":"The Shakespeare Theatre","ADDRESS":"516 8TH STREET SE","ADDRESS2":null,"ZIP_4":"20003","GRANT_CATEGORY":"Grants in Aid","DISCIPLINE":"Theatre","GRANT_":45000,"URL":"http://ShakespeareTheatre.org","WARD":6},"geometry":{"type":"Point","coordinates":[-76.9946107399779,38.882098641559516]}},{"type":"Feature","properties":{"OBJECTID":1010,"FISCAL_YEAR":2015,"APPLICANT":"Patricia Kramer","ORGANIZATION":"The Choral Arts Society of Washington","ADDRESS":"5225 WISCONSIN AVENUE NW","ADDRESS2":"#603","ZIP_4":"20015","GRANT_CATEGORY":"Grants in Aid","DISCIPLINE":"Choral Music","GRANT_":45000,"URL":"http://choralarts.org","WARD":3},"geometry":{"type":"Point","coordinates":[-77.08408942584195,38.958389138757774]}},{"type":"Feature","properties":{"OBJECTID":1013,"FISCAL_YEAR":2015,"APPLICANT":"Marcus Kyd","ORGANIZATION":"Taffety Punk Theatre Company","ADDRESS":"545 7TH STREET SE","ADDRESS2":null,"ZIP_4":"20003","GRANT_CATEGORY":"Grants in Aid","DISCIPLINE":"Theatre","GRANT_":18000,"URL":"http://taffetypunk.com","WARD":6},"geometry":{"type":"Point","coordinates":[-76.99640203276336,38.881499292229]}},{"type":"Feature","properties":{"OBJECTID":1014,"FISCAL_YEAR":2015,"APPLICANT":"Jill Strachan","ORGANIZATION":"Capitol Hill Arts Workshop","ADDRESS":"545 7TH STREET SE","ADDRESS2":null,"ZIP_4":"20003","GRANT_CATEGORY":"Grants in Aid","DISCIPLINE":"Multi-Disciplinary","GRANT_":35000,"URL":"http://chaw.org","WARD":6},"geometry":{"type":"Point","coordinates":[-76.99640203276336,38.881499292229]}},{"type":"Feature","properties":{"OBJECTID":1016,"FISCAL_YEAR":2015,"APPLICANT":"Selvon Waldron","ORGANIZATION":"Life Pieces To Masterpieces","ADDRESS":"5600 EADS STREET NE","ADDRESS2":null,"ZIP_4":"20019","GRANT_CATEGORY":"Grants in Aid","DISCIPLINE":"Visual Arts","GRANT_":50000,"URL":"http://lifepieces.org","WARD":7},"geometry":{"type":"Point","coordinates":[-76.9199292605129,38.89600143048365]}},{"type":"Feature","properties":{"OBJECTID":1018,"FISCAL_YEAR":2015,"APPLICANT":"Abbey Chung","ORGANIZATION":"DC Creative Writing Workshop","ADDRESS":"601 MISSISSIPPI AVENUE SE","ADDRESS2":null,"ZIP_4":"20032","GRANT_CATEGORY":"Grants in Aid","DISCIPLINE":"Poetry","GRANT_":23000,"URL":"http://dccww.org","WARD":8},"geometry":{"type":"Point","coordinates":[-76.99718101999316,38.837745313083275]}},{"type":"Feature","properties":{"OBJECTID":1019,"FISCAL_YEAR":2015,"APPLICANT":"Caitlin Wood","ORGANIZATION":"CAPITAL FRINGE INC","ADDRESS":"607 NEW YORK AVENUE NW","ADDRESS2":null,"ZIP_4":"20001","GRANT_CATEGORY":"Grants in Aid","DISCIPLINE":"Multi-Disciplinary","GRANT_":50000,"URL":"http://capitalfringe.org","WARD":6},"geometry":{"type":"Point","coordinates":[-77.02034555868845,38.90377627064401]}},{"type":"Feature","properties":{"OBJECTID":1027,"FISCAL_YEAR":2015,"APPLICANT":"Sabrina Thornton","ORGANIZATION":"Woolly Mammoth Theatre Company","ADDRESS":"641 D STREET NW","ADDRESS2":null,"ZIP_4":"20004","GRANT_CATEGORY":"Grants in Aid","DISCIPLINE":"Theatre","GRANT_":45000,"URL":"http://woollymammoth.net","WARD":2},"geometry":{"type":"Point","coordinates":[-77.0214487530495,38.894987695957774]}},{"type":"Feature","properties":{"OBJECTID":1029,"FISCAL_YEAR":2015,"APPLICANT":"Tamela Aldridge","ORGANIZATION":"Only Make Believe, Inc","ADDRESS":"716 MONROE STREET NE","ADDRESS2":"#1","ZIP_4":"20017","GRANT_CATEGORY":"Grants in Aid","DISCIPLINE":"Theatre for Young Audience","GRANT_":20000,"URL":"http://onlymakebelieve.org","WARD":5},"geometry":{"type":"Point","coordinates":[-76.99500850857247,38.93284079110341]}},{"type":"Feature","properties":{"OBJECTID":1031,"FISCAL_YEAR":2015,"APPLICANT":"Deb Gottesman","ORGANIZATION":"The Theatre Lab School of the Dramatic Arts","ADDRESS":"733 8TH STREET NW","ADDRESS2":null,"ZIP_4":"20001-3721","GRANT_CATEGORY":"Grants in Aid","DISCIPLINE":"Theatre","GRANT_":55000,"URL":"http://theatrelab.org","WARD":2},"geometry":{"type":"Point","coordinates":[-77.02269724862326,38.899241480329664]}},{"type":"Feature","properties":{"OBJECTID":1032,"FISCAL_YEAR":2015,"APPLICANT":"Adam Lewis","ORGANIZATION":"Historical Society of Washington, DC","ADDRESS":"801 K STREET NW","ADDRESS2":null,"ZIP_4":"20001","GRANT_CATEGORY":"Grants in Aid","DISCIPLINE":"Humanities","GRANT_":35000,"URL":"http://historydc.org/","WARD":2},"geometry":{"type":"Point","coordinates":[-77.02294505078932,38.90262956584554]}},{"type":"Feature","properties":{"OBJECTID":1035,"FISCAL_YEAR":2015,"APPLICANT":"Kate Conrad","ORGANIZATION":"International Arts and Artist","ADDRESS":"9 HILLYER COURT NW","ADDRESS2":null,"ZIP_4":"20008","GRANT_CATEGORY":"Grants in Aid","DISCIPLINE":"Visual Arts","GRANT_":45000,"URL":"http://artsandartists.org","WARD":2},"geometry":{"type":"Point","coordinates":[-77.04730884101534,38.91222144699389]}},{"type":"Feature","properties":{"OBJECTID":1039,"FISCAL_YEAR":2015,"APPLICANT":null,"ORGANIZATION":"Cultural Development Corporation","ADDRESS":"916 G STREET NW","ADDRESS2":null,"ZIP_4":"20001","GRANT_CATEGORY":"Grants in Aid","DISCIPLINE":"Multi-Disciplinary","GRANT_":50000,"URL":"http://culturaldc.org","WARD":2},"geometry":{"type":"Point","coordinates":[-77.02491210452543,38.89812444241147]}},{"type":"Feature","properties":{"OBJECTID":1041,"FISCAL_YEAR":2015,"APPLICANT":"Diana Ingraham","ORGANIZATION":"Old Naval Hospital Foundation","ADDRESS":"921 PENNSYLVANIA AVENUE SE","ADDRESS2":null,"ZIP_4":"20003","GRANT_CATEGORY":"Grants in Aid","DISCIPLINE":"Multi-Disciplinary","GRANT_":50000,"URL":"http://HillCenterDC.org","WARD":6},"geometry":{"type":"Point","coordinates":[-76.99314290714912,38.8829885933721]}}]}