{"type":"FeatureCollection","features":[{"type":"Feature","properties":{"OBJECTID":1,"X":397950.9904,"Y":140634.4599,"ARC_STREET":"3531 GEORGIA AVE NW","NAME":"Bernice Elizabeth Fonteneau Wellness Center","TELEPHONE":"202-727-0338","ADDRESS":"3531 GEORGIA AVE NW","TYPE":"Group Meal Programs","WEB_URL":"http://dcoa.dc.gov/page/food-meals-and-nutrition","WARD":1,"ADDRID":228763},"geometry":{"type":"Point","coordinates":[-77.02363479975315,38.93359889744155]}},{"type":"Feature","properties":{"OBJECTID":2,"X":402917.9505,"Y":140712.3013,"ARC_STREET":"2900 NEWTON STREET NE","NAME":"Seabury Ward 5 Aging Services","TELEPHONE":"202-529-8701","ADDRESS":"2900 NEWTON STREET NE","TYPE":"Group Meal Programs","WEB_URL":"http://www.seaburyresources.org/srj/index.php/assistance/ward5","WARD":5,"ADDRID":287312},"geometry":{"type":"Point","coordinates":[-76.96634740071094,38.934297662771854]}},{"type":"Feature","properties":{"OBJECTID":3,"X":401889.4305,"Y":139419.55,"ARC_STREET":"2501 18TH ST NE","NAME":"Christian Communities Group Homes","TELEPHONE":"202-635-9384","ADDRESS":"2501 18TH ST NE","TYPE":"Emergency and Group Housing","WEB_URL":" ","WARD":5,"ADDRID":287082},"geometry":{"type":"Point","coordinates":[-76.97821364134407,38.92265496769382]}},{"type":"Feature","properties":{"OBJECTID":4,"X":401359.1005,"Y":136967.29,"ARC_STREET":"1400 FLORIDA AVE NE","NAME":"Delta Towers","TELEPHONE":"202-398-1303","ADDRESS":"1400 FLORIDA AVE NE","TYPE":"Group Meal Programs","WEB_URL":"http://dcoa.dc.gov/page/food-meals-and-nutrition","WARD":5,"ADDRID":65280},"geometry":{"type":"Point","coordinates":[-76.9843341835445,38.90056515294224]}},{"type":"Feature","properties":{"OBJECTID":5,"X":400282.9105,"Y":139511.68,"ARC_STREET":"635 EDGEWOOD ST NE","NAME":"Edgewood Terrace #1","TELEPHONE":"202-832-8266","ADDRESS":"635 EDGEWOOD ST NE","TYPE":"Group Meal Programs","WEB_URL":"http://dcoa.dc.gov/page/food-meals-and-nutrition","WARD":5,"ADDRID":289573},"geometry":{"type":"Point","coordinates":[-76.99673976332588,38.92348688942839]}},{"type":"Feature","properties":{"OBJECTID":6,"X":403387.2205,"Y":140020.95,"ARC_STREET":"2855 BLADENSBURG RD NE","NAME":"Fort Lincoln I","TELEPHONE":"202-635-2392","ADDRESS":"2855 BLADENSBURG RD NE","TYPE":"Group Meal Programs","WEB_URL":"http://dcoa.dc.gov/page/food-meals-and-nutrition","WARD":5,"ADDRID":289764},"geometry":{"type":"Point","coordinates":[-76.96093837452293,38.92806807375411]}},{"type":"Feature","properties":{"OBJECTID":7,"X":403447.9505,"Y":140054.18,"ARC_STREET":"3001 BLADENSBURG RD NE","NAME":"Fort Lincoln II","TELEPHONE":"202-529-7730","ADDRESS":"3001 BLADENSBURG RD NE","TYPE":"Group Meal Programs","WEB_URL":"http://dcoa.dc.gov/page/food-meals-and-nutrition","WARD":5,"ADDRID":287351},"geometry":{"type":"Point","coordinates":[-76.96023782480158,38.92836718381392]}},{"type":"Feature","properties":{"OBJECTID":8,"X":403752.3505,"Y":139266.78,"ARC_STREET":"3298 FORT LINCOLN DR NE","NAME":"Fort Lincoln III","TELEPHONE":"202-269-4530","ADDRESS":"3298 FORT LINCOLN DR NE","TYPE":"Group Meal Programs","WEB_URL":"http://dcoa.dc.gov/page/food-meals-and-nutrition","WARD":5,"ADDRID":151262},"geometry":{"type":"Point","coordinates":[-76.95673155046941,38.92127278687477]}},{"type":"Feature","properties":{"OBJECTID":9,"X":400923.3105,"Y":139312,"ARC_STREET":"1251 SARATOGA AVE NE","NAME":"Israel Baptist Church","TELEPHONE":"202-832-8483","ADDRESS":"1251 SARATOGA AVE NE","TYPE":"Group Meal Programs","WEB_URL":"http://dcoa.dc.gov/page/food-meals-and-nutrition","WARD":5,"ADDRID":69666},"geometry":{"type":"Point","coordinates":[-76.98935494410497,38.921687668227776]}},{"type":"Feature","properties":{"OBJECTID":10,"X":402018.7705,"Y":139583.79,"ARC_STREET":"1901 EVARTS ST NE","NAME":"Model Cities Senior Wellness Center","TELEPHONE":"202-635-1900","ADDRESS":"1901 EVARTS ST NE","TYPE":"Group Meal Programs","WEB_URL":"http://dcoa.dc.gov/page/food-meals-and-nutrition","WARD":5,"ADDRID":301587},"geometry":{"type":"Point","coordinates":[-76.97672162801649,38.92413420686128]}},{"type":"Feature","properties":{"OBJECTID":11,"X":402917.9505,"Y":140712.30000000002,"ARC_STREET":"2900 NEWTON ST NE","NAME":"Seabury Ward 5 Aging Services - Senior Center for the Blind and Visually Impaired","TELEPHONE":"202-529-8701","ADDRESS":"2900 NEWTON ST NE","TYPE":"Recreation/Socialization","WEB_URL":"http://www.seaburyresources.org/srj/index.php/assistance/ward5","WARD":5,"ADDRID":287312},"geometry":{"type":"Point","coordinates":[-76.96634740071653,38.93429765094849]}},{"type":"Feature","properties":{"OBJECTID":12,"X":401201.8895,"Y":138128.76,"ARC_STREET":"1808 CAPITOL AVE NE","NAME":"Bethesda Baptist Church","TELEPHONE":"202-269-9876","ADDRESS":"1808 CAPITOL AVE NE","TYPE":"Group Meal Programs","WEB_URL":"http://dcoa.dc.gov/page/food-meals-and-nutrition","WARD":5,"ADDRID":155925},"geometry":{"type":"Point","coordinates":[-76.98614452502267,38.91102831106312]}},{"type":"Feature","properties":{"OBJECTID":13,"X":402481.2905,"Y":139818.28,"ARC_STREET":"2412 FRANKLIN ST NE","NAME":"Green Valley Apartments","TELEPHONE":"202-635-0286","ADDRESS":"2412 FRANKLIN ST NE","TYPE":"Group Meal Programs","WEB_URL":"http://dcoa.dc.gov/page/food-meals-and-nutrition","WARD":5,"ADDRID":287033},"geometry":{"type":"Point","coordinates":[-76.9713869553637,38.926245383346014]}},{"type":"Feature","properties":{"OBJECTID":14,"X":402917.9505,"Y":140712.3013,"ARC_STREET":"2900 NEWTON STREET NE","NAME":"Seabury Ward 5 Aging Services","TELEPHONE":"202-529-8701","ADDRESS":"2900 NEWTON STREET NE","TYPE":"Case Management","WEB_URL":"http://www.seaburyresources.org/srj/index.php/assistance/ward5","WARD":5,"ADDRID":287312},"geometry":{"type":"Point","coordinates":[-76.96634740071094,38.934297662771854]}},{"type":"Feature","properties":{"OBJECTID":15,"X":400923.3104,"Y":139312,"ARC_STREET":"1251 SARATOGA AVENUE NE","NAME":"Blind and Visually Impaired Senior Center","TELEPHONE":"202-529-8701","ADDRESS":"1251 SARATOGA AVENUE NE","TYPE":"Group Meal Programs","WEB_URL":"http://www.seaburyresources.org/srj/index.php/assistance/centerfortheblind","WARD":5,"ADDRID":69666},"geometry":{"type":"Point","coordinates":[-76.9893549455465,38.92168766822792]}},{"type":"Feature","properties":{"OBJECTID":16,"X":401895.0805,"Y":139507.43,"ARC_STREET":"2601 18TH ST NE","NAME":"Call 'N' Ride/Door to Door Taxicab Transportation Program","TELEPHONE":"202-715-7652","ADDRESS":"2601 18TH ST NE","TYPE":"Senior Transportation Program","WEB_URL":"http://dcoa.dc.gov/service/transportation-services-sept2","WARD":5,"ADDRID":287131},"geometry":{"type":"Point","coordinates":[-76.9781482437913,38.923446606877484]}},{"type":"Feature","properties":{"OBJECTID":17,"X":401895.0805,"Y":139507.43,"ARC_STREET":"2601 18TH ST NE","NAME":"Washington Elderly Handicapped Transportation Services","TELEPHONE":"202-715-7649","ADDRESS":"2601 18TH ST NE","TYPE":"Senior Transportation Program","WEB_URL":"http://dcoa.dc.gov/service/transportation-services-sept2","WARD":5,"ADDRID":287131},"geometry":{"type":"Point","coordinates":[-76.9781482437913,38.923446606877484]}},{"type":"Feature","properties":{"OBJECTID":18,"X":402018.7705,"Y":139583.79,"ARC_STREET":"1901 EVARTS ST NE","NAME":"Model Cities Senior Wellness Center","TELEPHONE":"202-635-1900","ADDRESS":"1901 EVARTS ST NE","TYPE":"Wellness Programs","WEB_URL":"http://dcoa.dc.gov/node/513562","WARD":5,"ADDRID":301587},"geometry":{"type":"Point","coordinates":[-76.97672162801649,38.92413420686128]}},{"type":"Feature","properties":{"OBJECTID":19,"X":402018.7705,"Y":139583.79,"ARC_STREET":"1901 EVARTS ST NE","NAME":"Family Matters of Greater Washington Weekend Alzheimer's Program (Weekend Respite)","TELEPHONE":"202-635-1900","ADDRESS":"1901 EVARTS ST NE","TYPE":"Health Care and In-Home Support","WEB_URL":" ","WARD":5,"ADDRID":301587},"geometry":{"type":"Point","coordinates":[-76.97672162801649,38.92413420686128]}},{"type":"Feature","properties":{"OBJECTID":20,"X":401895.0805,"Y":139507.43,"ARC_STREET":"2601 18TH ST NE","NAME":"Washington Center for Aging Services - Respite","TELEPHONE":"202-541-6200","ADDRESS":"2601 18TH ST NE","TYPE":"Health Care and In-Home Support","WEB_URL":" ","WARD":5,"ADDRID":287131},"geometry":{"type":"Point","coordinates":[-76.9781482437913,38.923446606877484]}},{"type":"Feature","properties":{"OBJECTID":21,"X":401895.0805,"Y":139507.43,"ARC_STREET":"2601 18TH ST NE","NAME":"Center Care Day Treatment Program Washington Center for Aging Services","TELEPHONE":"202-541-6150","ADDRESS":"2601 18TH ST NE","TYPE":"Adult Day Care","WEB_URL":" ","WARD":5,"ADDRID":287131},"geometry":{"type":"Point","coordinates":[-76.9781482437913,38.923446606877484]}},{"type":"Feature","properties":{"OBJECTID":22,"X":395012.4705,"Y":140991.13,"ARC_STREET":"2850 QUEBEC ST NW","NAME":"Adas Israel DC Senior Fellowship","TELEPHONE":"202-363-7530","ADDRESS":"2850 QUEBEC ST NW","TYPE":"Group Meal Programs","WEB_URL":"http://dcoa.dc.gov/page/food-meals-and-nutrition","WARD":3,"ADDRID":219289},"geometry":{"type":"Point","coordinates":[-77.05752918015142,38.936800121083614]}},{"type":"Feature","properties":{"OBJECTID":23,"X":393720.7905,"Y":140179.36000000002,"ARC_STREET":"3001 WISCONSIN AVE NW","NAME":"St. Albans Episcopal Church","TELEPHONE":"202-363-8286x115","ADDRESS":"3001 WISCONSIN AVE NW","TYPE":"Group Meal Programs","WEB_URL":"http://dcoa.dc.gov/page/food-meals-and-nutrition","WARD":3,"ADDRID":221620},"geometry":{"type":"Point","coordinates":[-77.07242017244958,38.92947916882228]}},{"type":"Feature","properties":{"OBJECTID":24,"X":392921.6005,"Y":142256.5,"ARC_STREET":"4125 ALBEMARLE STREET NW","NAME":"Isabella Breckinridge Center","TELEPHONE":"202-895-0238","ADDRESS":"4125 ALBEMARLE STREET NW","TYPE":"Adult Day Care","WEB_URL":" ","WARD":3,"ADDRID":264423},"geometry":{"type":"Point","coordinates":[-77.08165862511485,38.94818457739296]}},{"type":"Feature","properties":{"OBJECTID":25,"X":394347.8805,"Y":142038.72,"ARC_STREET":"4340 CONNECTICUT AVE NW","NAME":"UDC - Institute of Gerontology - BODYWISE Program","TELEPHONE":"202-274-6697","ADDRESS":"4340 CONNECTICUT AVE NW","TYPE":"Wellness Programs","WEB_URL":"http://www.udc.edu/academics/cas/gerontology/community_sevice_pgms.htm","WARD":3,"ADDRID":223153},"geometry":{"type":"Point","coordinates":[-77.06520328656937,38.946233089843304]}},{"type":"Feature","properties":{"OBJECTID":26,"X":394423.7405,"Y":141839.77,"ARC_STREET":"4200 CONNECTICUT AVE NW","NAME":"UDC - Institute of Gerontology - Respite Aid Program","TELEPHONE":"202-274-6623","ADDRESS":"4200 CONNECTICUT AVE NW","TYPE":"Health Care and In-Home Support","WEB_URL":"http://www.udc.edu/academics/cas/gerontology/community_sevice_pgms.htm","WARD":3,"ADDRID":297694},"geometry":{"type":"Point","coordinates":[-77.06432657349328,38.944441376962004]}},{"type":"Feature","properties":{"OBJECTID":27,"X":394423.7405,"Y":141839.77,"ARC_STREET":"4200 CONNECTICUT AVE NW","NAME":"UDC - Institute of Gerontology, Academy of Lifetime Learning","TELEPHONE":"202-274-6651","ADDRESS":"4200 CONNECTICUT AVE NW","TYPE":"Adult Education","WEB_URL":"http://www.udc.edu/academics/cas/gerontology/community_sevice_pgms.htm","WARD":3,"ADDRID":297694},"geometry":{"type":"Point","coordinates":[-77.06432657349328,38.944441376962004]}},{"type":"Feature","properties":{"OBJECTID":28,"X":392921.6005,"Y":142256.5,"ARC_STREET":"4125 ALBEMARLE ST NW","NAME":"IONA Senior Services","TELEPHONE":"202-895-0234","ADDRESS":"4125 ALBEMARLE ST NW","TYPE":"Case Management","WEB_URL":"http://www.iona.org/","WARD":3,"ADDRID":264423},"geometry":{"type":"Point","coordinates":[-77.08165862511485,38.94818457739296]}},{"type":"Feature","properties":{"OBJECTID":29,"X":392921.6005,"Y":142256.5,"ARC_STREET":"4125 ALBEMARLE ST NW","NAME":"IONA Senior Services","TELEPHONE":"202-966-1055","ADDRESS":"4125 ALBEMARLE ST NW","TYPE":"Group Meal Programs","WEB_URL":"http://www.iona.org/","WARD":3,"ADDRID":264423},"geometry":{"type":"Point","coordinates":[-77.08165862511485,38.94818457739296]}},{"type":"Feature","properties":{"OBJECTID":30,"X":399680.22000000003,"Y":143302.04,"ARC_STREET":"5656 3RD ST NE","NAME":"Barney Senior Center","TELEPHONE":"202-939-9020","ADDRESS":"5656 3RD ST NE","TYPE":"Group Meal Programs","WEB_URL":"http://barneynh.org/senior_services_programs.html","WARD":4,"ADDRID":7175},"geometry":{"type":"Point","coordinates":[-77.00369175406293,38.95763154791282]}},{"type":"Feature","properties":{"OBJECTID":31,"X":398515.9,"Y":143164.25,"ARC_STREET":"324 KENNEDY ST NW","NAME":"Hattie Holmes Senior Wellness Center","TELEPHONE":"202-291-6170","ADDRESS":"324 KENNEDY ST NW","TYPE":"Group Meal Programs","WEB_URL":"http://dcoa.dc.gov/page/food-meals-and-nutrition","WARD":4,"ADDRID":307575},"geometry":{"type":"Point","coordinates":[-77.01712481673894,38.956389103153825]}},{"type":"Feature","properties":{"OBJECTID":32,"X":397668.3105,"Y":142526.41,"ARC_STREET":"930 FARRAGUT ST NW","NAME":"Colony House","TELEPHONE":"202-882-3881","ADDRESS":"930 FARRAGUT ST NW","TYPE":"Group Meal Programs","WEB_URL":"http://dcoa.dc.gov/page/food-meals-and-nutrition","WARD":4,"ADDRID":285470},"geometry":{"type":"Point","coordinates":[-77.02690155489056,38.95064142702408]}},{"type":"Feature","properties":{"OBJECTID":33,"X":398027.2405,"Y":141226.21,"ARC_STREET":"715 RANDOLPH ST NW","NAME":"First Baptist Senior Center","TELEPHONE":"202-723-4313","ADDRESS":"715 RANDOLPH ST NW","TYPE":"Group Meal Programs","WEB_URL":"http://dcoa.dc.gov/page/food-meals-and-nutrition","WARD":4,"ADDRID":249660},"geometry":{"type":"Point","coordinates":[-77.0227570607834,38.93892973445447]}},{"type":"Feature","properties":{"OBJECTID":34,"X":397305.7205,"Y":144706.25,"ARC_STREET":"1327 VAN BUREN ST NW","NAME":"Ft. Stevens Recreation Center","TELEPHONE":"202-576-6916","ADDRESS":"1327 VAN BUREN ST NW","TYPE":"Group Meal Programs","WEB_URL":"http://dcoa.dc.gov/page/food-meals-and-nutrition","WARD":4,"ADDRID":290152},"geometry":{"type":"Point","coordinates":[-77.03109309836638,38.970276948867536]}},{"type":"Feature","properties":{"OBJECTID":35,"X":398515.9,"Y":143164.25,"ARC_STREET":"324 KENNEDY ST NW","NAME":"Hattie Holmes Senior Wellness Center","TELEPHONE":"202-291-6170","ADDRESS":"324 KENNEDY ST NW","TYPE":"Wellness Programs","WEB_URL":" ","WARD":4,"ADDRID":307575},"geometry":{"type":"Point","coordinates":[-77.01712481673894,38.956389103153825]}},{"type":"Feature","properties":{"OBJECTID":36,"X":398241.7905,"Y":143138.75,"ARC_STREET":"504 KENNEDY ST NW","NAME":"Barney Neighborhood House Senior Program","TELEPHONE":"202-939-9020","ADDRESS":"504 KENNEDY ST NW","TYPE":"Group Meal Programs","WEB_URL":"http://barneynh.org/senior_services_programs.html","WARD":4,"ADDRID":285060},"geometry":{"type":"Point","coordinates":[-77.0202872390052,38.95615888636422]}},{"type":"Feature","properties":{"OBJECTID":37,"X":398027.2405,"Y":141226.21,"ARC_STREET":"715 RANDOLPH ST NW","NAME":"First Baptist Senior Center","TELEPHONE":"202-723-4313","ADDRESS":"715 RANDOLPH ST NW","TYPE":"Recreation/Socialization","WEB_URL":" ","WARD":4,"ADDRID":249660},"geometry":{"type":"Point","coordinates":[-77.0227570607834,38.93892973445447]}},{"type":"Feature","properties":{"OBJECTID":38,"X":396742.3005,"Y":142356.35,"ARC_STREET":"4817 BLAGDEN AVE NW","NAME":"Genevieve Johnson Day Care","TELEPHONE":"202-723-8537","ADDRESS":"4817 BLAGDEN AVE NW","TYPE":"Group Meal Programs","WEB_URL":"http://dcoa.dc.gov/page/food-meals-and-nutrition","WARD":4,"ADDRID":258753},"geometry":{"type":"Point","coordinates":[-77.03758355417035,38.94910653318394]}},{"type":"Feature","properties":{"OBJECTID":39,"X":397583.9195,"Y":143434.89,"ARC_STREET":"5801 GEORGIA AVE NW","NAME":"Emery Recreation Center","TELEPHONE":"202-576-3211","ADDRESS":"5801 GEORGIA AVE NW","TYPE":"Group Meal Programs","WEB_URL":"http://dcoa.dc.gov/page/food-meals-and-nutrition","WARD":4,"ADDRID":285269},"geometry":{"type":"Point","coordinates":[-77.02787832278457,38.95882502973421]}},{"type":"Feature","properties":{"OBJECTID":40,"X":399680.22000000003,"Y":143302.04,"ARC_STREET":"5656 3RD ST NE","NAME":"Barney Senior Center","TELEPHONE":"202-939-9020","ADDRESS":"5656 3RD ST NE","TYPE":"Recreation/Socialization","WEB_URL":"http://barneynh.org/senior_services_programs.html","WARD":4,"ADDRID":7175},"geometry":{"type":"Point","coordinates":[-77.00369175406293,38.95763154791282]}},{"type":"Feature","properties":{"OBJECTID":41,"X":398241.7905,"Y":143138.7501,"ARC_STREET":"504 KENNEDY ST NW","NAME":"Kennedy Street Senior Program","TELEPHONE":"202-939-9020","ADDRESS":"504 KENNEDY ST NW","TYPE":"Group Meal Programs","WEB_URL":" ","WARD":4,"ADDRID":285060},"geometry":{"type":"Point","coordinates":[-77.02028723900551,38.95615888749024]}},{"type":"Feature","properties":{"OBJECTID":42,"X":399286.4304,"Y":144429.4101,"ARC_STREET":"20 TUCKERMAN ST NE","NAME":"Lamond Recreation Center","TELEPHONE":"202-576-9541","ADDRESS":"20 TUCKERMAN ST NE","TYPE":"Group Meal Programs","WEB_URL":" ","WARD":4,"ADDRID":296166},"geometry":{"type":"Point","coordinates":[-77.00823628213745,38.96778695216459]}},{"type":"Feature","properties":{"OBJECTID":43,"X":396742.3005,"Y":142356.35,"ARC_STREET":"4817 BLAGDEN AVE NW","NAME":"Genevieve N. Johnson Senior Day Care Program","TELEPHONE":"202-723-8537","ADDRESS":"4817 BLAGDEN AVE NW","TYPE":"Adult Day Care","WEB_URL":" ","WARD":4,"ADDRID":258753},"geometry":{"type":"Point","coordinates":[-77.03758355417035,38.94910653318394]}},{"type":"Feature","properties":{"OBJECTID":44,"X":399680.22000000003,"Y":143302.04,"ARC_STREET":"5656 3RD ST NE","NAME":"Barney Neighborhood House Senior Program","TELEPHONE":"202-939-9020","ADDRESS":"5656 3RD ST NE","TYPE":"Case Management","WEB_URL":"http://barneynh.org/senior_services_programs.html","WARD":4,"ADDRID":7175},"geometry":{"type":"Point","coordinates":[-77.00369175406293,38.95763154791282]}},{"type":"Feature","properties":{"OBJECTID":45,"X":400902.6898,"Y":129245.0101,"ARC_STREET":"4301 9TH STREET SE","NAME":"Access Housing Inc., Senior Program","TELEPHONE":"202-562-6860","ADDRESS":"4301 9TH STREET SE","TYPE":"Group Meal Programs","WEB_URL":"http://www.accesshousingincdc.org/","WARD":8,"ADDRID":298086},"geometry":{"type":"Point","coordinates":[-76.98960595095565,38.8310002513447]}},{"type":"Feature","properties":{"OBJECTID":46,"X":401752.8936,"Y":133095.1153,"ARC_STREET":"1667 GOOD HOPE ROAD SE","NAME":"Someâ€™s Senior Center (Kuehner Place)","TELEPHONE":"202 797-8800","ADDRESS":"1667 GOOD HOPE ROAD SE","TYPE":"Group Meal Programs","WEB_URL":"http://some.org/services_stability_elderly.html","WARD":8,"ADDRID":58175},"geometry":{"type":"Point","coordinates":[-76.97980429825243,38.86568240881785]}},{"type":"Feature","properties":{"OBJECTID":47,"X":402672.6505,"Y":131606.43,"ARC_STREET":"2700 JASPER ST SE","NAME":"Knox Hill Apartments","TELEPHONE":"202-610-0782","ADDRESS":"2700 JASPER ST SE","TYPE":"Group Meal Programs","WEB_URL":"http://dcoa.dc.gov/page/food-meals-and-nutrition","WARD":8,"ADDRID":278227},"geometry":{"type":"Point","coordinates":[-76.96921204537793,38.85226938708342]}},{"type":"Feature","properties":{"OBJECTID":48,"X":400435.5206,"Y":132317.0801,"ARC_STREET":"2616 MARTIN LUTHER KING JR AVE SE","NAME":"Claiborne House, Matthews Memorial Church","TELEPHONE":"202-610-0961","ADDRESS":"2616 MARTIN LUTHER KING JR AVE SE","TYPE":"Group Meal Programs","WEB_URL":"http://dcoa.dc.gov/page/food-meals-and-nutrition","WARD":8,"ADDRID":278192},"geometry":{"type":"Point","coordinates":[-76.99498442113251,38.858675180082464]}},{"type":"Feature","properties":{"OBJECTID":49,"X":399675.9105,"Y":130234.21,"ARC_STREET":"3500 MARTIN LUTHER KING JR AVE SE","NAME":"Congress Heights Senior Wellness Center","TELEPHONE":"202-563-7225","ADDRESS":"3500 MARTIN LUTHER KING JR AVE SE","TYPE":"Group Meal Programs","WEB_URL":"http://dcoa.dc.gov/page/food-meals-and-nutrition","WARD":8,"ADDRID":303598},"geometry":{"type":"Point","coordinates":[-77.00373530242119,38.83991182039352]}},{"type":"Feature","properties":{"OBJECTID":50,"X":400902.6898,"Y":129245.0101,"ARC_STREET":"4301 9TH STREET SE","NAME":"Access Housing Inc., Senior Program","TELEPHONE":"202-562-6860","ADDRESS":"4301 9TH STREET SE","TYPE":"Case Management","WEB_URL":"http://www.accesshousingincdc.org/","WARD":8,"ADDRID":298086},"geometry":{"type":"Point","coordinates":[-76.98960595095565,38.8310002513447]}},{"type":"Feature","properties":{"OBJECTID":51,"X":400861.8304,"Y":129174.5001,"ARC_STREET":"896 SOUTHERN AVE SE","NAME":"DuPont Park Seventh Day Adventist Apartments","TELEPHONE":"202-562-1365","ADDRESS":"896 SOUTHERN AVE SE","TYPE":"Group Meal Programs","WEB_URL":" ","WARD":8,"ADDRID":81597},"geometry":{"type":"Point","coordinates":[-76.99007661960441,38.830365105395835]}},{"type":"Feature","properties":{"OBJECTID":52,"X":399535.3305,"Y":129773.0001,"ARC_STREET":"114 WAYNE PLACE SE","NAME":"Access Housing Inc., Deaf and Hard of Hearing Program","TELEPHONE":"202-562-1041","ADDRESS":"114 WAYNE PLACE SE","TYPE":"Group Meal Programs","WEB_URL":"http://www.accesshousingincdc.org/","WARD":8,"ADDRID":149796},"geometry":{"type":"Point","coordinates":[-77.00535426041786,38.83575696878523]}},{"type":"Feature","properties":{"OBJECTID":53,"X":399675.9105,"Y":130234.21,"ARC_STREET":"3500 MARTIN LUTHER KING JR AVE SE","NAME":"Congress Heights Senior Wellness Center","TELEPHONE":"202-563-7225","ADDRESS":"3500 MARTIN LUTHER KING JR AVE SE","TYPE":"Wellness Programs","WEB_URL":"http://dcoa.dc.gov/node/513562","WARD":8,"ADDRID":303598},"geometry":{"type":"Point","coordinates":[-77.00373530242119,38.83991182039352]}},{"type":"Feature","properties":{"OBJECTID":54,"X":400536.7078,"Y":136821.6013,"ARC_STREET":"900 G STREET NE, 4th Floor","NAME":"South Washington West of the River Family Strengthening Collaborative","TELEPHONE":"202-608-1340","ADDRESS":"900 G STREET NE, 4th Floor","TYPE":"Group Meal Programs","WEB_URL":"","WARD":6,"ADDRID":289042},"geometry":{"type":"Point","coordinates":[-76.99381507581245,38.89925362320835]}},{"type":"Feature","properties":{"OBJECTID":55,"X":398128.5705,"Y":138246.84,"ARC_STREET":"1616 MARION ST NW","NAME":"Asbury Dwelling","TELEPHONE":"202-745-7434","ADDRESS":"1616 MARION ST NW","TYPE":"Group Meal Programs","WEB_URL":"http://dcoa.dc.gov/page/food-meals-and-nutrition","WARD":6,"ADDRID":279266},"geometry":{"type":"Point","coordinates":[-77.02158014633436,38.91209084406448]}},{"type":"Feature","properties":{"OBJECTID":56,"X":398985.1242,"Y":137115.7613,"ARC_STREET":"901 FIRST STREET NW","NAME":"Unique Residential Care Center","TELEPHONE":"202 535-1100","ADDRESS":"901 FIRST STREET NW","TYPE":"Nursing Facility","WEB_URL":"http://www.urccenter.com/","WARD":6,"ADDRID":237152},"geometry":{"type":"Point","coordinates":[-77.0117022822627,38.90190309950938]}},{"type":"Feature","properties":{"OBJECTID":57,"X":400058.8337,"Y":137199.1142,"ARC_STREET":"500 K STREET NE","NAME":"Hayes Senior Wellness Center","TELEPHONE":" ","ADDRESS":"500 K STREET NE","TYPE":"Wellness Programs","WEB_URL":" ","WARD":6,"ADDRID":300865},"geometry":{"type":"Point","coordinates":[-76.99917913484953,38.90284630497477]}},{"type":"Feature","properties":{"OBJECTID":58,"X":400069.7305,"Y":134551.26,"ARC_STREET":"900 5TH ST SE","NAME":"Arthur Capper Senior Center","TELEPHONE":"202-546-1024","ADDRESS":"900 5TH ST SE","TYPE":"Group Meal Programs","WEB_URL":"http://dcoa.dc.gov/page/food-meals-and-nutrition","WARD":6,"ADDRID":302625},"geometry":{"type":"Point","coordinates":[-76.99919865424262,38.87880169184883]}},{"type":"Feature","properties":{"OBJECTID":59,"X":400536.7105,"Y":136821.6,"ARC_STREET":"900 G ST NE","NAME":"Capitol Hill Towers","TELEPHONE":"202-675-9066","ADDRESS":"900 G ST NE","TYPE":"Group Meal Programs","WEB_URL":"http://dcoa.dc.gov/page/food-meals-and-nutrition","WARD":6,"ADDRID":289042},"geometry":{"type":"Point","coordinates":[-76.9938150448318,38.899253611383244]}},{"type":"Feature","properties":{"OBJECTID":60,"X":398849.5605,"Y":134233.65,"ARC_STREET":"1200 DELAWARE AVE SW","NAME":"Greenleaf Senior Building","TELEPHONE":"202-554-1121","ADDRESS":"1200 DELAWARE AVE SW","TYPE":"Group Meal Programs","WEB_URL":"http://dcoa.dc.gov/page/food-meals-and-nutrition","WARD":6,"ADDRID":72281},"geometry":{"type":"Point","coordinates":[-77.0132603014621,38.87593978484039]}},{"type":"Feature","properties":{"OBJECTID":61,"X":401198.5305,"Y":135626,"ARC_STREET":"1340 MASSACHUSETTS AVE SE","NAME":"St. Monicas Episcopal Church","TELEPHONE":"202-547-8401","ADDRESS":"1340 MASSACHUSETTS AVE SE","TYPE":"Group Meal Programs","WEB_URL":"http://dcoa.dc.gov/page/food-meals-and-nutrition","WARD":6,"ADDRID":66582},"geometry":{"type":"Point","coordinates":[-76.98618761972722,38.888482551257844]}},{"type":"Feature","properties":{"OBJECTID":62,"X":399177.1005,"Y":137473.68,"ARC_STREET":"1140 N CAPITOL ST NW","NAME":"Sibley Plaza","TELEPHONE":"202-289-0784","ADDRESS":"1140 N CAPITOL ST NW","TYPE":"Group Meal Programs","WEB_URL":"http://dcoa.dc.gov/page/food-meals-and-nutrition","WARD":6,"ADDRID":285576},"geometry":{"type":"Point","coordinates":[-77.00948951185339,38.905127558714256]}},{"type":"Feature","properties":{"OBJECTID":63,"X":400069.7305,"Y":134551.26,"ARC_STREET":"900 5TH ST SE","NAME":"Arthur Capper Senior Center","TELEPHONE":"202-675-9088","ADDRESS":"900 5TH ST SE","TYPE":"Recreation/Socialization","WEB_URL":"http://dcoa.dc.gov/page/food-meals-and-nutrition","WARD":6,"ADDRID":302625},"geometry":{"type":"Point","coordinates":[-76.99919865424262,38.87880169184883]}},{"type":"Feature","properties":{"OBJECTID":64,"X":404164.1905,"Y":135993.94,"ARC_STREET":"3760 MINNESOTA AVE NE","NAME":"Allen House Upper Room Baptist Church","TELEPHONE":"202-396-7351","ADDRESS":"3760 MINNESOTA AVE NE","TYPE":"Group Meal Programs","WEB_URL":"http://dcoa.dc.gov/page/food-meals-and-nutrition","WARD":7,"ADDRID":30794},"geometry":{"type":"Point","coordinates":[-76.95200220571807,38.89178804918386]}},{"type":"Feature","properties":{"OBJECTID":65,"X":402862.5005,"Y":133838.3,"ARC_STREET":"2812 PENNSYLVANIA AVE SE","NAME":"Dwelling Place Senior Center","TELEPHONE":"202-582-7138","ADDRESS":"2812 PENNSYLVANIA AVE SE","TYPE":"Group Meal Programs","WEB_URL":"http://dcoa.dc.gov/page/food-meals-and-nutrition","WARD":7,"ADDRID":287282},"geometry":{"type":"Point","coordinates":[-76.96701559133862,38.87237440883707]}},{"type":"Feature","properties":{"OBJECTID":66,"X":403496.3105,"Y":133383.67,"ARC_STREET":"3440 MINNESOTA AVE SE","NAME":"Phillip T. Johnson Senior Center","TELEPHONE":"202-584-4431","ADDRESS":"3440 MINNESOTA AVE SE","TYPE":"Group Meal Programs","WEB_URL":"http://dcoa.dc.gov/page/food-meals-and-nutrition","WARD":7,"ADDRID":34531},"geometry":{"type":"Point","coordinates":[-76.95971404708679,38.86827662589785]}},{"type":"Feature","properties":{"OBJECTID":67,"X":402862.5005,"Y":133838.3,"ARC_STREET":"2812 PENNSYLVANIA AVE SE","NAME":"Dwelling Place Senior Center","TELEPHONE":"202-582-7138","ADDRESS":"2812 PENNSYLVANIA AVE SE","TYPE":"Recreation/Socialization","WEB_URL":"http://www.some.org/services_stability_elderly.html","WARD":7,"ADDRID":287282},"geometry":{"type":"Point","coordinates":[-76.96701559133862,38.87237440883707]}},{"type":"Feature","properties":{"OBJECTID":68,"X":403772.9805,"Y":135320.05,"ARC_STREET":"3440 MINNESOTA AVE SE","NAME":"Phillip T. Johnson Senior Center, UPO Senior Life Center","TELEPHONE":"202-584-4431","ADDRESS":"3440 MINNESOTA AVE SE","TYPE":"Recreation/Socialization","WEB_URL":"http://www.upo.org/","WARD":7,"ADDRID":34531},"geometry":{"type":"Point","coordinates":[-76.9565153313047,38.885719159665406]}},{"type":"Feature","properties":{"OBJECTID":69,"X":404363.0205,"Y":136219.826,"ARC_STREET":"3917 MINNESOTA AVENUE NE","NAME":"East River Family Strengthening Collaborative","TELEPHONE":"202-534-4880","ADDRESS":"3917 MINNESOTA AVENUE NE","TYPE":"Case Management","WEB_URL":"http://www.erfsc.org/","WARD":7,"ADDRID":29135},"geometry":{"type":"Point","coordinates":[-76.94970888449963,38.893821949765886]}},{"type":"Feature","properties":{"OBJECTID":70,"X":403114.4305,"Y":132521.4399,"ARC_STREET":"3001 ALABAMA AVE SE","NAME":"Washington Senior Wellness Center, Weekend Nutrition Program","TELEPHONE":"202-581-9355","ADDRESS":"3001 ALABAMA AVE SE","TYPE":"Group Meal Programs","WEB_URL":" ","WARD":7,"ADDRID":289473},"geometry":{"type":"Point","coordinates":[-76.96411838201293,38.86051073400132]}},{"type":"Feature","properties":{"OBJECTID":71,"X":404800.4,"Y":133486.6299,"ARC_STREET":"1400 41ST STREET SE","NAME":"Ft Davis Community Center","TELEPHONE":"202-645-9212","ADDRESS":"1400 41ST STREET SE","TYPE":"Group Meal Programs","WEB_URL":" ","WARD":7,"ADDRID":295122},"geometry":{"type":"Point","coordinates":[-76.94468621537303,38.8691979794567]}},{"type":"Feature","properties":{"OBJECTID":72,"X":403114.4305,"Y":132521.44,"ARC_STREET":"3001 ALABAMA AVE SE","NAME":"The Washington Seniors Wellness Center","TELEPHONE":"202-581-9355","ADDRESS":"3001 ALABAMA AVE SE","TYPE":"Wellness Programs","WEB_URL":"http://dcoa.dc.gov/node/513562","WARD":7,"ADDRID":289473},"geometry":{"type":"Point","coordinates":[-76.96411838201236,38.86051073512742]}},{"type":"Feature","properties":{"OBJECTID":73,"X":402862.5005,"Y":133838.3,"ARC_STREET":"2812 PENNSYLVANIA AVE SE","NAME":"Interfaith Caregivers Program (S.O.M.E.)","TELEPHONE":"202-581-8000x3","ADDRESS":"2812 PENNSYLVANIA AVE SE","TYPE":"Health Care and In-Home Support","WEB_URL":" ","WARD":7,"ADDRID":287282},"geometry":{"type":"Point","coordinates":[-76.96701559133862,38.87237440883707]}},{"type":"Feature","properties":{"OBJECTID":74,"X":397129.3505,"Y":137738.4006,"ARC_STREET":"1425 N STREET NW","NAME":"James Apartment Building","TELEPHONE":"202-673-4460","ADDRESS":"1425 N STREET NW","TYPE":"Group Meal Programs","WEB_URL":"http://dcoa.dc.gov/page/food-meals-and-nutrition","WARD":2,"ADDRID":240239},"geometry":{"type":"Point","coordinates":[-77.03309917585933,38.90750795131522]}},{"type":"Feature","properties":{"OBJECTID":75,"X":397629.2205,"Y":137148.83000000002,"ARC_STREET":"926 11TH ST NW","NAME":"Asbury Methodist Church Downtown Cluster's Day Care","TELEPHONE":"202-347-7527","ADDRESS":"926 11TH ST NW","TYPE":"Group Meal Programs","WEB_URL":"http://dcoa.dc.gov/page/food-meals-and-nutrition","WARD":2,"ADDRID":301937},"geometry":{"type":"Point","coordinates":[-77.02733393516255,38.90219838223257]}},{"type":"Feature","properties":{"OBJECTID":76,"X":395563.1795,"Y":136780.31,"ARC_STREET":"725 24TH ST NW","NAME":"St. Mary's Court","TELEPHONE":"202-659-5645","ADDRESS":"725 24TH ST NW","TYPE":"Group Meal Programs","WEB_URL":"http://dcoa.dc.gov/page/food-meals-and-nutrition","WARD":2,"ADDRID":242350},"geometry":{"type":"Point","coordinates":[-77.05115000902215,38.8988706209325]}},{"type":"Feature","properties":{"OBJECTID":77,"X":397258.8205,"Y":137675.78,"ARC_STREET":"1226 VERMONT AVE NW","NAME":"Emmaus Services for the Aging Homeless Center (Oasis)","TELEPHONE":"202-265-2017","ADDRESS":"1226 VERMONT AVE NW","TYPE":"Group Meal Programs","WEB_URL":"http://dcoa.dc.gov/page/food-meals-and-nutrition","WARD":2,"ADDRID":240613},"geometry":{"type":"Point","coordinates":[-77.03160621343031,38.90694425630104]}},{"type":"Feature","properties":{"OBJECTID":78,"X":395822.9905,"Y":137081.13,"ARC_STREET":"2136 PENNSYLVANIA AVE NW","NAME":"George Washington University Health Insurance Counseling","TELEPHONE":"202-739-0668","ADDRESS":"2136 PENNSYLVANIA AVE NW","TYPE":"Health Care and In-Home Support","WEB_URL":" ","WARD":2,"ADDRID":291174},"geometry":{"type":"Point","coordinates":[-77.04815673439275,38.901581788439906]}},{"type":"Feature","properties":{"OBJECTID":79,"X":397902.3305,"Y":137950.53,"ARC_STREET":"1426 9TH ST NW","NAME":"Emmaus Services for the Aging (Flemming Nutrition Center)","TELEPHONE":"202-745-1200","ADDRESS":"1426 9TH ST NW","TYPE":"Group Meal Programs","WEB_URL":"http://www.emmausdc.org","WARD":2,"ADDRID":243060},"geometry":{"type":"Point","coordinates":[-77.02418782194569,38.9094210711602]}},{"type":"Feature","properties":{"OBJECTID":80,"X":398388.7305,"Y":136812.17,"ARC_STREET":"417 G PL NW","NAME":"Asian/Pacific Islander Senior Services Center","TELEPHONE":"202-842-4376","ADDRESS":"417 G PL NW","TYPE":"Group Meal Programs","WEB_URL":"http://dcoa.dc.gov/page/food-meals-and-nutrition","WARD":2,"ADDRID":303718},"geometry":{"type":"Point","coordinates":[-77.0185770960672,38.89916734875729]}},{"type":"Feature","properties":{"OBJECTID":81,"X":397258.8205,"Y":137675.78,"ARC_STREET":"1226 VERMONT AVE NW","NAME":"Emmaus Services for the Aging Center for the Homeless - Oasis Program","TELEPHONE":"202-265-2017","ADDRESS":"1226 VERMONT AVE NW","TYPE":"Recreation/Socialization","WEB_URL":"","WARD":2,"ADDRID":240613},"geometry":{"type":"Point","coordinates":[-77.03160621343031,38.90694425630104]}},{"type":"Feature","properties":{"OBJECTID":82,"X":398388.7305,"Y":136812.17,"ARC_STREET":"417 G PL NW","NAME":"Asian Services Senior Center","TELEPHONE":"202-842-4376","ADDRESS":"417 G PL NW","TYPE":"Recreation/Socialization","WEB_URL":"http://dcoa.dc.gov/service/find-services","WARD":2,"ADDRID":303718},"geometry":{"type":"Point","coordinates":[-77.0185770960672,38.89916734875729]}},{"type":"Feature","properties":{"OBJECTID":83,"X":397902.3305,"Y":137950.5299,"ARC_STREET":"1426 9TH ST NW","NAME":"Emmaus Services for the Aging","TELEPHONE":"202-745-1200","ADDRESS":"1426 9TH ST NW","TYPE":"Case Management","WEB_URL":"http://www.emmausdc.org","WARD":2,"ADDRID":243060},"geometry":{"type":"Point","coordinates":[-77.0241878219453,38.909421070034135]}},{"type":"Feature","properties":{"OBJECTID":84,"X":397500.4605,"Y":137555.4001,"ARC_STREET":"1221 M ST NW","NAME":"Claridge Towers","TELEPHONE":"202-682-7503","ADDRESS":"1221 M ST NW","TYPE":"Group Meal Programs","WEB_URL":" ","WARD":2,"ADDRID":278959},"geometry":{"type":"Point","coordinates":[-77.02881983109148,38.905860552804484]}},{"type":"Feature","properties":{"OBJECTID":85,"X":398246.7305,"Y":136501.31,"ARC_STREET":"601 E ST NW","NAME":"Legal Counsel for the Elderly - AARP, DC Long Term Care Ombudsman Office","TELEPHONE":"202-434-2140","ADDRESS":"601 E ST NW","TYPE":"Advocacy and Ombudsman","WEB_URL":"http://www.aarp.org/states/dc/LCE.html","WARD":2,"ADDRID":226366},"geometry":{"type":"Point","coordinates":[-77.02021328706154,38.896366737016585]}},{"type":"Feature","properties":{"OBJECTID":86,"X":397902.3305,"Y":137950.53,"ARC_STREET":"1426 9TH ST NW","NAME":"EMMAUS Services for the Aging, Long Term Ombudsman Program","TELEPHONE":"202-745-1200","ADDRESS":"1426 9TH ST NW","TYPE":"Advocacy and Ombudsman","WEB_URL":"http://www.emmausdc.org","WARD":2,"ADDRID":243060},"geometry":{"type":"Point","coordinates":[-77.02418782194569,38.9094210711602]}},{"type":"Feature","properties":{"OBJECTID":87,"X":397902.3305,"Y":137950.53,"ARC_STREET":"1426 9TH ST NW","NAME":"EMMAUS Services for the Aging","TELEPHONE":"202-745-1200","ADDRESS":"1426 9TH ST NW","TYPE":"Health Care and In-Home Support","WEB_URL":"http://www.emmausdc.org","WARD":2,"ADDRID":243060},"geometry":{"type":"Point","coordinates":[-77.02418782194569,38.9094210711602]}},{"type":"Feature","properties":{"OBJECTID":88,"X":396871.8305,"Y":138012.73,"ARC_STREET":"1509 16TH ST NW","NAME":"Family Matters of Greater Washington - Heavy Housecleaning","TELEPHONE":"202-289-1510x1180","ADDRESS":"1509 16TH ST NW","TYPE":"Health Care and In-Home Support","WEB_URL":" ","WARD":2,"ADDRID":225609},"geometry":{"type":"Point","coordinates":[-77.0360694787041,38.90997832617661]}},{"type":"Feature","properties":{"OBJECTID":89,"X":397457.4005,"Y":137371.65,"ARC_STREET":"1234 MASSACHUSETTS AVE NW","NAME":"AL-CARE","TELEPHONE":"202-638-2382","ADDRESS":"1234 MASSACHUSETTS AVE NW","TYPE":"Health Care and In-Home Support","WEB_URL":" ","WARD":2,"ADDRID":240920},"geometry":{"type":"Point","coordinates":[-77.02931559557713,38.904205143534874]}},{"type":"Feature","properties":{"OBJECTID":90,"X":397457.4005,"Y":137371.65,"ARC_STREET":"1234 MASSACHUSETTS AVE NW","NAME":"DC Caregivers' Institute","TELEPHONE":"202-464-1513","ADDRESS":"1234 MASSACHUSETTS AVE NW","TYPE":"Health Care and In-Home Support","WEB_URL":" ","WARD":2,"ADDRID":240920},"geometry":{"type":"Point","coordinates":[-77.02931559557713,38.904205143534874]}},{"type":"Feature","properties":{"OBJECTID":91,"X":397457.4005,"Y":137371.65,"ARC_STREET":"1234 MASSACHUSETTS AVE NW","NAME":"Home Care Partners","TELEPHONE":"202-638-2382","ADDRESS":"1234 MASSACHUSETTS AVE NW","TYPE":"Health Care and In-Home Support","WEB_URL":" ","WARD":2,"ADDRID":240920},"geometry":{"type":"Point","coordinates":[-77.02931559557713,38.904205143534874]}},{"type":"Feature","properties":{"OBJECTID":92,"X":398642.1795,"Y":136399.84,"ARC_STREET":"441 4TH ST NW","NAME":"DC Office of Aging's Notary Public Service","TELEPHONE":"202-724-5622","ADDRESS":"441 4TH ST NW","TYPE":"Legal Services","WEB_URL":"http://dcoa.dc.gov/","WARD":2,"ADDRID":300865},"geometry":{"type":"Point","coordinates":[-77.0156545054435,38.895453357962545]}},{"type":"Feature","properties":{"OBJECTID":93,"X":400071.4,"Y":137220.4,"ARC_STREET":"500 K ST NE","NAME":"DC Office of Aging","TELEPHONE":"202-724-3662","ADDRESS":"500 K ST NE","TYPE":"Employment and Job Training","WEB_URL":"http://dcoa.dc.gov/page/food-meals-and-nutrition","WARD":6,"ADDRID":300865},"geometry":{"type":"Point","coordinates":[-76.99917913412905,38.90284630497476]}},{"type":"Feature","properties":{"OBJECTID":94,"X":396871.8305,"Y":138012.73,"ARC_STREET":"1509 16TH ST NW","NAME":"Family Matters of Greater Washington","TELEPHONE":"202-289-1510x1180","ADDRESS":"1509 16TH ST NW","TYPE":"Case Management","WEB_URL":"http://familymattersdc.org/","WARD":2,"ADDRID":225609},"geometry":{"type":"Point","coordinates":[-77.0360694787041,38.90997832617661]}},{"type":"Feature","properties":{"OBJECTID":95,"X":397629.2205,"Y":137148.83000000002,"ARC_STREET":"926 11TH ST NW","NAME":"Downtown Cluster's Day Care Center Ashbury Methodist Church","TELEPHONE":"202-347-7527","ADDRESS":"926 11TH ST NW","TYPE":"Adult Day Care","WEB_URL":" ","WARD":2,"ADDRID":301937},"geometry":{"type":"Point","coordinates":[-77.02733393516255,38.90219838223257]}},{"type":"Feature","properties":{"OBJECTID":96,"X":398246.7305,"Y":136501.31,"ARC_STREET":"601 E ST NW","NAME":"Legal Counsel for the Elderly - AARP","TELEPHONE":"202-434-2120","ADDRESS":"601 E ST NW","TYPE":"Legal Services","WEB_URL":"http://www.aarp.org/states/dc/LCE.html","WARD":2,"ADDRID":226366},"geometry":{"type":"Point","coordinates":[-77.02021328706154,38.896366737016585]}},{"type":"Feature","properties":{"OBJECTID":97,"X":397036.5305,"Y":138845.41,"ARC_STREET":"2001 15TH ST NW","NAME":"Campbell Heights","TELEPHONE":"202-939-9035","ADDRESS":"2001 15TH ST NW","TYPE":"Group Meal Programs","WEB_URL":"http://dcoa.dc.gov/page/food-meals-and-nutrition","WARD":1,"ADDRID":239975},"geometry":{"type":"Point","coordinates":[-77.03417411370968,38.91747995925793]}},{"type":"Feature","properties":{"OBJECTID":98,"X":397160.7405,"Y":139909.37,"ARC_STREET":"2900 14TH ST NW","NAME":"Columbia Heights","TELEPHONE":"202-939-9034","ADDRESS":"2900 14TH ST NW","TYPE":"Group Meal Programs","WEB_URL":"http://dcoa.dc.gov/page/food-meals-and-nutrition","WARD":1,"ADDRID":234356},"geometry":{"type":"Point","coordinates":[-77.03274624686136,38.92706486480925]}},{"type":"Feature","properties":{"OBJECTID":99,"X":398127.6505,"Y":139417.7001,"ARC_STREET":"601 HOWARD PLACE NW","NAME":"Howard University, School of Social Work-Staff Development and Training for DC Office of Aging","TELEPHONE":"202-806-7300","ADDRESS":"601 HOWARD PLACE NW","TYPE":"Employment and Job Training","WEB_URL":" ","WARD":1,"ADDRID":291495},"geometry":{"type":"Point","coordinates":[-77.02159394779652,38.922638338365005]}},{"type":"Feature","properties":{"OBJECTID":100,"X":396145.21,"Y":139466.17,"ARC_STREET":"1842 CALVERT ST NW","NAME":"VIDA Senior Center","TELEPHONE":"202-483-1508","ADDRESS":"1842 CALVERT ST NW","TYPE":"Nursing Facility","WEB_URL":" ","WARD":1,"ADDRID":235322},"geometry":{"type":"Point","coordinates":[-77.04445541994782,38.923068513084694]}},{"type":"Feature","properties":{"OBJECTID":101,"X":397760.5005,"Y":139291,"ARC_STREET":"2301 11TH ST NW","NAME":"Garfield Terrace","TELEPHONE":"202-939-9038","ADDRESS":"2301 11TH ST NW","TYPE":"Group Meal Programs","WEB_URL":"http://dcoa.dc.gov/page/food-meals-and-nutrition","WARD":1,"ADDRID":284334},"geometry":{"type":"Point","coordinates":[-77.02582745473347,38.92149612350399]}},{"type":"Feature","properties":{"OBJECTID":102,"X":396251.0805,"Y":140058.04,"ARC_STREET":"1845 HARVARD ST NW","NAME":"Harvard Towers","TELEPHONE":"202-939-9005","ADDRESS":"1845 HARVARD ST NW","TYPE":"Group Meal Programs","WEB_URL":"http://dcoa.dc.gov/page/food-meals-and-nutrition","WARD":1,"ADDRID":236261},"geometry":{"type":"Point","coordinates":[-77.04323777610114,38.928400720276315]}},{"type":"Feature","properties":{"OBJECTID":103,"X":398490.7705,"Y":139039.13,"ARC_STREET":"2125 4TH ST NW","NAME":"LeDroit Park","TELEPHONE":"202-939-9003","ADDRESS":"2125 4TH ST NW","TYPE":"Group Meal Programs","WEB_URL":"http://dcoa.dc.gov/page/food-meals-and-nutrition","WARD":1,"ADDRID":284228},"geometry":{"type":"Point","coordinates":[-77.01740566825946,38.9192287541769]}},{"type":"Feature","properties":{"OBJECTID":104,"X":396642.4605,"Y":139623.65,"ARC_STREET":"2551 17TH ST NW","NAME":"Sarah's Circle","TELEPHONE":"202-332-1400","ADDRESS":"2551 17TH ST NW","TYPE":"Group Meal Programs","WEB_URL":"http://dcoa.dc.gov/page/food-meals-and-nutrition","WARD":1,"ADDRID":235865},"geometry":{"type":"Point","coordinates":[-77.03872194932416,38.92448918076669]}},{"type":"Feature","properties":{"OBJECTID":105,"X":396956.7805,"Y":139707.59,"ARC_STREET":"1480 GIRARD ST NW","NAME":"DC Department of Parks and Recreation Senior Services Division","TELEPHONE":"202-664-7153","ADDRESS":"1480 GIRARD ST NW","TYPE":"Recreation/Socialization","WEB_URL":" ","WARD":1,"ADDRID":284045},"geometry":{"type":"Point","coordinates":[-77.03509753508466,38.925246483922166]}},{"type":"Feature","properties":{"OBJECTID":106,"X":396145.21,"Y":139466.17,"ARC_STREET":"1842 CALVERT ST NW","NAME":"VIDA Senior Center","TELEPHONE":"202-483-1508","ADDRESS":"1842 CALVERT ST NW","TYPE":"Group Meal Programs","WEB_URL":"http://www.vidaseniorcenters.org/","WARD":1,"ADDRID":235322},"geometry":{"type":"Point","coordinates":[-77.04445542787393,38.92306850970356]}},{"type":"Feature","properties":{"OBJECTID":107,"X":396956.7802,"Y":139707.5901,"ARC_STREET":"1480 GIRARD ST NW","NAME":"DC Department of Parks and Recreation","TELEPHONE":"202-671-0394","ADDRESS":"1480 GIRARD ST NW","TYPE":"Senior Transportation Program","WEB_URL":"http://dcoa.dc.gov/service/transportation-services-sept2","WARD":1,"ADDRID":284045},"geometry":{"type":"Point","coordinates":[-77.03509753868904,38.92524648504711]}},{"type":"Feature","properties":{"OBJECTID":108,"X":400536.7078,"Y":136821.6013,"ARC_STREET":"900 G STREET NE, 4th Floor","NAME":"South Washington West of the River Family Strengthening Collaborative","TELEPHONE":"202-608-1340","ADDRESS":"900 G STREET NE, 4th Floor","TYPE":"Case Management","WEB_URL":"","WARD":6,"ADDRID":289042},"geometry":{"type":"Point","coordinates":[-76.99381507581245,38.89925362320835]}},{"type":"Feature","properties":{"OBJECTID":109,"X":404363.0205,"Y":136219.826,"ARC_STREET":"3917 MINNESOTA AVENUE NE","NAME":"East River Family Strengthening Collaborative","TELEPHONE":"202-534-4880","ADDRESS":"3917 MINNESOTA AVENUE NE","TYPE":"Group Meal Programs","WEB_URL":"http://www.erfsc.org/","WARD":7,"ADDRID":29135},"geometry":{"type":"Point","coordinates":[-76.94970888449963,38.893821949765886]}},{"type":"Feature","properties":{"OBJECTID":110,"X":402862.5005,"Y":133838.3,"ARC_STREET":"2812 PENNSYLVANIA AVE SE","NAME":"Dwelling Place, (S.O.M.E.) Shelter for Abused Elderly","TELEPHONE":"202-583-7602","ADDRESS":"2812 PENNSYLVANIA AVE SE","TYPE":"Emergency and Group Housing","WEB_URL":" ","WARD":7,"ADDRID":287282},"geometry":{"type":"Point","coordinates":[-76.96701559133862,38.87237440883707]}},{"type":"Feature","properties":{"OBJECTID":111,"X":401889.4305,"Y":139419.55,"ARC_STREET":"2501 18TH ST NE","NAME":"House of Togetherness","TELEPHONE":"202-347-7527","ADDRESS":"2501 18TH ST NE","TYPE":"Group Homes","WEB_URL":" ","WARD":5,"ADDRID":287082},"geometry":{"type":"Point","coordinates":[-76.97821364134407,38.92265496769382]}},{"type":"Feature","properties":{"OBJECTID":112,"X":401889.4305,"Y":139419.55,"ARC_STREET":"2501 18TH ST NE","NAME":"Andrus House","TELEPHONE":"202-347-7527","ADDRESS":"2501 18TH ST NE","TYPE":"Group Homes","WEB_URL":"http://dcoa.dc.gov/service/find-services","WARD":5,"ADDRID":287082},"geometry":{"type":"Point","coordinates":[-76.97821364134407,38.92265496769382]}},{"type":"Feature","properties":{"OBJECTID":113,"X":401889.4305,"Y":139419.55,"ARC_STREET":"2501 18TH ST NE","NAME":"Pleasant Hill","TELEPHONE":"202-347-7527","ADDRESS":"2501 18TH ST NE","TYPE":"Group Homes","WEB_URL":" ","WARD":5,"ADDRID":287082},"geometry":{"type":"Point","coordinates":[-76.97821364134407,38.92265496769382]}},{"type":"Feature","properties":{"OBJECTID":114,"X":398388.7305,"Y":136812.17,"ARC_STREET":"417 G PL NW","NAME":"Asian and Pacific Islander Senior Center","TELEPHONE":"202-842-4376","ADDRESS":"417 G PL NW","TYPE":"Multicultural Centers","WEB_URL":"http://dcoa.dc.gov/service/find-services","WARD":2,"ADDRID":303718},"geometry":{"type":"Point","coordinates":[-77.0185770960672,38.89916734875729]}},{"type":"Feature","properties":{"OBJECTID":115,"X":396145.21,"Y":139466.17,"ARC_STREET":"1842 CALVERT ST NW","NAME":"VIDA Senior Center","TELEPHONE":"202-483-5800","ADDRESS":"1842 CALVERT ST NW","TYPE":"Multicultural Centers","WEB_URL":"http://www.vidaseniorcenters.org/","WARD":1,"ADDRID":235322},"geometry":{"type":"Point","coordinates":[-77.04445542787393,38.92306850970356]}},{"type":"Feature","properties":{"OBJECTID":116,"X":397950.9904,"Y":140634.4599,"ARC_STREET":"3531 GEORGIA AVE NW","NAME":"Bernice Elizabeth Fonteneau Wellness Center","TELEPHONE":"202-727-0338","ADDRESS":"3531 GEORGIA AVE NW","TYPE":"Wellness Programs","WEB_URL":"http://dcoa.dc.gov/service/find-services","WARD":1,"ADDRID":228763},"geometry":{"type":"Point","coordinates":[-77.02363479975315,38.93359889744155]}}]}