{
"type": "FeatureCollection",
"crs": { "type": "name", "properties": { "name": "urn:ogc:def:crs:OGC:1.3:CRS84" } },
                                                                                
"features": [
{ "type": "Feature", "properties": { "OBJECTID": 1, "AGENCY": "DPR", "ADDRESS": "100 Stoddert Pl SE", "X": 404490.19, "Y": 135667.78, "ADDRID": 295821, "PROJECT_TITLE": "Benning Stoddert Modernization", "MAR_MATCHADDRESS": "100 STODDERT PLACE SE", "LABEL": "3", "YEAR": 2015 }, "geometry": { "type": "Point", "coordinates": [ -76.948246584399996, 38.888848273400001 ] } },
{ "type": "Feature", "properties": { "OBJECTID": 2, "AGENCY": "DPR", "ADDRESS": "5200 Sherier Place, NW", "X": 390931.96, "Y": 139636.31, "ADDRID": 268352, "PROJECT_TITLE": "Palisades Recreation Center", "MAR_MATCHADDRESS": "5200 SHERIER PLACE NW", "LABEL": "12", "YEAR": 2015 }, "geometry": { "type": "Point", "coordinates": [ -77.104576451200003, 38.924562849799997 ] } },
{ "type": "Feature", "properties": { "OBJECTID": 3, "AGENCY": "DPR", "ADDRESS": "403 7th St. SE", "X": 400302.33, "Y": 135138.52, "ADDRID": 280068, "PROJECT_TITLE": "Southeast Library ", "MAR_MATCHADDRESS": "403 7TH STREET SE", "LABEL": "13", "YEAR": 2015 }, "geometry": { "type": "Point", "coordinates": [ -76.996517740399995, 38.884091909699997 ] } },
{ "type": "Feature", "properties": { "OBJECTID": 4, "AGENCY": "DPR", "ADDRESS": "7420 Georgia Ave. NW", "X": 397657.48, "Y": 145817.5, "ADDRID": 253522, "PROJECT_TITLE": "Juanita E. Thornton \/ Shepherd Park Library", "MAR_MATCHADDRESS": "7420 GEORGIA AVENUE NW", "LABEL": "8", "YEAR": 2015 }, "geometry": { "type": "Point", "coordinates": [ -77.0270377457, 38.980288354099997 ] } },
{ "type": "Feature", "properties": { "OBJECTID": 5, "AGENCY": "DPR", "ADDRESS": "2901 20th Street NE", "X": 402099.41, "Y": 139883.09, "ADDRID": 287283, "PROJECT_TITLE": "Langdon Community Center", "MAR_MATCHADDRESS": "2901 20TH STREET NE", "LABEL": "9", "YEAR": 2015 }, "geometry": { "type": "Point", "coordinates": [ -76.975790770299994, 38.926830207499997 ] } },
{ "type": "Feature", "properties": { "OBJECTID": 6, "AGENCY": "DPR", "ADDRESS": "611 Alabama Avenue SE", "X": 400270.18, "Y": 130495.24, "ADDRID": 307835, "PROJECT_TITLE": "Congress Heights Recreation Center", "MAR_MATCHADDRESS": "611 ALABAMA AVENUE SE", "LABEL": "5", "YEAR": 2015 }, "geometry": { "type": "Point", "coordinates": [ -76.996890111200003, 38.842263314699998 ] } },
{ "type": "Feature", "properties": { "OBJECTID": 7, "AGENCY": "DPR", "ADDRESS": "3950 37th Street NW", "X": 393761.89, "Y": 141428.28, "ADDRID": 294586, "PROJECT_TITLE": "Hearst Park", "MAR_MATCHADDRESS": "3950 37TH STREET NW", "LABEL": "7", "YEAR": 2015 }, "geometry": { "type": "Point", "coordinates": [ -77.071957527600006, 38.9407301066 ] } },
{ "type": "Feature", "properties": { "OBJECTID": 8, "AGENCY": "DPR", "ADDRESS": "5601 Connecticut Avenue NW", "X": 393490.74, "Y": 144141.13, "ADDRID": 263959, "PROJECT_TITLE": "Chevy Chase Recreation Center", "MAR_MATCHADDRESS": "5601 CONNECTICUT AVENUE NW", "LABEL": "4", "YEAR": 2015 }, "geometry": { "type": "Point", "coordinates": [ -77.07511093, 38.965166218900002 ] } },
{ "type": "Feature", "properties": { "OBJECTID": 9, "AGENCY": "DPR", "ADDRESS": "2412 Rand Place NE", "X": 402500.41, "Y": 138428.3, "ADDRID": 296167, "PROJECT_TITLE": "Arboretum Community Center", "MAR_MATCHADDRESS": "2412 RAND PLACE NE", "LABEL": "1", "YEAR": 2015 }, "geometry": { "type": "Point", "coordinates": [ -76.971171522700004, 38.913723934700002 ] } },
{ "type": "Feature", "properties": { "OBJECTID": 10, "AGENCY": "DCPL", "ADDRESS": "3310 Connecticut Avenue NW", "X": 394984.89, "Y": 140660.69, "ADDRID": 221190, "PROJECT_TITLE": "Cleveland Park Library", "MAR_MATCHADDRESS": "3310 CONNECTICUT AVENUE NW", "LABEL": "1", "YEAR": 2015 }, "geometry": { "type": "Point", "coordinates": [ -77.057844882400005, 38.933823261500002 ] } },
{ "type": "Feature", "properties": { "OBJECTID": 11, "AGENCY": "DCPL", "ADDRESS": "5401 South Dakota Avenue NE", "X": 400036.03, "Y": 143024.96, "ADDRID": 288645, "PROJECT_TITLE": "Lamond Riggs Library", "MAR_MATCHADDRESS": "5401 SOUTH DAKOTA AVENUE NE", "LABEL": "2", "YEAR": 2015 }, "geometry": { "type": "Point", "coordinates": [ -76.999586604699999, 38.955135595500003 ] } },
{ "type": "Feature", "properties": { "OBJECTID": 12, "AGENCY": "DCPL", "ADDRESS": "901 G Street NW", "X": 397851.64, "Y": 136760.32, "ADDRID": 239815, "PROJECT_TITLE": "Martin Luther King Jr. Memorial Central Library", "MAR_MATCHADDRESS": "901 G STREET NW", "LABEL": "3", "YEAR": 2015 }, "geometry": { "type": "Point", "coordinates": [ -77.024768545499995, 38.898699116400003 ] } },
{ "type": "Feature", "properties": { "OBJECTID": 13, "AGENCY": "DCPL", "ADDRESS": "4901 V Street NW", "X": 391572.87, "Y": 138950.28, "ADDRID": 224474, "PROJECT_TITLE": "Palisades Library", "MAR_MATCHADDRESS": "4901 V STREET NW", "LABEL": "4", "YEAR": 2015 }, "geometry": { "type": "Point", "coordinates": [ -77.0971769529, 38.918389252499999 ] } },
{ "type": "Feature", "properties": { "OBJECTID": 14, "AGENCY": "DCPS", "ADDRESS": "4800 MEADE STREET NE", "X": 405836.91, "Y": 137635.93, "ADDRID": 294601, "PROJECT_TITLE": "Ward 7 Specialized School (Formerly Ron Brown Middle School)", "MAR_MATCHADDRESS": "4800 MEADE STREET NE", "LABEL": "33", "YEAR": 2015 }, "geometry": { "type": "Point", "coordinates": [ -76.932707042, 38.9065701711 ] } },
{ "type": "Feature", "properties": { "OBJECTID": 15, "AGENCY": "DCPS", "ADDRESS": "420 12TH STREET SE", "X": 400867.92, "Y": 135070.02, "ADDRID": 294486, "PROJECT_TITLE": "Watkins Elementary School", "MAR_MATCHADDRESS": "420 12TH STREET SE", "LABEL": "35", "YEAR": 2015 }, "geometry": { "type": "Point", "coordinates": [ -76.9899990487, 38.8834744591 ] } },
{ "type": "Feature", "properties": { "OBJECTID": 16, "AGENCY": "DCPS", "ADDRESS": "1338 FARRAGUT STREET NW", "X": 397204.26, "Y": 142607.98, "ADDRID": 294517, "PROJECT_TITLE": "West Education Campus", "MAR_MATCHADDRESS": "1338 FARRAGUT STREET NW", "LABEL": "36", "YEAR": 2015 }, "geometry": { "type": "Point", "coordinates": [ -77.032255352299998, 38.951374877399999 ] } },
{ "type": "Feature", "properties": { "OBJECTID": 17, "AGENCY": "DCPS", "ADDRESS": "1350 UPSHUR STREET NW", "X": 397292.79, "Y": 141516.39, "ADDRID": 255302, "PROJECT_TITLE": "Powell Elementary School", "MAR_MATCHADDRESS": "1350 UPSHUR STREET NW", "LABEL": "24", "YEAR": 2015 }, "geometry": { "type": "Point", "coordinates": [ -77.031229717299993, 38.941541804400003 ] } },
{ "type": "Feature", "properties": { "OBJECTID": 18, "AGENCY": "DCPS", "ADDRESS": "1755 NEWTON STREET NW", "X": 396483.93, "Y": 140715.67, "ADDRID": 294528, "PROJECT_TITLE": "Bancroft Elementary School", "MAR_MATCHADDRESS": "1755 NEWTON STREET NW", "LABEL": "2", "YEAR": 2015 }, "geometry": { "type": "Point", "coordinates": [ -77.0405557423, 38.934325816200001 ] } },
{ "type": "Feature", "properties": { "OBJECTID": 19, "AGENCY": "DCPS", "ADDRESS": "2435 ALABAMA AVENUE SE", "X": 402534.22, "Y": 131547.71, "ADDRID": 278160, "PROJECT_TITLE": "Garfield Elementary School", "MAR_MATCHADDRESS": "2435 ALABAMA AVENUE SE", "LABEL": "11", "YEAR": 2015 }, "geometry": { "type": "Point", "coordinates": [ -76.970807048400005, 38.851740821500002 ] } },
{ "type": "Feature", "properties": { "OBJECTID": 20, "AGENCY": "DCPS", "ADDRESS": "1100 50TH PLACE NE", "X": 406076.15, "Y": 137508.74, "ADDRID": 156316, "PROJECT_TITLE": "Houston Elementary School", "MAR_MATCHADDRESS": "1100 50TH PLACE NE", "LABEL": "13", "YEAR": 2015 }, "geometry": { "type": "Point", "coordinates": [ -76.929949908599994, 38.905422778199998 ] } },
{ "type": "Feature", "properties": { "OBJECTID": 21, "AGENCY": "DCPS", "ADDRESS": "4400 IOWA AVENUE NW", "X": 397592.04, "Y": 141746.55, "ADDRID": 294595, "PROJECT_TITLE": "Roosevelt High School @ MacFarland", "MAR_MATCHADDRESS": "4400 IOWA AVENUE NW", "LABEL": "26", "YEAR": 2015 }, "geometry": { "type": "Point", "coordinates": [ -77.027778635900006, 38.943615972 ] } },
{ "type": "Feature", "properties": { "OBJECTID": 22, "AGENCY": "DCPS", "ADDRESS": "4400 BROOKS STREET NE", "X": 405337.95, "Y": 136191.51, "ADDRID": 294596, "PROJECT_TITLE": "Smothers Elementary School", "MAR_MATCHADDRESS": "4400 BROOKS STREET NE", "LABEL": "29", "YEAR": 2015 }, "geometry": { "type": "Point", "coordinates": [ -76.938470902800006, 38.893561490099998 ] } },
{ "type": "Feature", "properties": { "OBJECTID": 23, "AGENCY": "DCPS", "ADDRESS": "1830 CONSTITUTION AVENUE NE", "X": 401823.73, "Y": 136065.31, "ADDRID": 286499, "PROJECT_TITLE": "Eliot-Hine Middle School", "MAR_MATCHADDRESS": "1830 CONSTITUTION AVENUE NE", "LABEL": "10", "YEAR": 2015 }, "geometry": { "type": "Point", "coordinates": [ -76.978980195700004, 38.892438946299997 ] } },
{ "type": "Feature", "properties": { "OBJECTID": 24, "AGENCY": "DCPS", "ADDRESS": "2020 19TH STREET NW", "X": 396151.48, "Y": 138827.7, "ADDRID": 294534, "PROJECT_TITLE": "Oyster-Adams Bilingual School (Adams)", "MAR_MATCHADDRESS": "2020 19TH STREET NW", "LABEL": "23", "YEAR": 2015 }, "geometry": { "type": "Point", "coordinates": [ -77.044379548899997, 38.917316991200003 ] } },
{ "type": "Feature", "properties": { "OBJECTID": 25, "AGENCY": "DMPED", "ADDRESS": "North Capitol St & Michigan Ave NW", "X": 399215.800957229977939, "Y": 139865.564223230001517, "ADDRID": 903363, "PROJECT_TITLE": "McMillan Site Redevelopment", "MAR_MATCHADDRESS": "NORTH CAPITOL STREET AND MICHIGAN AVENUE NW", "LABEL": "4", "YEAR": 2015 }, "geometry": { "type": "Point", "coordinates": [ -77.009046066099998, 38.926674486300001 ] } },
{ "type": "Feature", "properties": { "OBJECTID": 26, "AGENCY": "DMPED", "ADDRESS": "2700 Martin Luther King Jr. Avenue SE", "X": 400457.58, "Y": 131430.9, "ADDRID": 301562, "PROJECT_TITLE": "Saint Elizabeths East Campus Infrastructure", "MAR_MATCHADDRESS": "2700 MARTIN LUTHER KING JR AVENUE SE", "LABEL": "5", "YEAR": 2015 }, "geometry": { "type": "Point", "coordinates": [ -76.994730852700002, 38.850692076800001 ] } },
{ "type": "Feature", "properties": { "OBJECTID": 27, "AGENCY": "DMPED", "ADDRESS": "6900 Georgia Avenue SW", "X": 397500.13, "Y": 145406.93, "ADDRID": 292768, "PROJECT_TITLE": "Walter Reed Redevelompent", "MAR_MATCHADDRESS": "6900 GEORGIA AVENUE NW", "LABEL": "7", "YEAR": 2015 }, "geometry": { "type": "Point", "coordinates": [ -77.028852253300002, 38.976589413200003 ] } },
{ "type": "Feature", "properties": { "OBJECTID": 28, "AGENCY": "DMPED", "ADDRESS": "1230 Sumner Road SE", "X": 400290.79, "Y": 132532.6, "ADDRID": 285960, "PROJECT_TITLE": "Barry Farm, Park Chester, Wade Road", "MAR_MATCHADDRESS": "1230 SUMNER ROAD SE", "LABEL": "1", "YEAR": 2015 }, "geometry": { "type": "Point", "coordinates": [ -76.996651847, 38.860616734 ] } },
{ "type": "Feature", "properties": { "OBJECTID": 29, "AGENCY": "DMPED", "ADDRESS": "355 Water Street SE ", "X": 399904.87, "Y": 133965.58, "ADDRID": 311455, "PROJECT_TITLE": "The Yards Public Infrastructure (DC Water Facility)", "MAR_MATCHADDRESS": "355 WATER STREET SE", "LABEL": "6", "YEAR": 2015 }, "geometry": { "type": "Point", "coordinates": [ -77.001098552299993, 38.8735256509 ] } },
{ "type": "Feature", "properties": { "OBJECTID": 30, "AGENCY": "DMPED", "ADDRESS": "400 50th Street NE", "X": 406071.74, "Y": 136385.53, "ADDRID": 28532, "PROJECT_TITLE": "Lincoln Heights, Richardson Dwellings", "MAR_MATCHADDRESS": "400 50TH STREET NE", "LABEL": "3", "YEAR": 2015 }, "geometry": { "type": "Point", "coordinates": [ -76.930010679700004, 38.895304531900003 ] } },
{ "type": "Feature", "properties": { "OBJECTID": 31, "AGENCY": "DMPED", "ADDRESS": "19th Street SE and Independence Avenue SE", "X": 401973.279999780002981, "Y": 135527.819995199999539, "ADDRID": 900776, "PROJECT_TITLE": "Hill East Redevelopment", "MAR_MATCHADDRESS": "19TH STREET SE AND INDEPENDENCE AVENUE SE", "LABEL": "2", "YEAR": 2015 }, "geometry": { "type": "Point", "coordinates": [ -76.977257880300002, 38.887596711400001 ] } },
{ "type": "Feature", "properties": { "OBJECTID": 32, "AGENCY": "DDOT", "ADDRESS": "South Capitol Street (Anacostia River)", "X": 399469.79, "Y": 133467.05, "ADDRID": 303117, "PROJECT_TITLE": "South Capital\/Frederick Douglass Bridge", "MAR_MATCHADDRESS": "SOUTH CAPITOL STREET BRIDGE", "LABEL": "4", "YEAR": 2015 }, "geometry": { "type": "Point", "coordinates": [ -77.006111993900006, 38.869034535600001 ] } },
{ "type": "Feature", "properties": { "OBJECTID": 33, "AGENCY": "DCPS", "ADDRESS": "300 BRYANT STREET NW", "X": 398648.513, "Y": 139173.29, "ADDRID": 294475, "PROJECT_TITLE": "Washington Metropolitan High School", "MAR_MATCHADDRESS": "300 BRYANT STREET NW", "LABEL": "34", "YEAR": 2015 }, "geometry": { "type": "Point", "coordinates": [ -77.015586954699998, 38.920437575400001 ] } },
{ "type": "Feature", "properties": { "OBJECTID": 34, "AGENCY": "DCPS", "ADDRESS": "800 INGRAHAM STREET NW", "X": 397826.84, "Y": 142896.55, "ADDRID": 294497, "PROJECT_TITLE": "Truesdell Education Campus", "MAR_MATCHADDRESS": "800 INGRAHAM STREET NW", "LABEL": "30", "YEAR": 2015 }, "geometry": { "type": "Point", "coordinates": [ -77.025073870599996, 38.953976155299998 ] } },
{ "type": "Feature", "properties": { "OBJECTID": 35, "AGENCY": "DCPS", "ADDRESS": "920 F STREET NE", "X": 400591.35, "Y": 136634.98, "ADDRID": 289072, "PROJECT_TITLE": "School-Within-School @ Goding", "MAR_MATCHADDRESS": "920 F STREET NE", "LABEL": "27", "YEAR": 2015 }, "geometry": { "type": "Point", "coordinates": [ -76.993185305599994, 38.8975724501 ] } },
{ "type": "Feature", "properties": { "OBJECTID": 36, "AGENCY": "DCPS", "ADDRESS": "801 7TH STREET SW", "X": 398012.08, "Y": 134671.03, "ADDRID": 276812, "PROJECT_TITLE": "Jefferson Middle School Academy", "MAR_MATCHADDRESS": "801 7TH STREET SW", "LABEL": "15", "YEAR": 2015 }, "geometry": { "type": "Point", "coordinates": [ -77.022912949800002, 38.879878381799998 ] } },
{ "type": "Feature", "properties": { "OBJECTID": 37, "AGENCY": "DCPS", "ADDRESS": "301 53RD STREET SE", "X": 406410.5, "Y": 135087.2, "ADDRID": 289801, "PROJECT_TITLE": "C.W. Harris Elementary School", "MAR_MATCHADDRESS": "301 53RD STREET SE", "LABEL": "5", "YEAR": 2015 }, "geometry": { "type": "Point", "coordinates": [ -76.926117759, 38.883606284599999 ] } },
{ "type": "Feature", "properties": { "OBJECTID": 38, "AGENCY": "DCPS", "ADDRESS": "6315 5TH STREET NW", "X": 398303.3, "Y": 144374.62, "ADDRID": 294615, "PROJECT_TITLE": "Coolidge High School", "MAR_MATCHADDRESS": "6315 5TH STREET NW", "LABEL": "7", "YEAR": 2015 }, "geometry": { "type": "Point", "coordinates": [ -77.019580543900005, 38.9672920155 ] } },
{ "type": "Feature", "properties": { "OBJECTID": 39, "AGENCY": "DCPS", "ADDRESS": "2501 11TH STREET NW", "X": 397694.0, "Y": 139439.5, "ADDRID": 242979, "PROJECT_TITLE": "Duke Ellington School of the Arts", "MAR_MATCHADDRESS": "2501 11TH STREET NW", "LABEL": "8", "YEAR": 2015 }, "geometry": { "type": "Point", "coordinates": [ -77.026597762899996, 38.922833433699999 ] } },
{ "type": "Feature", "properties": { "OBJECTID": 40, "AGENCY": "DCPS", "ADDRESS": "2200 CHAMPLAIN STREET NW", "X": 396485.22, "Y": 139033.81, "ADDRID": 235577, "PROJECT_TITLE": "Marie Reed Elementary School", "MAR_MATCHADDRESS": "2200 CHAMPLAIN STREET NW", "LABEL": "18", "YEAR": 2015 }, "geometry": { "type": "Point", "coordinates": [ -77.040532250499993, 38.919175096300002 ] } },
{ "type": "Feature", "properties": { "OBJECTID": 41, "AGENCY": "DCPS", "ADDRESS": "533 48TH PLACE NE", "X": 405751.28, "Y": 136574.53, "ADDRID": 294490, "PROJECT_TITLE": "Aiton Elementary School", "MAR_MATCHADDRESS": "533 48TH PLACE NE", "LABEL": "1", "YEAR": 2015 }, "geometry": { "type": "Point", "coordinates": [ -76.933703178800002, 38.897009267500003 ] } },
{ "type": "Feature", "properties": { "OBJECTID": 42, "AGENCY": "DCPS", "ADDRESS": "4810 36TH STREET NW", "X": 393925.57, "Y": 142783.67, "ADDRID": 294602, "PROJECT_TITLE": "Murch Elementary School", "MAR_MATCHADDRESS": "4810 36TH STREET NW", "LABEL": "20", "YEAR": 2015 }, "geometry": { "type": "Point", "coordinates": [ -77.070081517800006, 38.952940984900003 ] } },
{ "type": "Feature", "properties": { "OBJECTID": 43, "AGENCY": "DCPS", "ADDRESS": "215 G STREET NE", "X": 399777.37, "Y": 136742.12, "ADDRID": 286687, "PROJECT_TITLE": "Capitol Hill Montessori @ Logan", "MAR_MATCHADDRESS": "215 G STREET NE", "LABEL": "6", "YEAR": 2015 }, "geometry": { "type": "Point", "coordinates": [ -77.002564985600003, 38.8985377622 ] } },
{ "type": "Feature", "properties": { "OBJECTID": 44, "AGENCY": "DCPS", "ADDRESS": "3219 O STREET NW", "X": 394402.37, "Y": 137797.48, "ADDRID": 294558, "PROJECT_TITLE": "Hyde-Addison Elementary School", "MAR_MATCHADDRESS": "3219 O STREET NW", "LABEL": "14", "YEAR": 2015 }, "geometry": { "type": "Point", "coordinates": [ -77.064540122699995, 38.908027021 ] } },
{ "type": "Feature", "properties": { "OBJECTID": 45, "AGENCY": "DCPS", "ADDRESS": "1250 CONSTITUTION AVENUE NE", "X": 400984.0, "Y": 136037.82, "ADDRID": 294511, "PROJECT_TITLE": "Maury Elementary School", "MAR_MATCHADDRESS": "1250 CONSTITUTION AVENUE NE", "LABEL": "19", "YEAR": 2015 }, "geometry": { "type": "Point", "coordinates": [ -76.988659780399999, 38.892192646700003 ] } },
{ "type": "Feature", "properties": { "OBJECTID": 46, "AGENCY": "DCPS", "ADDRESS": "2200 MINNESOTA AVENUE SE", "X": 402214.23, "Y": 133774.84, "ADDRID": 294539, "PROJECT_TITLE": "Orr Elementary School", "MAR_MATCHADDRESS": "2200 MINNESOTA AVENUE SE", "LABEL": "22", "YEAR": 2015 }, "geometry": { "type": "Point", "coordinates": [ -76.974486291199995, 38.8718046065 ] } },
{ "type": "Feature", "properties": { "OBJECTID": 47, "AGENCY": "DCPS", "ADDRESS": "5701 BROAD BRANCH ROAD NW", "X": 394103.71, "Y": 144303.7, "ADDRID": 294611, "PROJECT_TITLE": "Lafayette Elementary School", "MAR_MATCHADDRESS": "5701 BROAD BRANCH ROAD NW", "LABEL": "17", "YEAR": 2015 }, "geometry": { "type": "Point", "coordinates": [ -77.068039430900001, 38.966635018799998 ] } },
{ "type": "Feature", "properties": { "OBJECTID": 48, "AGENCY": "DCPS", "ADDRESS": "1200 S STREET NW", "X": 397518.52, "Y": 138448.81, "ADDRID": 294509, "PROJECT_TITLE": "Garrison Elementary School", "MAR_MATCHADDRESS": "1200 S STREET NW", "LABEL": "12", "YEAR": 2015 }, "geometry": { "type": "Point", "coordinates": [ -77.028614849500002, 38.913908747299999 ] } },
{ "type": "Feature", "properties": { "OBJECTID": 49, "AGENCY": "DCPS", "ADDRESS": "2425 N STREET NW", "X": 395461.95, "Y": 137735.74, "ADDRID": 294544, "PROJECT_TITLE": "School Without Walls @ Francis-Stevens", "MAR_MATCHADDRESS": "2425 N STREET NW", "LABEL": "28", "YEAR": 2015 }, "geometry": { "type": "Point", "coordinates": [ -77.052323297, 38.907476955500002 ] } },
{ "type": "Feature", "properties": { "OBJECTID": 50, "AGENCY": "DCPS", "ADDRESS": "850 26TH STREET NE", "X": 402544.36, "Y": 137194.17, "ADDRID": 294501, "PROJECT_TITLE": "Browne Education Campus", "MAR_MATCHADDRESS": "850 26TH STREET NE", "LABEL": "4", "YEAR": 2015 }, "geometry": { "type": "Point", "coordinates": [ -76.9706693328, 38.902606337900004 ] } },
{ "type": "Feature", "properties": { "OBJECTID": 51, "AGENCY": "DCPS", "ADDRESS": "915 SPRING ROAD NW", "X": 397708.28, "Y": 140880.94, "ADDRID": 226682, "PROJECT_TITLE": "Raymond Education Campus", "MAR_MATCHADDRESS": "915 SPRING ROAD NW", "LABEL": "25", "YEAR": 2015 }, "geometry": { "type": "Point", "coordinates": [ -77.026434954, 38.935818665299998 ] } },
{ "type": "Feature", "properties": { "OBJECTID": 52, "AGENCY": "DCPS", "ADDRESS": "3375 MINNESOTA AVENUE SE", "X": 403681.18, "Y": 135028.21, "ADDRID": 294565, "PROJECT_TITLE": "Kimball Elementary School", "MAR_MATCHADDRESS": "3375 MINNESOTA AVENUE SE", "LABEL": "16", "YEAR": 2015 }, "geometry": { "type": "Point", "coordinates": [ -76.9575749766, 38.883090541900003 ] } },
{ "type": "Feature", "properties": { "OBJECTID": 53, "AGENCY": "DCPS", "ADDRESS": "6201 5TH STREET NW", "X": 398332.71, "Y": 144216.17, "ADDRID": 294614, "PROJECT_TITLE": "New North Middle School", "MAR_MATCHADDRESS": "6201 5TH STREET NW", "LABEL": "21", "YEAR": 2015 }, "geometry": { "type": "Point", "coordinates": [ -77.019240895699994, 38.965864741200001 ] } },
{ "type": "Feature", "properties": { "OBJECTID": 54, "AGENCY": "DCPS", "ADDRESS": "800 EUCLID STREET NW", "X": 397920.84, "Y": 139551.17, "ADDRID": 294496, "PROJECT_TITLE": "Benjamin Banneker High School", "MAR_MATCHADDRESS": "800 EUCLID STREET NW", "LABEL": "3", "YEAR": 2015 }, "geometry": { "type": "Point", "coordinates": [ -77.023979260700003, 38.923840212899997 ] } },
{ "type": "Feature", "properties": { "OBJECTID": 55, "AGENCY": "DCPS", "ADDRESS": "3301 LOWELL STREET NW", "X": 394293.04, "Y": 140540.3, "ADDRID": 294562, "PROJECT_TITLE": "Eaton Elementary School", "MAR_MATCHADDRESS": "3301 LOWELL STREET NW", "LABEL": "9", "YEAR": 2015 }, "geometry": { "type": "Point", "coordinates": [ -77.065823444499998, 38.932734530200001 ] } },
{ "type": "Feature", "properties": { "OBJECTID": 56, "AGENCY": "DCPS", "ADDRESS": "1150 5TH STREET SE", "X": 400065.6, "Y": 134329.49, "ADDRID": 294508, "PROJECT_TITLE": "Van Ness Elementary School", "MAR_MATCHADDRESS": "1150 5TH STREET SE", "LABEL": "31", "YEAR": 2015 }, "geometry": { "type": "Point", "coordinates": [ -76.999245749400004, 38.876803561599999 ] } },
{ "type": "Feature", "properties": { "OBJECTID": 57, "AGENCY": "DDOT", "ADDRESS": "11th Street (Anacostia River)", "X": 400874.0, "Y": 133773.0, "ADDRID": null, "PROJECT_TITLE": "11th Street Bridge", "MAR_MATCHADDRESS": null, "LABEL": "1", "YEAR": 2015 }, "geometry": { "type": "Point", "coordinates": [ -76.989930622100005, 38.871790383799997 ] } },
{ "type": "Feature", "properties": { "OBJECTID": 58, "AGENCY": "DDOT", "ADDRESS": "H Street NE", "X": 400396.0, "Y": 136935.0, "ADDRID": null, "PROJECT_TITLE": "Streetcars - H St\/Benning Line", "MAR_MATCHADDRESS": null, "LABEL": "5", "YEAR": 2015 }, "geometry": { "type": "Point", "coordinates": [ -76.995433368099995, 38.900270962199997 ] } },
{ "type": "Feature", "properties": { "OBJECTID": 59, "AGENCY": "DDOT", "ADDRESS": "Klingle Road NW", "X": 395376.0, "Y": 140615.0, "ADDRID": null, "PROJECT_TITLE": "Klingle Trail", "MAR_MATCHADDRESS": null, "LABEL": "2", "YEAR": 2015 }, "geometry": { "type": "Point", "coordinates": [ -77.053333644099993, 38.9334138177 ] } },
{ "type": "Feature", "properties": { "OBJECTID": 60, "AGENCY": "DPR", "ADDRESS": null, "X": 398944.25, "Y": 133774.84, "ADDRID": null, "PROJECT_TITLE": "NoMa Parks", "MAR_MATCHADDRESS": null, "LABEL": "11", "YEAR": 2015 }, "geometry": { "type": "Point", "coordinates": [ -77.012169237600006, 38.903736358400003 ] } },
{ "type": "Feature", "properties": { "OBJECTID": 61, "AGENCY": "DPR", "ADDRESS": "6201 Nannie Helen Burroughs Ave NE", "X": 407607.38, "Y": 135995.36, "ADDRID": 288795, "PROJECT_TITLE": "Marvin Gaye Recreation Center", "MAR_MATCHADDRESS": "6201 BANKS PLACE NE", "LABEL": "10", "YEAR": 2015 }, "geometry": { "type": "Point", "coordinates": [ -76.9123069125, 38.891780169699999 ] } },
{ "type": "Feature", "properties": { "OBJECTID": 62, "AGENCY": "DDOT", "ADDRESS": "Mt Pleasant Street, Park Road to 16th St.", "X": 396730.48, "Y": 140202.25, "ADDRID": null, "PROJECT_TITLE": "Mt. Pleasant Streetscape", "MAR_MATCHADDRESS": null, "LABEL": "3", "YEAR": 2015 }, "geometry": { "type": "Point", "coordinates": [ -77.037694391299993, 38.929695769600002 ] } },
{ "type": "Feature", "properties": { "OBJECTID": 63, "AGENCY": "DCPL", "ADDRESS": "900 WESLEY PLACE SW", "X": 398626.28, "Y": 134540.69, "ADDRID": 295165, "PROJECT_TITLE": "Southwest Library ", "MAR_MATCHADDRESS": "900 WESLEY PLACE SW", "LABEL": "6", "YEAR": 2015 }, "geometry": { "type": "Point", "coordinates": [ -77.015833540800003, 38.878705787800001 ] } },
{ "type": "Feature", "properties": { "OBJECTID": 64, "AGENCY": "DCPS", "ADDRESS": "4400 Iowa Ave NW", "X": 397592.04, "Y": 141746.55, "ADDRID": 294595, "PROJECT_TITLE": "Ward 4 Middle School", "MAR_MATCHADDRESS": "4400 IOWA AVENUE NW", "LABEL": "32", "YEAR": 2015 }, "geometry": { "type": "Point", "coordinates": [ -77.027778702800006, 38.943616023399997 ] } },
{ "type": "Feature", "properties": { "OBJECTID": 65, "AGENCY": "DPR", "ADDRESS": "5100 Southern Ave SE", "X": 406339.46, "Y": 134665.37, "ADDRID": 296175, "PROJECT_TITLE": "Benning Park Recreation Center", "MAR_MATCHADDRESS": "5100 SOUTHERN AVENUE SE", "LABEL": "2", "YEAR": 2015 }, "geometry": { "type": "Point", "coordinates": [ -76.926940424500003, 38.879806792 ] } },
{ "type": "Feature", "properties": { "OBJECTID": 66, "AGENCY": "DPR", "ADDRESS": "3779 Ely Pl SE", "X": 404392.71, "Y": 134968.68, "ADDRID": 301486, "PROJECT_TITLE": "Fort Dupont Ice Arena", "MAR_MATCHADDRESS": "3779 ELY PLACE SE", "LABEL": "6", "YEAR": 2015 }, "geometry": { "type": "Point", "coordinates": [ -76.949374645600003, 38.882551006100002 ] } },
{ "type": "Feature", "properties": { "OBJECTID": 67, "AGENCY": "DCPL", "ADDRESS": "403 7th St SE", "X": 400302.33, "Y": 135138.52, "ADDRID": 280068, "PROJECT_TITLE": "Southeast Library", "MAR_MATCHADDRESS": "403 7TH STREET SE", "LABEL": "5", "YEAR": 2015 }, "geometry": { "type": "Point", "coordinates": [ -76.996517740399995, 38.884091909699997 ] } },
{ "type": "Feature", "properties": { "OBJECTID": 68, "AGENCY": "DPR", "ADDRESS": "6900 GEORGIA AVENUE NW", "X": 397500.13, "Y": 145406.93, "ADDRID": 292768, "PROJECT_TITLE": "Walter Reed Pool", "MAR_MATCHADDRESS": "6900 GEORGIA AVENUE NW", "LABEL": null, "YEAR": 2015 }, "geometry": { "type": "Point", "coordinates": [ -77.028852253300002, 38.976589413200003 ] } },
{ "type": "Feature", "properties": { "OBJECTID": 405, "AGENCY": "DDOT", "ADDRESS": "Rhode Island Avenue NE and Brentwood Road NE", "X": 401175.94, "Y": 139600.713694979989668, "ADDRID": 19066, "PROJECT_TITLE": "Rhode Island Avenue NE Streetscape", "MAR_MATCHADDRESS": "RHODE ISLAND AVENUE NE AND BRENTWOOD ROAD NE", "LABEL": null, "YEAR": 2015 }, "geometry": { "type": "Point", "coordinates": [ -76.988204998399993, 38.923750746700001 ] } }
]
}
