{"type":"FeatureCollection","features":[{"type":"Feature","properties":{"OBJECTID":1,"NAME":"4-Power, LLC (Power Check Cash)","ADDRESS":"1402 H STREET NE","ADDRESS_ID":149983,"FILENUMBER":5415,"XCOORD":401281.23,"YCOORD":136945.02},"geometry":{"type":"Point","coordinates":[-76.98523193849388,38.900364653693195]}},{"type":"Feature","properties":{"OBJECTID":2,"NAME":"4652 Livingston, Inc. (South Capitol Liquors)","ADDRESS":"4652 LIVINGSTON ROAD SE","ADDRESS_ID":276657,"FILENUMBER":4476,"XCOORD":399860.66,"YCOORD":128300.6},"geometry":{"type":"Point","coordinates":[-77.00160687410991,38.822493011585436]}},{"type":"Feature","properties":{"OBJECTID":3,"NAME":"A One  Cash Inc. (Checks Cashed)","ADDRESS":"3112 MOUNT PLEASANT STREET NW","ADDRESS_ID":236437,"FILENUMBER":3763,"XCOORD":396722.19,"YCOORD":140152.83},"geometry":{"type":"Point","coordinates":[-77.03780502390036,38.92925650203882]}},{"type":"Feature","properties":{"OBJECTID":4,"NAME":"AMKO International, Inc. (Capitol Supermarket)","ADDRESS":"1231 11TH STREET NW","ADDRESS_ID":239341,"FILENUMBER":3444,"XCOORD":397685.02,"YCOORD":137659.43},"geometry":{"type":"Point","coordinates":[-77.0266923691528,38.90679819582931]}},{"type":"Feature","properties":{"OBJECTID":5,"NAME":"Banstar, Inc. (Em-Kay Liquors)","ADDRESS":"1232 5TH STREET NE","ADDRESS_ID":301981,"FILENUMBER":3552,"XCOORD":400041.34,"YCOORD":137681.37},"geometry":{"type":"Point","coordinates":[-76.99952566161292,38.90699888761943]}},{"type":"Feature","properties":{"OBJECTID":6,"NAME":"Bhardwaj, Inc. (Check Cash Best)","ADDRESS":"2529 PENNSYLVANIA AVENUE SE","ADDRESS_ID":302054,"FILENUMBER":4437,"XCOORD":402605.1,"YCOORD":133878.5},"geometry":{"type":"Point","coordinates":[-76.96998165334291,38.8727373467339]}},{"type":"Feature","properties":{"OBJECTID":7,"NAME":"Centuria Group, Inc. ","ADDRESS":"7618 GEORGIA AVENUE NW","ADDRESS_ID":253581,"FILENUMBER":6385,"XCOORD":397670.98,"YCOORD":146089.43},"geometry":{"type":"Point","coordinates":[-77.02688286396241,38.982737995049625]}},{"type":"Feature","properties":{"OBJECTID":8,"NAME":"Certegy Check Services, Inc. ","ADDRESS":"1927 RHODE ISLAND AVENUE NE","ADDRESS_ID":286543,"FILENUMBER":6349,"XCOORD":402035.32,"YCOORD":140075.3},"geometry":{"type":"Point","coordinates":[-76.97652932041217,38.92856184635046]}},{"type":"Feature","properties":{"OBJECTID":9,"NAME":"Certegy Check Services, Inc. ","ADDRESS":"1101 SOUTH CAPITOL STREET SW","ADDRESS_ID":277736,"FILENUMBER":6357,"XCOORD":399170.93,"YCOORD":134369.85},"geometry":{"type":"Point","coordinates":[-77.00955690467896,38.87716709041802]}},{"type":"Feature","properties":{"OBJECTID":10,"NAME":"Certegy Check Services, Inc. ","ADDRESS":"25 PEABODY STREET NW","ADDRESS_ID":259364,"FILENUMBER":6358,"XCOORD":399073.48,"YCOORD":143897.21},"geometry":{"type":"Point","coordinates":[-77.01069283121483,38.96299256206087]}},{"type":"Feature","properties":{"OBJECTID":11,"NAME":"Certegy Check Services, Inc. ","ADDRESS":"950 EASTERN AVENUE NE","ADDRESS_ID":82882,"FILENUMBER":6359,"XCOORD":406658.1,"YCOORD":137286.77},"geometry":{"type":"Point","coordinates":[-76.92324271945263,38.90341897945518]}},{"type":"Feature","properties":{"OBJECTID":12,"NAME":"Certegy Check Services, Inc. ","ADDRESS":"1400 RHODE ISLAND AVENUE NW","ADDRESS_ID":243093,"FILENUMBER":6360,"XCOORD":397200.62,"YCOORD":137849.52},"geometry":{"type":"Point","coordinates":[-77.03227793373865,38.90850918307989]}},{"type":"Feature","properties":{"OBJECTID":13,"NAME":"Certegy Check Services, Inc. ","ADDRESS":"3530 CONNECTICUT AVENUE NW","ADDRESS_ID":284740,"FILENUMBER":6361,"XCOORD":394843.09,"YCOORD":140972.38},"geometry":{"type":"Point","coordinates":[-77.0594826981344,38.93663023758358]}},{"type":"Feature","properties":{"OBJECTID":14,"NAME":"Certegy Check Services, Inc. ","ADDRESS":"1900 WYOMING AVENUE NW","ADDRESS_ID":243234,"FILENUMBER":6362,"XCOORD":396116.81,"YCOORD":138956.13},"geometry":{"type":"Point","coordinates":[-77.04478005492993,38.91847377851552]}},{"type":"Feature","properties":{"OBJECTID":15,"NAME":"Certegy Check Services, Inc. ","ADDRESS":"333 HAWAII AVENUE NE","ADDRESS_ID":290127,"FILENUMBER":6363,"XCOORD":399925.06,"YCOORD":141488.61},"geometry":{"type":"Point","coordinates":[-77.00086670942389,38.94129572309729]}},{"type":"Feature","properties":{"OBJECTID":16,"NAME":"CHA Corporation (Lobby Mart)","ADDRESS":"501 3RD STREET NW","ADDRESS_ID":238368,"FILENUMBER":4276,"XCOORD":398717.88,"YCOORD":136523.46},"geometry":{"type":"Point","coordinates":[-77.01478210171805,38.896567085937825]}},{"type":"Feature","properties":{"OBJECTID":17,"NAME":"DK Corporation (Joe Caplan Liquor)","ADDRESS":"1913 7TH STREET NW","ADDRESS_ID":218566,"FILENUMBER":3737,"XCOORD":398116.38,"YCOORD":138680.55},"geometry":{"type":"Point","coordinates":[-77.02172189464589,38.9159978239036]}},{"type":"Feature","properties":{"OBJECTID":18,"NAME":"Don Ho, Inc. (District Liquors)","ADDRESS":"1211 11TH STREET NW","ADDRESS_ID":239344,"FILENUMBER":3443,"XCOORD":397685.66,"YCOORD":137597.25},"geometry":{"type":"Point","coordinates":[-77.0266847808327,38.906238058353445]}},{"type":"Feature","properties":{"OBJECTID":19,"NAME":"Fast Cash, Inc (Check Cash One)","ADDRESS":"3609 14TH STREET NW","ADDRESS_ID":230185,"FILENUMBER":4257,"XCOORD":397186.77,"YCOORD":140961.58},"geometry":{"type":"Point","coordinates":[-77.03245037362925,38.93654357926015]}},{"type":"Feature","properties":{"OBJECTID":20,"NAME":"Fast Cash, Inc. (Check Cash One)","ADDRESS":"3433 14TH STREET NW","ADDRESS_ID":230831,"FILENUMBER":4175,"XCOORD":397185.93,"YCOORD":140539.35},"geometry":{"type":"Point","coordinates":[-77.03245833058371,38.93274000113949]}},{"type":"Feature","properties":{"OBJECTID":21,"NAME":"Fast Cash, Inc. (Check Cash One)","ADDRESS":"5001 GEORGIA AVENUE NW","ADDRESS_ID":251856,"FILENUMBER":3727,"XCOORD":397667.49,"YCOORD":142573.02},"geometry":{"type":"Point","coordinates":[-77.02691117901934,38.95106130051086]}},{"type":"Feature","properties":{"OBJECTID":22,"NAME":"Fischer Corporation (The) (Riverside Liquors)","ADDRESS":"2123 E STREET NW","ADDRESS_ID":242543,"FILENUMBER":3336,"XCOORD":395862.69,"YCOORD":136495.99},"geometry":{"type":"Point","coordinates":[-77.04769553611168,38.896310823994156]}},{"type":"Feature","properties":{"OBJECTID":23,"NAME":"Gabriel, Inc. (Potomac Wine & Spirits)","ADDRESS":"3100 M STREET NW","ADDRESS_ID":273837,"FILENUMBER":3525,"XCOORD":394681.77,"YCOORD":137461.07},"geometry":{"type":"Point","coordinates":[-77.06131617797391,38.90499825780351]}},{"type":"Feature","properties":{"OBJECTID":24,"NAME":"Giant Enterprises, Inc. ","ADDRESS":"3504 GEORGIA AVENUE NW","ADDRESS_ID":232242,"FILENUMBER":6099,"XCOORD":397903.25,"YCOORD":140594.39},"geometry":{"type":"Point","coordinates":[-77.02418529698977,38.93323782315506]}},{"type":"Feature","properties":{"OBJECTID":25,"NAME":"Graham C. Fields (Graham Fields Inc. T/A Fields Records)","ADDRESS":"2844 ALABAMA AVENUE SE","ADDRESS_ID":43909,"FILENUMBER":4779,"XCOORD":402911.5,"YCOORD":132508.55},"geometry":{"type":"Point","coordinates":[-76.96645656450202,38.8603953116656]}},{"type":"Feature","properties":{"OBJECTID":26,"NAME":"GT Liquors, Inc. (Capitol Liquors)","ADDRESS":"1835 BENNING ROAD NE","ADDRESS_ID":54963,"FILENUMBER":5443,"XCOORD":402014.73,"YCOORD":136765.75},"geometry":{"type":"Point","coordinates":[-76.97677649008024,38.89874835004795]}},{"type":"Feature","properties":{"OBJECTID":27,"NAME":"H and Y Chun Corporation (Michigan Liquor Store)","ADDRESS":"3934 12TH STREET NE","ADDRESS_ID":29009,"FILENUMBER":3445,"XCOORD":400821.83,"YCOORD":141136.99},"geometry":{"type":"Point","coordinates":[-76.99052300258892,38.93812784594995]}},{"type":"Feature","properties":{"OBJECTID":28,"NAME":"Hi-Top, Inc. (Harvard Liquors)","ADDRESS":"2901 SHERMAN AVENUE NW","ADDRESS_ID":232642,"FILENUMBER":5269,"XCOORD":397772.8,"YCOORD":139900.76},"geometry":{"type":"Point","coordinates":[-77.02568759972398,38.92698906797814]}},{"type":"Feature","properties":{"OBJECTID":29,"NAME":"Hundal Inc. (Petworth Liquor)","ADDRESS":"3210 GEORGIA AVENUE NW","ADDRESS_ID":232966,"FILENUMBER":5465,"XCOORD":397943.23,"YCOORD":140276.65},"geometry":{"type":"Point","coordinates":[-77.02372323248423,38.930375618114226]}},{"type":"Feature","properties":{"OBJECTID":30,"NAME":"I & J Baik Corporation (Alabama Express)","ADDRESS":"2846 ALABAMA AVENUE SE","ADDRESS_ID":43929,"FILENUMBER":5740,"XCOORD":402918.35,"YCOORD":132513.58},"geometry":{"type":"Point","coordinates":[-76.96637761884475,38.86044060132575]}},{"type":"Feature","properties":{"OBJECTID":31,"NAME":"IGY Enterprises, LLC (Super Liquor)","ADDRESS":"1633 NORTH CAPITOL STREET NE","ADDRESS_ID":58903,"FILENUMBER":6115,"XCOORD":399240.51,"YCOORD":138287.26},"geometry":{"type":"Point","coordinates":[-77.00875936244361,38.912456625919255]}},{"type":"Feature","properties":{"OBJECTID":32,"NAME":"JHS Malcolm, Inc. (Malcolm Liquors)","ADDRESS":"3845 MINNESOTA AVENUE NE","ADDRESS_ID":29733,"FILENUMBER":6150,"XCOORD":404308.65,"YCOORD":136126.96},"geometry":{"type":"Point","coordinates":[-76.95033620621541,38.892985646654054]}},{"type":"Feature","properties":{"OBJECTID":33,"NAME":"Jong Hyeon Bark (Bernstein's Reliable Liquor)","ADDRESS":"39 M STREET SW","ADDRESS_ID":303647,"FILENUMBER":5940,"XCOORD":399111.19,"YCOORD":134317.25},"geometry":{"type":"Point","coordinates":[-77.01024531064036,38.876693190369]}},{"type":"Feature","properties":{"OBJECTID":34,"NAME":"Joo Family, Inc. (JJ Liquor)","ADDRESS":"1211 BRENTWOOD ROAD NE","ADDRESS_ID":285928,"FILENUMBER":6268,"XCOORD":400902.77,"YCOORD":139144.43},"geometry":{"type":"Point","coordinates":[-76.98959203127922,38.92017816439611]}},{"type":"Feature","properties":{"OBJECTID":35,"NAME":"JOT Inc. (Check Cash JOT)","ADDRESS":"2305 BENNING ROAD NE","ADDRESS_ID":49049,"FILENUMBER":5322,"XCOORD":402384.71,"YCOORD":136669.9},"geometry":{"type":"Point","coordinates":[-76.97251169615357,38.89788397282649]}},{"type":"Feature","properties":{"OBJECTID":36,"NAME":"Joung's Jefferson, Inc. ","ADDRESS":"5307 GEORGIA AVENUE NW","ADDRESS_ID":295086,"FILENUMBER":5895,"XCOORD":397615.92,"YCOORD":142946.38},"geometry":{"type":"Point","coordinates":[-77.0275074118487,38.95442449008662]}},{"type":"Feature","properties":{"OBJECTID":37,"NAME":"JY Riggs Liquors, Inc. (Riggs Liquors)","ADDRESS":"5581 SOUTH DAKOTA AVENUE NE","ADDRESS_ID":288682,"FILENUMBER":4409,"XCOORD":399909.66,"YCOORD":143360.18},"geometry":{"type":"Point","coordinates":[-77.00104459398551,38.958155341946565]}},{"type":"Feature","properties":{"OBJECTID":38,"NAME":"K & A, Inc. (Five Star Check Cashing)","ADDRESS":"1431 GOOD HOPE ROAD SE","ADDRESS_ID":286189,"FILENUMBER":3548,"XCOORD":401370.08,"YCOORD":133180.29},"geometry":{"type":"Point","coordinates":[-76.98421515664513,38.866450377132814]}},{"type":"Feature","properties":{"OBJECTID":39,"NAME":"Kamvs, LLC (Van Ness liquors)","ADDRESS":"4201 CONNECTICUT AVENUE NW","ADDRESS_ID":220631,"FILENUMBER":6225,"XCOORD":394570.14,"YCOORD":141732.62},"geometry":{"type":"Point","coordinates":[-77.06263695166281,38.94347705639947]}},{"type":"Feature","properties":{"OBJECTID":40,"NAME":"Lim Enterprises, Corp. ","ADDRESS":"527 14TH STREET NW","ADDRESS_ID":295084,"FILENUMBER":6331,"XCOORD":397250.49,"YCOORD":136519.99},"geometry":{"type":"Point","coordinates":[-77.03169763116934,38.89653246142389]}},{"type":"Feature","properties":{"OBJECTID":41,"NAME":"Lin's Enterprise, L.L.C. (Columbia Wine & Liquor)","ADDRESS":"1151 BLADENSBURG ROAD NE","ADDRESS_ID":285895,"FILENUMBER":3475,"XCOORD":401744.75,"YCOORD":137474.93},"geometry":{"type":"Point","coordinates":[-76.9798870164774,38.90513747381417]}},{"type":"Feature","properties":{"OBJECTID":42,"NAME":"Lucky Time Liquors, LLC (Shulman Liquors)","ADDRESS":"1550 1ST STREET SW","ADDRESS_ID":60745,"FILENUMBER":5997,"XCOORD":398972.59,"YCOORD":133674.2},"geometry":{"type":"Point","coordinates":[-77.01184163513575,38.87090018667599]}},{"type":"Feature","properties":{"OBJECTID":43,"NAME":"Mac's Liquors, Inc. (Mac's Wine & Liquors)","ADDRESS":"401 RHODE ISLAND AVENUE NE","ADDRESS_ID":28170,"FILENUMBER":5119,"XCOORD":399967.98,"YCOORD":139080.12},"geometry":{"type":"Point","coordinates":[-77.00037151899086,38.91959930155834]}},{"type":"Feature","properties":{"OBJECTID":44,"NAME":"Mahil Corporation (A-1 Wine & Liquor)","ADDRESS":"1420 K STREET NW","ADDRESS_ID":240271,"FILENUMBER":5742,"XCOORD":397153.92,"YCOORD":137143.57},"geometry":{"type":"Point","coordinates":[-77.03281343880862,38.90214958764481]}},{"type":"Feature","properties":{"OBJECTID":45,"NAME":"MELM, Inc. (Dave Brown's Wine and Liquors)","ADDRESS":"4721 SHERIFF ROAD NE","ADDRESS_ID":17779,"FILENUMBER":3822,"XCOORD":405644.47,"YCOORD":137197.13},"geometry":{"type":"Point","coordinates":[-76.93492933768901,38.9026185636846]}},{"type":"Feature","properties":{"OBJECTID":46,"NAME":"MG Liquors Inc. (Barrel House Liquor)","ADDRESS":"1341 14TH STREET NW","ADDRESS_ID":225407,"FILENUMBER":3471,"XCOORD":397262.11,"YCOORD":137861.32},"geometry":{"type":"Point","coordinates":[-77.03156902754323,38.908615675279485]}},{"type":"Feature","properties":{"OBJECTID":47,"NAME":"Milka & Mann, Inc. (Rocket Liquor)","ADDRESS":"900 KENNEDY STREET NW","ADDRESS_ID":285453,"FILENUMBER":3716,"XCOORD":397747.68,"YCOORD":143133.95},"geometry":{"type":"Point","coordinates":[-77.02598791323632,38.956114518440145]}},{"type":"Feature","properties":{"OBJECTID":48,"NAME":"NARA Incorporated (Bloomingdale Liquors)","ADDRESS":"1836 1ST STREET NW","ADDRESS_ID":279430,"FILENUMBER":4642,"XCOORD":398925.53,"YCOORD":138616.09},"geometry":{"type":"Point","coordinates":[-77.01239166226473,38.91541850875818]}},{"type":"Feature","properties":{"OBJECTID":49,"NAME":"Northwest Liquor (Northwest Liquor, Inc.)","ADDRESS":"300 KENNEDY STREET NW","ADDRESS_ID":249474,"FILENUMBER":3428,"XCOORD":398588.06,"YCOORD":143159.7},"geometry":{"type":"Point","coordinates":[-77.01629227470929,38.956348234539874]}},{"type":"Feature","properties":{"OBJECTID":50,"NAME":"O'Connor's Liquors, Inc. (O'Connor's Liquors)","ADDRESS":"2900 MINNESOTA AVENUE SE","ADDRESS_ID":287311,"FILENUMBER":3335,"XCOORD":402964.15,"YCOORD":134258.1},"geometry":{"type":"Point","coordinates":[-76.96584239977446,38.87615579855673]}},{"type":"Feature","properties":{"OBJECTID":51,"NAME":"P & D, Inc. (Skyland Liquors)","ADDRESS":"2648 NAYLOR ROAD SE","ADDRESS_ID":287163,"FILENUMBER":5805,"XCOORD":402755.15,"YCOORD":132658.56},"geometry":{"type":"Point","coordinates":[-76.96825739661335,38.861747168425495]}},{"type":"Feature","properties":{"OBJECTID":52,"NAME":"P.A.C.K. Corporation (Martin Luther King Grocery)","ADDRESS":"2420 MARTIN LUTHER KING JR AVENUE SE","ADDRESS_ID":47224,"FILENUMBER":3526,"XCOORD":400626.67,"YCOORD":132708.06},"geometry":{"type":"Point","coordinates":[-76.99278173357632,38.86219717642992]}},{"type":"Feature","properties":{"OBJECTID":53,"NAME":"Parki, Inc. (Imperial Liquors)","ADDRESS":"1050 17TH STREET NW","ADDRESS_ID":278801,"FILENUMBER":6126,"XCOORD":396632.21,"YCOORD":137279.33},"geometry":{"type":"Point","coordinates":[-77.03882865995375,38.90337071767953]}},{"type":"Feature","properties":{"OBJECTID":54,"NAME":"Prerna, Inc. (Barmy Wine & Liquor)","ADDRESS":"1912 L STREET NW","ADDRESS_ID":302227,"FILENUMBER":3870,"XCOORD":396173.34,"YCOORD":137304},"geometry":{"type":"Point","coordinates":[-77.04411898969052,38.903591075683345]}},{"type":"Feature","properties":{"OBJECTID":55,"NAME":"Prime Check Cash Inc. (Checks Cashed)","ADDRESS":"2812 ALABAMA AVENUE SE","ADDRESS_ID":44549,"FILENUMBER":4418,"XCOORD":402822.11,"YCOORD":132497.11},"geometry":{"type":"Point","coordinates":[-76.96748654493281,38.8602925466515]}},{"type":"Feature","properties":{"OBJECTID":56,"NAME":"R.K.S.R. Inc. (Whelan  Liquors)","ADDRESS":"3903 12TH STREET NE","ADDRESS_ID":289602,"FILENUMBER":5031,"XCOORD":400840.7,"YCOORD":141067.56},"geometry":{"type":"Point","coordinates":[-76.99030543424031,38.937502382024995]}},{"type":"Feature","properties":{"OBJECTID":57,"NAME":"Safeway Inc. (Safeway)","ADDRESS":"4865 MACARTHUR BOULEVARD NW","ADDRESS_ID":285004,"FILENUMBER":4722,"XCOORD":391678.11,"YCOORD":138844.95},"geometry":{"type":"Point","coordinates":[-77.09596213669981,38.91744140840144]}},{"type":"Feature","properties":{"OBJECTID":58,"NAME":"Safeway Inc. (Safeway)","ADDRESS":"322 40TH STREET NE","ADDRESS_ID":295141,"FILENUMBER":4724,"XCOORD":404558.4,"YCOORD":136144.21},"geometry":{"type":"Point","coordinates":[-76.9474572085865,38.89313978162736]}},{"type":"Feature","properties":{"OBJECTID":59,"NAME":"Safeway Inc. (Safeway)","ADDRESS":"6500 PINEY BRANCH ROAD NW","ADDRESS_ID":285341,"FILENUMBER":4725,"XCOORD":397699.34,"YCOORD":144623.03},"geometry":{"type":"Point","coordinates":[-77.02655062193581,38.96952840268181]}},{"type":"Feature","properties":{"OBJECTID":60,"NAME":"Safeway Inc. (Safeway)","ADDRESS":"6500 PINEY BRANCH ROAD NW","ADDRESS_ID":285341,"FILENUMBER":4726,"XCOORD":397699.34,"YCOORD":144623.03},"geometry":{"type":"Point","coordinates":[-77.02655062193581,38.96952840268181]}},{"type":"Feature","properties":{"OBJECTID":61,"NAME":"Safeway Inc. (Safeway)","ADDRESS":"4203 DAVENPORT STREET NW","ADDRESS_ID":301160,"FILENUMBER":4727,"XCOORD":392852.16,"YCOORD":142717.87},"geometry":{"type":"Point","coordinates":[-77.08246449753962,38.95234016155867]}},{"type":"Feature","properties":{"OBJECTID":62,"NAME":"Safeway Inc. (Safeway)","ADDRESS":"5545 CONNECTICUT AVENUE NW","ADDRESS_ID":263999,"FILENUMBER":4728,"XCOORD":393508.13,"YCOORD":144078.34},"geometry":{"type":"Point","coordinates":[-77.07490967685338,38.964600719775994]}},{"type":"Feature","properties":{"OBJECTID":63,"NAME":"Safeway Inc. (Safeway)","ADDRESS":"1747 COLUMBIA ROAD NW","ADDRESS_ID":284083,"FILENUMBER":4729,"XCOORD":396445.44,"YCOORD":139593.32},"geometry":{"type":"Point","coordinates":[-77.04099386279987,38.924215183487085]}},{"type":"Feature","properties":{"OBJECTID":64,"NAME":"Safeway Inc. (Safeway)","ADDRESS":"415 14TH STREET SE","ADDRESS_ID":26239,"FILENUMBER":4730,"XCOORD":401167.04,"YCOORD":135078.34},"geometry":{"type":"Point","coordinates":[-76.98655151955585,38.88354906285678]}},{"type":"Feature","properties":{"OBJECTID":65,"NAME":"Safeway Inc. (Safeway)","ADDRESS":"1601 MARYLAND AVENUE NE","ADDRESS_ID":297814,"FILENUMBER":4731,"XCOORD":401754.81,"YCOORD":136968.47},"geometry":{"type":"Point","coordinates":[-76.97977232815263,38.9005750820908]}},{"type":"Feature","properties":{"OBJECTID":66,"NAME":"Safeway Inc. (Safeway)","ADDRESS":"3830 GEORGIA AVENUE NW","ADDRESS_ID":225076,"FILENUMBER":4732,"XCOORD":397845.01,"YCOORD":141173.71},"geometry":{"type":"Point","coordinates":[-77.02485883166266,38.938456370779335]}},{"type":"Feature","properties":{"OBJECTID":67,"NAME":"Safeway Inc. (Safeway)","ADDRESS":"2550 VIRGINIA AVENUE NW","ADDRESS_ID":300847,"FILENUMBER":4733,"XCOORD":395245.65,"YCOORD":136798.63},"geometry":{"type":"Point","coordinates":[-77.05481061926534,38.899033993954305]}},{"type":"Feature","properties":{"OBJECTID":68,"NAME":"Safeway Inc. (Safeway)","ADDRESS":"1800 20TH STREET NW","ADDRESS_ID":302018,"FILENUMBER":4734,"XCOORD":396090.27,"YCOORD":138498.34},"geometry":{"type":"Point","coordinates":[-77.04508348532585,38.91434973636883]}},{"type":"Feature","properties":{"OBJECTID":69,"NAME":"Safeway, Inc. (Safeway)","ADDRESS":"1701 CORCORAN STREET NW","ADDRESS_ID":241699,"FILENUMBER":4723,"XCOORD":396621.59,"YCOORD":138243.64},"geometry":{"type":"Point","coordinates":[-77.03895583952456,38.912057515955205]}},{"type":"Feature","properties":{"OBJECTID":70,"NAME":"Safeway, Inc. (Safeway)","ADDRESS":"514 RHODE ISLAND AVENUE NE","ADDRESS_ID":288529,"FILENUMBER":4782,"XCOORD":400008.27,"YCOORD":139329.72},"geometry":{"type":"Point","coordinates":[-76.99990691748873,38.921847780356295]}},{"type":"Feature","properties":{"OBJECTID":71,"NAME":"Safeway, Inc. (Safeway)","ADDRESS":"2845 ALABAMA AVENUE SE","ADDRESS_ID":278282,"FILENUMBER":4783,"XCOORD":402892.75,"YCOORD":132357.23},"geometry":{"type":"Point","coordinates":[-76.96667323465996,38.859032219038944]}},{"type":"Feature","properties":{"OBJECTID":72,"NAME":"Safeway, Inc. (Safeway)","ADDRESS":"401 M STREET SW","ADDRESS_ID":28161,"FILENUMBER":4784,"XCOORD":398424.1,"YCOORD":134319.89},"geometry":{"type":"Point","coordinates":[-77.01816363705896,38.87671600929977]}},{"type":"Feature","properties":{"OBJECTID":73,"NAME":"Sahel Corporation (Big \"D\" Liquors)","ADDRESS":"4169 MINNESOTA AVENUE NE","ADDRESS_ID":288122,"FILENUMBER":3479,"XCOORD":404806.04,"YCOORD":136908.25},"geometry":{"type":"Point","coordinates":[-76.94459729654821,38.900021213333034]}},{"type":"Feature","properties":{"OBJECTID":74,"NAME":"Sammy's Liquors, Inc. (Sammy's Liquor)","ADDRESS":"2725 BLADENSBURG ROAD NE","ADDRESS_ID":45109,"FILENUMBER":6035,"XCOORD":403016.84,"YCOORD":139664.21},"geometry":{"type":"Point","coordinates":[-76.96521144137405,38.92485579663894]}},{"type":"Feature","properties":{"OBJECTID":75,"NAME":"Sanghera Corporation (King Avenue Liquors)","ADDRESS":"2755 MARTIN LUTHER KING JR AVENUE SE","ADDRESS_ID":302060,"FILENUMBER":3511,"XCOORD":400300.43,"YCOORD":130994.42},"geometry":{"type":"Point","coordinates":[-76.99654144756173,38.84676014077877]}},{"type":"Feature","properties":{"OBJECTID":76,"NAME":"SD Liquors, Inc. (Al's Liquors)","ADDRESS":"4009 SOUTH CAPITOL STREET SW","ADDRESS_ID":295371,"FILENUMBER":4661,"XCOORD":399306.12,"YCOORD":129251.94},"geometry":{"type":"Point","coordinates":[-77.00799374058754,38.83106286764328]}},{"type":"Feature","properties":{"OBJECTID":77,"NAME":"Selam Incorporated  (Kelly's Liquor) (Kelly's Liquor)","ADDRESS":"415 H STREET NE","ADDRESS_ID":26048,"FILENUMBER":3818,"XCOORD":400002.88,"YCOORD":136905.29},"geometry":{"type":"Point","coordinates":[-76.99996908233187,38.900007684718275]}},{"type":"Feature","properties":{"OBJECTID":78,"NAME":"Shivdeep & Navret Inc. (B & V Market)","ADDRESS":"1310 NORTH CAPITOL STREET NW","ADDRESS_ID":237048,"FILENUMBER":5385,"XCOORD":399188.81,"YCOORD":137768.05},"geometry":{"type":"Point","coordinates":[-77.00935486060783,38.90777935752708]}},{"type":"Feature","properties":{"OBJECTID":79,"NAME":"Shree Corp (Metro Wine and Spirit)","ADDRESS":"1726 COLUMBIA ROAD NW","ADDRESS_ID":284080,"FILENUMBER":4434,"XCOORD":396552.65,"YCOORD":139611.34},"geometry":{"type":"Point","coordinates":[-77.03975759592821,38.9243779405775]}},{"type":"Feature","properties":{"OBJECTID":80,"NAME":"Silverman's Mun Liquors, Inc. (Silverman Liquors)","ADDRESS":"2033 BENNING ROAD NE","ADDRESS_ID":52300,"FILENUMBER":3724,"XCOORD":402222.87,"YCOORD":136717.05},"geometry":{"type":"Point","coordinates":[-76.97437721129695,38.89830914121044]}},{"type":"Feature","properties":{"OBJECTID":81,"NAME":"SKR Funding, Inc. (The Gold Spot)","ADDRESS":"2216 MARTIN LUTHER KING JR AVENUE SE","ADDRESS_ID":50310,"FILENUMBER":5813,"XCOORD":400881.91,"YCOORD":132937.28},"geometry":{"type":"Point","coordinates":[-76.9898405416761,38.86426186714377]}},{"type":"Feature","properties":{"OBJECTID":82,"NAME":"SKR Funding, Inc. (The Gold Spot)","ADDRESS":"712 H STREET NE","ADDRESS_ID":77044,"FILENUMBER":5814,"XCOORD":400386.95,"YCOORD":136953.85},"geometry":{"type":"Point","coordinates":[-76.99554142061122,38.900445045678694]}},{"type":"Feature","properties":{"OBJECTID":83,"NAME":"Soo & Chan, Inc. (Georgia Avenue Food Barn)","ADDRESS":"6205 GEORGIA AVENUE NW","ADDRESS_ID":302323,"FILENUMBER":3489,"XCOORD":397638.16,"YCOORD":144152.68},"geometry":{"type":"Point","coordinates":[-77.02725498442231,38.965291212264034]}},{"type":"Feature","properties":{"OBJECTID":84,"NAME":"Soo Hwa & In Sook Park PTR (Suburban Liquors)","ADDRESS":"4347 HUNT PLACE NE","ADDRESS_ID":22805,"FILENUMBER":3501,"XCOORD":405257.61,"YCOORD":136941.92},"geometry":{"type":"Point","coordinates":[-76.9393912513547,38.900321940054496]}},{"type":"Feature","properties":{"OBJECTID":85,"NAME":"Spring, LLC (Blair Liquors)","ADDRESS":"6111 BLAIR ROAD NW","ADDRESS_ID":302128,"FILENUMBER":3666,"XCOORD":398999.15,"YCOORD":144065.02},"geometry":{"type":"Point","coordinates":[-77.01155072434973,38.96450415520289]}},{"type":"Feature","properties":{"OBJECTID":86,"NAME":"Starlight, Inc. (Kogod Liquor)","ADDRESS":"441 NEW JERSEY AVENUE NW","ADDRESS_ID":237161,"FILENUMBER":3592,"XCOORD":399050.2,"YCOORD":136454.38},"geometry":{"type":"Point","coordinates":[-77.01095114073543,38.895945210006964]}},{"type":"Feature","properties":{"OBJECTID":87,"NAME":"STC, Inc. (Washington Wine & Liquors)","ADDRESS":"1200 E STREET NW","ADDRESS_ID":301972,"FILENUMBER":3495,"XCOORD":397538.02,"YCOORD":136461.12},"geometry":{"type":"Point","coordinates":[-77.02838287947833,38.89600299133489]}},{"type":"Feature","properties":{"OBJECTID":88,"NAME":"Sunami, LLC (Sportsman's Wine & Liquors)","ADDRESS":"3249 MOUNT PLEASANT STREET NW","ADDRESS_ID":284620,"FILENUMBER":5541,"XCOORD":396658.36,"YCOORD":140480.38},"geometry":{"type":"Point","coordinates":[-77.0385427654729,38.932206933069025]}},{"type":"Feature","properties":{"OBJECTID":89,"NAME":"SWL Liquors, Inc. (Wheeler Liquors)","ADDRESS":"4137 WHEELER ROAD SE","ADDRESS_ID":300967,"FILENUMBER":6054,"XCOORD":400865.12,"YCOORD":129513.66},"geometry":{"type":"Point","coordinates":[-76.99003830699249,38.83342041161129]}},{"type":"Feature","properties":{"OBJECTID":90,"NAME":"Tama Inc (Benning Liquor)","ADDRESS":"3445 BENNING ROAD NE","ADDRESS_ID":287910,"FILENUMBER":4399,"XCOORD":403837.99,"YCOORD":136453.64},"geometry":{"type":"Point","coordinates":[-76.95575970761573,38.8959306808968]}},{"type":"Feature","properties":{"OBJECTID":91,"NAME":"TM  Liquors (Big Ben Liquors)","ADDRESS":"1300 NORTH CAPITOL STREET NW","ADDRESS_ID":237015,"FILENUMBER":5047,"XCOORD":399192.02,"YCOORD":137735.83},"geometry":{"type":"Point","coordinates":[-77.0093178131403,38.90748911151748]}},{"type":"Feature","properties":{"OBJECTID":92,"NAME":"Todos Banco IV Inc. dba Checks Cashed (Check Cashed)","ADDRESS":"1750 COLUMBIA ROAD NW","ADDRESS_ID":235692,"FILENUMBER":4219,"XCOORD":396480.37,"YCOORD":139540.16},"geometry":{"type":"Point","coordinates":[-77.0405907736417,38.9237364418135]}},{"type":"Feature","properties":{"OBJECTID":93,"NAME":"Todos Banco IV, Inc. (Check Cashed)","ADDRESS":"3161 MOUNT PLEASANT STREET NW","ADDRESS_ID":236401,"FILENUMBER":4344,"XCOORD":396716.9,"YCOORD":140309.2},"geometry":{"type":"Point","coordinates":[-77.03786678116806,38.93066511171317]}},{"type":"Feature","properties":{"OBJECTID":94,"NAME":"Todos Bancos IV dba Checks Cashed (Check Cashed)","ADDRESS":"3606 14TH STREET NW","ADDRESS_ID":234875,"FILENUMBER":4439,"XCOORD":397138.55,"YCOORD":140964.3},"geometry":{"type":"Point","coordinates":[-77.03300655942802,38.93656792609072]}},{"type":"Feature","properties":{"OBJECTID":95,"NAME":"Tri-Dev, Inc. (Cleveland Park Liquors)","ADDRESS":"3423 CONNECTICUT AVENUE NW","ADDRESS_ID":219252,"FILENUMBER":3580,"XCOORD":394993.59,"YCOORD":140803.41},"geometry":{"type":"Point","coordinates":[-77.0577455808761,38.9351089758604]}},{"type":"Feature","properties":{"OBJECTID":96,"NAME":"Un Yong, Inc. (800 Corner Store)","ADDRESS":"800 NORTH CAPITOL STREET NW","ADDRESS_ID":237165,"FILENUMBER":4183,"XCOORD":399156.14,"YCOORD":136961.34},"geometry":{"type":"Point","coordinates":[-77.00973053621344,38.90051219788372]}},{"type":"Feature","properties":{"OBJECTID":97,"NAME":"W & R, Inc. (Cairo Liquor)","ADDRESS":"1618 17TH STREET NW","ADDRESS_ID":241657,"FILENUMBER":3593,"XCOORD":396630.11,"YCOORD":138213.22},"geometry":{"type":"Point","coordinates":[-77.03885745340045,38.911783514963616]}},{"type":"Feature","properties":{"OBJECTID":98,"NAME":"Wines & Spirits Expo, LLC (Cork N Bottle)","ADDRESS":"7421 GEORGIA AVENUE NW","ADDRESS_ID":253722,"FILENUMBER":5991,"XCOORD":397736.54,"YCOORD":145792.65},"geometry":{"type":"Point","coordinates":[-77.02612521754345,38.980064707150696]}},{"type":"Feature","properties":{"OBJECTID":99,"NAME":"YC & Green World, Inc. (Woodridge Vet Liquor)","ADDRESS":"1358 BRENTWOOD ROAD NE","ADDRESS_ID":149316,"FILENUMBER":6068,"XCOORD":401217.94,"YCOORD":139689.61},"geometry":{"type":"Point","coordinates":[-76.98595669503707,38.92508894176052]}},{"type":"Feature","properties":{"OBJECTID":100,"NAME":"Yi keng Ung Liquors, LLC (Rose's Liquors)","ADDRESS":"830 BLADENSBURG ROAD NE","ADDRESS_ID":81066,"FILENUMBER":5044,"XCOORD":401489.26,"YCOORD":137081.15},"geometry":{"type":"Point","coordinates":[-76.98283342076047,38.90159063380496]}},{"type":"Feature","properties":{"OBJECTID":101,"NAME":"Young S., Inc. (Weltman's Liquors)","ADDRESS":"3938 MINNESOTA AVENUE NE","ADDRESS_ID":300614,"FILENUMBER":5933,"XCOORD":404318.72,"YCOORD":136264.08},"geometry":{"type":"Point","coordinates":[-76.95021926684176,38.89422082483423]}},{"type":"Feature","properties":{"OBJECTID":102,"NAME":"Young's Globe Liquor Inc. (Young's Globe Liquor)","ADDRESS":"4520 BENNING ROAD SE","ADDRESS_ID":278510,"FILENUMBER":4452,"XCOORD":405493.83,"YCOORD":135705.68},"geometry":{"type":"Point","coordinates":[-76.93667793477717,38.88918399250807]}}]}