{
"type": "FeatureCollection",
"crs": { "type": "name", "properties": { "name": "urn:ogc:def:crs:OGC:1.3:CRS84" } },
                                                                                
"features": [
{ "type": "Feature", "properties": { "OBJECTID": 1, "WEBURL": "http:\/\/www.iolp.gsa.gov\/iolp\/BuildingInfo.asp?bID=DC0398", "BLDG_NAME": "1 MASSACHUSETTS AVE NW ", "GIS_ID": "FED_144", "ALIAS": " ", "OWNERSHIP": "Leased", "X": 399170.78, "Y": 136696.43, "ADDRID": 238009, "ADDRESS": "1 MASSACHUSETTS AVENUE NW" }, "geometry": { "type": "Point", "coordinates": [ -77.009561442288586, 38.8981258068195 ] } },
{ "type": "Feature", "properties": { "OBJECTID": 2, "WEBURL": "http:\/\/www.iolp.gsa.gov\/iolp\/BuildingInfo.asp?bID=DC0218", "BLDG_NAME": "1 THOMAS CIR NW", "GIS_ID": null, "ALIAS": null, "OWNERSHIP": "Leased", "X": 397172.44, "Y": 137502.09, "ADDRID": 240253, "ADDRESS": "1 THOMAS CIRCLE NW" }, "geometry": { "type": "Point", "coordinates": [ -77.032601406381204, 38.905379322363032 ] } },
{ "type": "Feature", "properties": { "OBJECTID": 3, "WEBURL": "http:\/\/www.iolp.gsa.gov\/iolp\/BuildingInfo.asp?bID=DC0707", "BLDG_NAME": "1025 F STREET NW ", "GIS_ID": "FED_155", "ALIAS": " ", "OWNERSHIP": "Leased", "X": 397701.84, "Y": 136658.03, "ADDRID": 278794, "ADDRESS": "1025 F STREET NW" }, "geometry": { "type": "Point", "coordinates": [ -77.026495095289974, 38.897777272071522 ] } },
{ "type": "Feature", "properties": { "OBJECTID": 4, "WEBURL": "http:\/\/www.iolp.gsa.gov\/iolp\/BuildingInfo.asp?bID=DC0404", "BLDG_NAME": "1099 14TH STREET ", "GIS_ID": "FED_79", "ALIAS": " ", "OWNERSHIP": "Leased", "X": 397251.86, "Y": 137280.68, "ADDRID": 278809, "ADDRESS": "1099 14TH STREET NW" }, "geometry": { "type": "Point", "coordinates": [ -77.031684882083297, 38.903385034933095 ] } },
{ "type": "Feature", "properties": { "OBJECTID": 5, "WEBURL": "http:\/\/www.iolp.gsa.gov\/iolp\/BuildingInfo.asp?bID=DC0194", "BLDG_NAME": "1100 1ST ST NE", "GIS_ID": null, "ALIAS": null, "OWNERSHIP": "Leased", "X": 399453.96, "Y": 137350.49, "ADDRID": 306087, "ADDRESS": "1100 1ST STREET NE" }, "geometry": { "type": "Point", "coordinates": [ -77.006297494065279, 38.904018035437147 ] } },
{ "type": "Feature", "properties": { "OBJECTID": 6, "WEBURL": "http:\/\/www.iolp.gsa.gov\/iolp\/BuildingInfo.asp?bID=DC1184", "BLDG_NAME": "1100 L STREET, NW ", "GIS_ID": "FED_2", "ALIAS": " ", "OWNERSHIP": "Leased", "X": 397610.58, "Y": 137299.73, "ADDRID": 239119, "ADDRESS": "1100 L STREET NW" }, "geometry": { "type": "Point", "coordinates": [ -77.027549358136937, 38.903557692555658 ] } },
{ "type": "Feature", "properties": { "OBJECTID": 7, "WEBURL": "http:\/\/www.iolp.gsa.gov\/iolp\/BuildingInfo.asp?bID=DC0395", "BLDG_NAME": "111 MASSACHUSETTS AVE NW ", "GIS_ID": "FED_87", "ALIAS": " ", "OWNERSHIP": "Leased", "X": 398857.25, "Y": 136868.74, "ADDRID": 238363, "ADDRESS": "111 MASSACHUSETTS AVENUE NW" }, "geometry": { "type": "Point", "coordinates": [ -77.013176069069459, 38.899677685870792 ] } },
{ "type": "Feature", "properties": { "OBJECTID": 8, "WEBURL": "http:\/\/www.iolp.gsa.gov\/iolp\/BuildingInfo.asp?bID=DC1117", "BLDG_NAME": "1111 20TH STREET, NW ", "GIS_ID": "FED_187", "ALIAS": " ", "OWNERSHIP": "Leased", "X": 396140.4, "Y": 137359.53, "ADDRID": 278855, "ADDRESS": "1111 20TH STREET NW" }, "geometry": { "type": "Point", "coordinates": [ -77.044499059591644, 38.904091165492055 ] } },
{ "type": "Feature", "properties": { "OBJECTID": 9, "WEBURL": "http:\/\/www.iolp.gsa.gov\/iolp\/BuildingInfo.asp?bID=DC0432", "BLDG_NAME": "1120 20TH ST NW ", "GIS_ID": "FED_186", "ALIAS": " ", "OWNERSHIP": "Leased", "X": 396063.69, "Y": 137415.17, "ADDRID": 240941, "ADDRESS": "1120 20TH STREET NW" }, "geometry": { "type": "Point", "coordinates": [ -77.045383756971148, 38.904592049996126 ] } },
{ "type": "Feature", "properties": { "OBJECTID": 10, "WEBURL": "http:\/\/www.iolp.gsa.gov\/iolp\/BuildingInfo.asp?bID=DC0295", "BLDG_NAME": "1120 VERMONT AVE NW ", "GIS_ID": "FED_165", "ALIAS": " ", "OWNERSHIP": "Leased", "X": 397138.0, "Y": 137440.34, "ADDRID": 240249, "ADDRESS": "1120 VERMONT AVENUE NW" }, "geometry": { "type": "Point", "coordinates": [ -77.032998209983887, 38.904822945182808 ] } },
{ "type": "Feature", "properties": { "OBJECTID": 11, "WEBURL": "http:\/\/www.iolp.gsa.gov\/iolp\/BuildingInfo.asp?bID=DC0557", "BLDG_NAME": "1125 15TH ST NW", "GIS_ID": "FED_7", "ALIAS": " ", "OWNERSHIP": "Leased", "X": 397041.86, "Y": 137401.91, "ADDRID": 240247, "ADDRESS": "1125 15TH STREET NW" }, "geometry": { "type": "Point", "coordinates": [ -77.03410643998707, 38.904476435875814 ] } },
{ "type": "Feature", "properties": { "OBJECTID": 12, "WEBURL": "http:\/\/www.iolp.gsa.gov\/iolp\/BuildingInfo.asp?bID=DC0689", "BLDG_NAME": "1200 NEW JERSEY AVE, SE ", "GIS_ID": "FED_5", "ALIAS": " ", "OWNERSHIP": "Leased", "X": 399714.7, "Y": 134228.92, "ADDRID": 300402, "ADDRESS": "1200 NEW JERSEY AVENUE SE" }, "geometry": { "type": "Point", "coordinates": [ -77.003290165262314, 38.875897881769461 ] } },
{ "type": "Feature", "properties": { "OBJECTID": 13, "WEBURL": "http:\/\/www.iolp.gsa.gov\/iolp\/BuildingInfo.asp?bID=DC1392", "BLDG_NAME": "1201 15TH STREET, NW ", "GIS_ID": "FED_231", "ALIAS": " ", "OWNERSHIP": "Leased", "X": 397053.32, "Y": 137573.34, "ADDRID": 240244, "ADDRESS": "1201 15TH STREET NW" }, "geometry": { "type": "Point", "coordinates": [ -77.033975054195906, 38.906020776013243 ] } },
{ "type": "Feature", "properties": { "OBJECTID": 14, "WEBURL": "http:\/\/www.iolp.gsa.gov\/iolp\/BuildingInfo.asp?bID=DC0690", "BLDG_NAME": "1201 I ST NW ", "GIS_ID": "FED_6", "ALIAS": " ", "OWNERSHIP": "Leased", "X": 397522.71, "Y": 137086.75, "ADDRID": 240924, "ADDRESS": "1201 I STREET NW" }, "geometry": { "type": "Point", "coordinates": [ -77.028561622839277, 38.901638849678449 ] } },
{ "type": "Feature", "properties": { "OBJECTID": 15, "WEBURL": "http:\/\/www.iolp.gsa.gov\/iolp\/BuildingInfo.asp?bID=DC0068", "BLDG_NAME": "1201 MARYLAND AVE SW ", "GIS_ID": "FED_232", "ALIAS": " ", "OWNERSHIP": "Leased", "X": 397453.41, "Y": 135206.33, "ADDRID": 300320, "ADDRESS": "1201 MARYLAND AVENUE SW" }, "geometry": { "type": "Point", "coordinates": [ -77.029353573973225, 38.884699131084894 ] } },
{ "type": "Feature", "properties": { "OBJECTID": 16, "WEBURL": "http:\/\/www.iolp.gsa.gov\/iolp\/BuildingInfo.asp?bID=DC0712", "BLDG_NAME": "1201 New York Avenue NW", "GIS_ID": "FED_166", "ALIAS": " ", "OWNERSHIP": "Leased", "X": 397523.81, "Y": 137018.15, "ADDRID": 278918, "ADDRESS": "1201 NEW YORK AVENUE NW" }, "geometry": { "type": "Point", "coordinates": [ -77.028548694192366, 38.901020879439805 ] } },
{ "type": "Feature", "properties": { "OBJECTID": 17, "WEBURL": "http:\/\/www.iolp.gsa.gov\/iolp\/BuildingInfo.asp?bID=DC0571", "BLDG_NAME": "122 C STREET, NW", "GIS_ID": "FED_167", "ALIAS": " ", "OWNERSHIP": "Leased", "X": 398870.35, "Y": 136165.21, "ADDRID": 278952, "ADDRESS": "122 C STREET NW" }, "geometry": { "type": "Point", "coordinates": [ -77.013023893124114, 38.893340047208731 ] } },
{ "type": "Feature", "properties": { "OBJECTID": 18, "WEBURL": "http:\/\/www.iolp.gsa.gov\/iolp\/BuildingInfo.asp?bID=DC0813", "BLDG_NAME": "1220 L STREET, NW", "GIS_ID": "FED_39", "ALIAS": " ", "OWNERSHIP": "Leased", "X": 397472.05, "Y": 137281.07, "ADDRID": 240921, "ADDRESS": "1220 L STREET NW" }, "geometry": { "type": "Point", "coordinates": [ -77.029146369893979, 38.903389209117869 ] } },
{ "type": "Feature", "properties": { "OBJECTID": 19, "WEBURL": "http:\/\/www.iolp.gsa.gov\/iolp\/BuildingInfo.asp?bID=DC1105", "BLDG_NAME": "1222 22ND ST NW", "GIS_ID": "FED_40", "ALIAS": " ", "OWNERSHIP": "Leased", "X": 395735.71, "Y": 137558.79, "ADDRID": 276965, "ADDRESS": "1222 22ND STREET NW" }, "geometry": { "type": "Point", "coordinates": [ -77.049165909093773, 38.905884299188706 ] } },
{ "type": "Feature", "properties": { "OBJECTID": 20, "WEBURL": "http:\/\/www.iolp.gsa.gov\/iolp\/BuildingInfo.asp?bID=DC0060", "BLDG_NAME": "1227 25TH STREET, NW ", "GIS_ID": "FED_234", "ALIAS": " ", "OWNERSHIP": "Leased", "X": 395423.43, "Y": 137572.48, "ADDRID": 273948, "ADDRESS": "1227 25TH STREET NW" }, "geometry": { "type": "Point", "coordinates": [ -77.05276632150067, 38.906006052865131 ] } },
{ "type": "Feature", "properties": { "OBJECTID": 21, "WEBURL": "http:\/\/www.iolp.gsa.gov\/iolp\/BuildingInfo.asp?bID=DC0403", "BLDG_NAME": "1250 MARYLAND AVE SW ", "GIS_ID": "FED_154", "ALIAS": " ", "OWNERSHIP": "Leased", "X": 397446.48, "Y": 135095.71, "ADDRID": 289120, "ADDRESS": "1250 MARYLAND AVENUE SW" }, "geometry": { "type": "Point", "coordinates": [ -77.029433036125795, 38.883702603436987 ] } },
{ "type": "Feature", "properties": { "OBJECTID": 22, "WEBURL": "http:\/\/www.iolp.gsa.gov\/iolp\/BuildingInfo.asp?bID=DC0207", "BLDG_NAME": "1275 FIRST ST NE", "GIS_ID": null, "ALIAS": null, "OWNERSHIP": "Leased", "X": 399526.21, "Y": 137678.49, "ADDRID": 303729, "ADDRESS": "1275 1ST STREET NE" }, "geometry": { "type": "Point", "coordinates": [ -77.005464761501713, 38.906972816630045 ] } },
{ "type": "Feature", "properties": { "OBJECTID": 23, "WEBURL": "http:\/\/www.iolp.gsa.gov\/iolp\/BuildingInfo.asp?bID=DC1147", "BLDG_NAME": "1291 TAYLOR ST NW ", "GIS_ID": "FED_41", "ALIAS": " ", "OWNERSHIP": "Leased", "X": 397529.77, "Y": 141493.79, "ADDRID": 223665, "ADDRESS": "1291 TAYLOR STREET NW" }, "geometry": { "type": "Point", "coordinates": [ -77.028496092494009, 38.941338915376662 ] } },
{ "type": "Feature", "properties": { "OBJECTID": 24, "WEBURL": "http:\/\/www.iolp.gsa.gov\/iolp\/BuildingInfo.asp?bID=DC0422", "BLDG_NAME": "1301 K ST NW ", "GIS_ID": "FED_143", "ALIAS": " ", "OWNERSHIP": "Leased", "X": 397352.63, "Y": 137230.54, "ADDRID": 240647, "ADDRESS": "1301 K STREET NW" }, "geometry": { "type": "Point", "coordinates": [ -77.030522937504116, 38.902933665348037 ] } },
{ "type": "Feature", "properties": { "OBJECTID": 25, "WEBURL": "http:\/\/www.iolp.gsa.gov\/iolp\/BuildingInfo.asp?bID=DC0319", "BLDG_NAME": "1301 NEW YORK AVE", "GIS_ID": "FED_42", "ALIAS": " ", "OWNERSHIP": "Leased", "X": 397398.25, "Y": 136969.32, "ADDRID": 279022, "ADDRESS": "1301 NEW YORK AVENUE NW" }, "geometry": { "type": "Point", "coordinates": [ -77.029996010032022, 38.900580638574439 ] } },
{ "type": "Feature", "properties": { "OBJECTID": 26, "WEBURL": "http:\/\/www.iolp.gsa.gov\/iolp\/BuildingInfo.asp?bID=DC1234", "BLDG_NAME": "131 M ST NE ", "GIS_ID": "FED_250", "ALIAS": " ", "OWNERSHIP": "Leased", "X": 399583.74, "Y": 137478.45, "ADDRID": 68490, "ADDRESS": "131 M STREET NE" }, "geometry": { "type": "Point", "coordinates": [ -77.004801358245544, 38.905170815362212 ] } },
{ "type": "Feature", "properties": { "OBJECTID": 27, "WEBURL": "http:\/\/www.iolp.gsa.gov\/iolp\/BuildingInfo.asp?bID=DC0437", "BLDG_NAME": "1310 G ST NW", "GIS_ID": "FED_43", "ALIAS": " ", "OWNERSHIP": "Leased", "X": 397343.59, "Y": 136696.01, "ADDRID": 240663, "ADDRESS": "1310 G STREET NW" }, "geometry": { "type": "Point", "coordinates": [ -77.030625089186259, 38.898118399970237 ] } },
{ "type": "Feature", "properties": { "OBJECTID": 28, "WEBURL": "http:\/\/www.iolp.gsa.gov\/iolp\/BuildingInfo.asp?bID=DC0534", "BLDG_NAME": "1325 G ST, NW ", "GIS_ID": "FED_45", "ALIAS": " ", "OWNERSHIP": "Leased", "X": 397311.8, "Y": 136763.36, "ADDRID": 240653, "ADDRESS": "1325 G STREET NW" }, "geometry": { "type": "Point", "coordinates": [ -77.030991824424419, 38.898725016518711 ] } },
{ "type": "Feature", "properties": { "OBJECTID": 29, "WEBURL": "http:\/\/www.iolp.gsa.gov\/iolp\/BuildingInfo.asp?bID=DC0388", "BLDG_NAME": "1331 F STREET NW ", "GIS_ID": "FED_46", "ALIAS": " ", "OWNERSHIP": "Leased", "X": 397317.22, "Y": 136643.83, "ADDRID": 240659, "ADDRESS": "1331 F STREET NW" }, "geometry": { "type": "Point", "coordinates": [ -77.030928875844523, 38.897648263485863 ] } },
{ "type": "Feature", "properties": { "OBJECTID": 30, "WEBURL": "http:\/\/www.iolp.gsa.gov\/iolp\/BuildingInfo.asp?bID=DC0320", "BLDG_NAME": "1331 PENN AVENUE,NW", "GIS_ID": "FED_146", "ALIAS": " ", "OWNERSHIP": "Leased", "X": 397278.55, "Y": 136502.52, "ADDRID": 279081, "ADDRESS": "1331 PENNSYLVANIA AVENUE NW" }, "geometry": { "type": "Point", "coordinates": [ -77.031374096537633, 38.896375172606724 ] } },
{ "type": "Feature", "properties": { "OBJECTID": 31, "WEBURL": "http:\/\/www.iolp.gsa.gov\/iolp\/BuildingInfo.asp?bID=DC0811", "BLDG_NAME": "1341 G ST NW ", "GIS_ID": "FED_76", "ALIAS": " ", "OWNERSHIP": "Leased", "X": 397270.13, "Y": 136746.84, "ADDRID": 240652, "ADDRESS": "1341 G STREET NW" }, "geometry": { "type": "Point", "coordinates": [ -77.031472130042502, 38.898576069945079 ] } },
{ "type": "Feature", "properties": { "OBJECTID": 32, "WEBURL": "http:\/\/www.iolp.gsa.gov\/iolp\/BuildingInfo.asp?bID=DC0703", "BLDG_NAME": "1400 K ST NW", "GIS_ID": "FED_47", "ALIAS": " ", "OWNERSHIP": "Leased", "X": 397188.82, "Y": 137146.36, "ADDRID": 240269, "ADDRESS": "1400 K STREET NW" }, "geometry": { "type": "Point", "coordinates": [ -77.032411104118651, 38.90217483328032 ] } },
{ "type": "Feature", "properties": { "OBJECTID": 33, "WEBURL": "http:\/\/www.iolp.gsa.gov\/iolp\/BuildingInfo.asp?bID=DC0350", "BLDG_NAME": "1400 L STREET NW ", "GIS_ID": "FED_172", "ALIAS": " ", "OWNERSHIP": "Leased", "X": 397190.44, "Y": 137288.43, "ADDRID": 240266, "ADDRESS": "1400 L STREET NW" }, "geometry": { "type": "Point", "coordinates": [ -77.032393009093582, 38.903454655479884 ] } },
{ "type": "Feature", "properties": { "OBJECTID": 34, "WEBURL": "http:\/\/www.iolp.gsa.gov\/iolp\/BuildingInfo.asp?bID=DC0328", "BLDG_NAME": "1400 NEW YORK AVE NW", "GIS_ID": "FED_72", "ALIAS": " ", "OWNERSHIP": "Leased", "X": 397186.91, "Y": 136790.33, "ADDRID": 279125, "ADDRESS": "1400 NEW YORK AVENUE NW" }, "geometry": { "type": "Point", "coordinates": [ -77.032431665358189, 38.898967581185218 ] } },
{ "type": "Feature", "properties": { "OBJECTID": 35, "WEBURL": "http:\/\/www.iolp.gsa.gov\/iolp\/BuildingInfo.asp?bID=DC0426", "BLDG_NAME": "1401 H ST NW ", "GIS_ID": "FED_75", "ALIAS": " ", "OWNERSHIP": "Leased", "X": 397187.62, "Y": 136960.55, "ADDRID": 217998, "ADDRESS": "1401 H STREET NW" }, "geometry": { "type": "Point", "coordinates": [ -77.032424177480038, 38.900500986522502 ] } },
{ "type": "Feature", "properties": { "OBJECTID": 36, "WEBURL": "http:\/\/www.iolp.gsa.gov\/iolp\/BuildingInfo.asp?bID=DC0385", "BLDG_NAME": "1425 NEW YORK AVE NW ", "GIS_ID": "FED_48", "ALIAS": " ", "OWNERSHIP": "Leased", "X": 397174.19, "Y": 136849.53, "ADDRID": 300903, "ADDRESS": "1425 NEW YORK AVENUE NW" }, "geometry": { "type": "Point", "coordinates": [ -77.03257854543692, 38.899500835350494 ] } },
{ "type": "Feature", "properties": { "OBJECTID": 37, "WEBURL": "http:\/\/www.iolp.gsa.gov\/iolp\/BuildingInfo.asp?bID=DC1152", "BLDG_NAME": "1441 L ST", "GIS_ID": "FED_50", "ALIAS": " ", "OWNERSHIP": "Leased", "X": 397071.25, "Y": 137344.22, "ADDRID": 240245, "ADDRESS": "1441 L STREET NW" }, "geometry": { "type": "Point", "coordinates": [ -77.033767359056867, 38.903956842430361 ] } },
{ "type": "Feature", "properties": { "OBJECTID": 38, "WEBURL": "http:\/\/www.iolp.gsa.gov\/iolp\/BuildingInfo.asp?bID=DC0067", "BLDG_NAME": "145 N STREET, NE", "GIS_ID": null, "ALIAS": null, "OWNERSHIP": "Leased", "X": 399603.13, "Y": 137670.21, "ADDRID": 303732, "ADDRESS": "145 N STREET NE" }, "geometry": { "type": "Point", "coordinates": [ -77.004577921254551, 38.906898265630161 ] } },
{ "type": "Feature", "properties": { "OBJECTID": 39, "WEBURL": "http:\/\/www.iolp.gsa.gov\/iolp\/BuildingInfo.asp?bID=DC0197", "BLDG_NAME": "1575 EYE STREET, NW ", "GIS_ID": null, "ALIAS": null, "OWNERSHIP": "Leased", "X": 396923.31, "Y": 137084.13, "ADDRID": 218344, "ADDRESS": "1575 I STREET NW" }, "geometry": { "type": "Point", "coordinates": [ -77.035471769525927, 38.901613353910086 ] } },
{ "type": "Feature", "properties": { "OBJECTID": 40, "WEBURL": "http:\/\/www.iolp.gsa.gov\/iolp\/BuildingInfo.asp?bID=DC0424", "BLDG_NAME": "1615 M STREET, NW", "GIS_ID": null, "ALIAS": null, "OWNERSHIP": "Leased", "X": 396760.09, "Y": 137555.81, "ADDRID": 301103, "ADDRESS": "1615 M STREET NW" }, "geometry": { "type": "Point", "coordinates": [ -77.037355669212729, 38.905861827567705 ] } },
{ "type": "Feature", "properties": { "OBJECTID": 41, "WEBURL": "http:\/\/www.iolp.gsa.gov\/iolp\/BuildingInfo.asp?bID=DC0696", "BLDG_NAME": "1629 K STREET, NW ", "GIS_ID": "FED_153", "ALIAS": " ", "OWNERSHIP": "Leased", "X": 396712.9, "Y": 137230.4, "ADDRID": 242031, "ADDRESS": "1629 K STREET NW" }, "geometry": { "type": "Point", "coordinates": [ -77.037898171811392, 38.902930244383604 ] } },
{ "type": "Feature", "properties": { "OBJECTID": 42, "WEBURL": "http:\/\/www.iolp.gsa.gov\/iolp\/BuildingInfo.asp?bID=DC0045", "BLDG_NAME": "1717 H ST NW ", "GIS_ID": "FED_235", "ALIAS": " ", "OWNERSHIP": "Leased", "X": 396478.7, "Y": 136960.85, "ADDRID": 279331, "ADDRESS": "1717 H STREET NW" }, "geometry": { "type": "Point", "coordinates": [ -77.040596803736364, 38.900501134746918 ] } },
{ "type": "Feature", "properties": { "OBJECTID": 43, "WEBURL": "http:\/\/www.iolp.gsa.gov\/iolp\/BuildingInfo.asp?bID=DC0189", "BLDG_NAME": "1717 PENNSYLVANIA AVENUE, NW ", "GIS_ID": "FED_236", "ALIAS": " ", "OWNERSHIP": "Leased", "X": 396496.29, "Y": 136846.4, "ADDRID": 279332, "ADDRESS": "1717 PENNSYLVANIA AVENUE NW" }, "geometry": { "type": "Point", "coordinates": [ -77.040393437534604, 38.899470198304513 ] } },
{ "type": "Feature", "properties": { "OBJECTID": 44, "WEBURL": "http:\/\/www.iolp.gsa.gov\/iolp\/BuildingInfo.asp?bID=DC0852", "BLDG_NAME": "1722 I STREET NW ", "GIS_ID": "FED_80", "ALIAS": " ", "OWNERSHIP": "Leased", "X": 396455.45, "Y": 137020.49, "ADDRID": 279347, "ADDRESS": "1722 I STREET NW" }, "geometry": { "type": "Point", "coordinates": [ -77.04086514392489, 38.901038299772758 ] } },
{ "type": "Feature", "properties": { "OBJECTID": 45, "WEBURL": "http:\/\/www.iolp.gsa.gov\/iolp\/BuildingInfo.asp?bID=DC0423", "BLDG_NAME": "1730 M STREET MW ", "GIS_ID": "FED_51", "ALIAS": " ", "OWNERSHIP": "Leased", "X": 396539.28, "Y": 137499.67, "ADDRID": 241789, "ADDRESS": "1730 M STREET NW" }, "geometry": { "type": "Point", "coordinates": [ -77.039901136020532, 38.905355257036689 ] } },
{ "type": "Feature", "properties": { "OBJECTID": 46, "WEBURL": "http:\/\/www.iolp.gsa.gov\/iolp\/BuildingInfo.asp?bID=DC0199", "BLDG_NAME": "1735 NEW YORK AVE N.W ", "GIS_ID": null, "ALIAS": null, "OWNERSHIP": "Leased", "X": 396452.55, "Y": 136522.12, "ADDRID": 218464, "ADDRESS": "1735 NEW YORK AVENUE NW" }, "geometry": { "type": "Point", "coordinates": [ -77.04089600218812, 38.896548791036643 ] } },
{ "type": "Feature", "properties": { "OBJECTID": 47, "WEBURL": "http:\/\/www.iolp.gsa.gov\/iolp\/BuildingInfo.asp?bID=DC0560", "BLDG_NAME": "1750 PENNSYLVANIA AVE NW ", "GIS_ID": "FED_174", "ALIAS": " ", "OWNERSHIP": "Leased", "X": 396464.2, "Y": 136788.13, "ADDRID": 279377, "ADDRESS": "1750 PENNSYLVANIA AVENUE NW" }, "geometry": { "type": "Point", "coordinates": [ -77.040763074564254, 38.898945152624201 ] } },
{ "type": "Feature", "properties": { "OBJECTID": 48, "WEBURL": "http:\/\/www.iolp.gsa.gov\/iolp\/BuildingInfo.asp?bID=DC0371", "BLDG_NAME": "1776 G ST NW ", "GIS_ID": "FED_54", "ALIAS": " ", "OWNERSHIP": "Leased", "X": 396428.16, "Y": 136695.02, "ADDRID": 218480, "ADDRESS": "1776 G STREET NW" }, "geometry": { "type": "Point", "coordinates": [ -77.041178060334431, 38.898106238344276 ] } },
{ "type": "Feature", "properties": { "OBJECTID": 49, "WEBURL": "http:\/\/www.iolp.gsa.gov\/iolp\/BuildingInfo.asp?bID=DC1123", "BLDG_NAME": "1800 G ST NW ", "GIS_ID": "FED_55", "ALIAS": " ", "OWNERSHIP": "Leased", "X": 396305.46, "Y": 136686.3, "ADDRID": 218491, "ADDRESS": "1800 G STREET NW" }, "geometry": { "type": "Point", "coordinates": [ -77.042592485273758, 38.898027178249521 ] } },
{ "type": "Feature", "properties": { "OBJECTID": 50, "WEBURL": "http:\/\/www.iolp.gsa.gov\/iolp\/BuildingInfo.asp?bID=DC0506", "BLDG_NAME": "1800 M ST NW ", "GIS_ID": "FED_56", "ALIAS": " ", "OWNERSHIP": "Leased", "X": 396336.44, "Y": 137497.81, "ADDRID": 241302, "ADDRESS": "1800 M STREET NW" }, "geometry": { "type": "Point", "coordinates": [ -77.042239680516502, 38.905337679387237 ] } },
{ "type": "Feature", "properties": { "OBJECTID": 51, "WEBURL": "http:\/\/www.iolp.gsa.gov\/iolp\/BuildingInfo.asp?bID=DC0347", "BLDG_NAME": "1801 L ST NW ", "GIS_ID": "FED_175", "ALIAS": " ", "OWNERSHIP": "Leased", "X": 396356.58, "Y": 137348.25, "ADDRID": 240971, "ADDRESS": "1801 L STREET NW" }, "geometry": { "type": "Point", "coordinates": [ -77.042006691841635, 38.903990474015721 ] } },
{ "type": "Feature", "properties": { "OBJECTID": 52, "WEBURL": "http:\/\/www.iolp.gsa.gov\/iolp\/BuildingInfo.asp?bID=DC0714", "BLDG_NAME": "1900 HALF ST SW ", "GIS_ID": "FED_238", "ALIAS": " ", "OWNERSHIP": "Leased", "X": 399138.28, "Y": 133199.59, "ADDRID": 277760, "ADDRESS": "1900 HALF STREET SW" }, "geometry": { "type": "Point", "coordinates": [ -77.009931712226361, 38.866624883579419 ] } },
{ "type": "Feature", "properties": { "OBJECTID": 53, "WEBURL": "http:\/\/www.iolp.gsa.gov\/iolp\/BuildingInfo.asp?bID=DC0436", "BLDG_NAME": "1905 9TH ST NE ", "GIS_ID": "FED_147", "ALIAS": " ", "OWNERSHIP": "Leased", "X": 400583.63, "Y": 138764.04, "ADDRID": 54411, "ADDRESS": "1905 9TH STREET NE" }, "geometry": { "type": "Point", "coordinates": [ -76.99327250362775, 38.916751755505175 ] } },
{ "type": "Feature", "properties": { "OBJECTID": 54, "WEBURL": "http:\/\/www.iolp.gsa.gov\/iolp\/BuildingInfo.asp?bID=DC0345", "BLDG_NAME": "1990 K ST NW ", "GIS_ID": "FED_176", "ALIAS": " ", "OWNERSHIP": "Leased", "X": 396135.86, "Y": 137148.75, "ADDRID": 218576, "ADDRESS": "1990 K STREET NW" }, "geometry": { "type": "Point", "coordinates": [ -77.044550214634967, 38.902192364658568 ] } },
{ "type": "Feature", "properties": { "OBJECTID": 55, "WEBURL": "http:\/\/www.iolp.gsa.gov\/iolp\/BuildingInfo.asp?bID=DC0011", "BLDG_NAME": "2 MASSACHUSETTS AVE NE ", "GIS_ID": "FED_148", "ALIAS": " ", "OWNERSHIP": "Leased", "X": 399289.64, "Y": 136698.7, "ADDRID": 293217, "ADDRESS": "2 MASSACHUSETTS AVENUE NE" }, "geometry": { "type": "Point", "coordinates": [ -77.008191239364621, 38.89814635994005 ] } },
{ "type": "Feature", "properties": { "OBJECTID": 56, "WEBURL": "http:\/\/www.iolp.gsa.gov\/iolp\/BuildingInfo.asp?bID=DC0190", "BLDG_NAME": "20 M ST SE ", "GIS_ID": null, "ALIAS": null, "OWNERSHIP": "Leased", "X": 399314.32, "Y": 134328.67, "ADDRID": 301132, "ADDRESS": "20 M STREET SE" }, "geometry": { "type": "Point", "coordinates": [ -77.007904364610212, 38.876796248209345 ] } },
{ "type": "Feature", "properties": { "OBJECTID": 57, "WEBURL": "http:\/\/www.iolp.gsa.gov\/iolp\/BuildingInfo.asp?bID=DC1359", "BLDG_NAME": "20 MASSACHUSETTS AVE NW ", "GIS_ID": "FED_74", "ALIAS": " ", "OWNERSHIP": "Leased", "X": 399074.78, "Y": 136657.3, "ADDRID": 243242, "ADDRESS": "20 MASSACHUSETTS AVENUE NW" }, "geometry": { "type": "Point", "coordinates": [ -77.010668067216642, 38.897773213714522 ] } },
{ "type": "Feature", "properties": { "OBJECTID": 58, "WEBURL": "http:\/\/www.iolp.gsa.gov\/iolp\/BuildingInfo.asp?bID=DC1218", "BLDG_NAME": "2000 L ST NW ", "GIS_ID": null, "ALIAS": null, "OWNERSHIP": "Leased", "X": 396028.64, "Y": 137284.56, "ADDRID": 243349, "ADDRESS": "2000 L STREET NW" }, "geometry": { "type": "Point", "coordinates": [ -77.045787090886265, 38.903415311376563 ] } },
{ "type": "Feature", "properties": { "OBJECTID": 59, "WEBURL": "http:\/\/www.iolp.gsa.gov\/iolp\/BuildingInfo.asp?bID=DC1269", "BLDG_NAME": "2025 E ST NW ", "GIS_ID": "FED_239", "ALIAS": " ", "OWNERSHIP": "Leased", "X": 396033.99, "Y": 136507.33, "ADDRID": 293219, "ADDRESS": "2025 E STREET NW" }, "geometry": { "type": "Point", "coordinates": [ -77.045720924124637, 38.896413768439551 ] } },
{ "type": "Feature", "properties": { "OBJECTID": 60, "WEBURL": "http:\/\/www.iolp.gsa.gov\/iolp\/BuildingInfo.asp?bID=DC0467", "BLDG_NAME": "2041 MLK JR AVE, SE ", "GIS_ID": "FED_168", "ALIAS": " ", "OWNERSHIP": "Leased", "X": 400882.92, "Y": 133122.47, "ADDRID": 278056, "ADDRESS": "2041 MARTIN LUTHER KING JR AVENUE SE" }, "geometry": { "type": "Point", "coordinates": [ -76.98982866632619, 38.86593013448234 ] } },
{ "type": "Feature", "properties": { "OBJECTID": 61, "WEBURL": "http:\/\/www.iolp.gsa.gov\/iolp\/BuildingInfo.asp?bID=DC1230", "BLDG_NAME": "2100 2ND ST SW ", "GIS_ID": "FED_156", "ALIAS": " ", "OWNERSHIP": "Leased", "X": 398876.36, "Y": 132923.16, "ADDRID": 277778, "ADDRESS": "2100 2ND STREET SW" }, "geometry": { "type": "Point", "coordinates": [ -77.012949313131969, 38.864134391827257 ] } },
{ "type": "Feature", "properties": { "OBJECTID": 62, "WEBURL": "http:\/\/www.iolp.gsa.gov\/iolp\/BuildingInfo.asp?bID=DC1084", "BLDG_NAME": "2100 K ST NW ", "GIS_ID": "FED_149", "ALIAS": " ", "OWNERSHIP": "Leased", "X": 395923.82, "Y": 137153.68, "ADDRID": 242489, "ADDRESS": "2100 K STREET NW" }, "geometry": { "type": "Point", "coordinates": [ -77.046994757203393, 38.902235818059332 ] } },
{ "type": "Feature", "properties": { "OBJECTID": 63, "WEBURL": "http:\/\/www.iolp.gsa.gov\/iolp\/BuildingInfo.asp?bID=DC1222", "BLDG_NAME": "2100 M STREET NW ", "GIS_ID": "FED_59", "ALIAS": " ", "OWNERSHIP": "Leased", "X": 395922.96, "Y": 137446.32, "ADDRID": 279529, "ADDRESS": "2100 M STREET NW" }, "geometry": { "type": "Point", "coordinates": [ -77.047006409035717, 38.904872018593672 ] } },
{ "type": "Feature", "properties": { "OBJECTID": 64, "WEBURL": "http:\/\/www.iolp.gsa.gov\/iolp\/BuildingInfo.asp?bID=DC0386", "BLDG_NAME": "2100 PENNSYLVANIA AVE NW ", "GIS_ID": "FED_177", "ALIAS": " ", "OWNERSHIP": "Leased", "X": 395904.9, "Y": 137021.23, "ADDRID": 242495, "ADDRESS": "2100 PENNSYLVANIA AVENUE NW" }, "geometry": { "type": "Point", "coordinates": [ -77.047212087725413, 38.901042573300991 ] } },
{ "type": "Feature", "properties": { "OBJECTID": 65, "WEBURL": "http:\/\/www.iolp.gsa.gov\/iolp\/BuildingInfo.asp?bID=DC0340", "BLDG_NAME": "2121 VIRGINIA AVE N W ", "GIS_ID": "FED_60", "ALIAS": " ", "OWNERSHIP": "Leased", "X": 395825.58, "Y": 136505.97, "ADDRID": 242542, "ADDRESS": "2121 VIRGINIA AVENUE NW" }, "geometry": { "type": "Point", "coordinates": [ -77.048123385901178, 38.896400552022939 ] } },
{ "type": "Feature", "properties": { "OBJECTID": 66, "WEBURL": "http:\/\/www.iolp.gsa.gov\/iolp\/BuildingInfo.asp?bID=DC0055", "BLDG_NAME": "2200 C STREET, NW ", "GIS_ID": "FED_240", "ALIAS": " ", "OWNERSHIP": "Leased", "X": 395708.88, "Y": 136142.25, "ADDRID": 307327, "ADDRESS": "2200 C STREET NW" }, "geometry": { "type": "Point", "coordinates": [ -77.049466386144601, 38.893123466681018 ] } },
{ "type": "Feature", "properties": { "OBJECTID": 67, "WEBURL": "http:\/\/www.iolp.gsa.gov\/iolp\/BuildingInfo.asp?bID=DC1475", "BLDG_NAME": "25 MASSACHUSETTS AVE, NW ", "GIS_ID": "FED_242", "ALIAS": " ", "OWNERSHIP": "Leased", "X": 399096.59, "Y": 136734.14, "ADDRID": 300403, "ADDRESS": "25 MASSACHUSETTS AVENUE NW" }, "geometry": { "type": "Point", "coordinates": [ -77.010416746226795, 38.898465439041544 ] } },
{ "type": "Feature", "properties": { "OBJECTID": 68, "WEBURL": "http:\/\/www.iolp.gsa.gov\/iolp\/BuildingInfo.asp?bID=DC0468", "BLDG_NAME": "2800 V ST NE ", "GIS_ID": "FED_21", "ALIAS": " ", "OWNERSHIP": "Leased", "X": 402687.5, "Y": 139127.37, "ADDRID": 287275, "ADDRESS": "2800 V STREET NE" }, "geometry": { "type": "Point", "coordinates": [ -76.969011561751643, 38.920020837400926 ] } },
{ "type": "Feature", "properties": { "OBJECTID": 69, "WEBURL": "http:\/\/www.iolp.gsa.gov\/iolp\/BuildingInfo.asp?bID=DC1128", "BLDG_NAME": "300 7TH ST SW ", "GIS_ID": "FED_150", "ALIAS": " ", "OWNERSHIP": "Leased", "X": 398143.82, "Y": 135265.74, "ADDRID": 277852, "ADDRESS": "300 7TH STREET SW" }, "geometry": { "type": "Point", "coordinates": [ -77.021396260290842, 38.88523604810387 ] } },
{ "type": "Feature", "properties": { "OBJECTID": 70, "WEBURL": "http:\/\/www.iolp.gsa.gov\/iolp\/BuildingInfo.asp?bID=DC0814", "BLDG_NAME": "300 D STREET, SW ", "GIS_ID": "FED_90", "ALIAS": " ", "OWNERSHIP": "Leased", "X": 398548.06, "Y": 135224.62, "ADDRID": 156249, "ADDRESS": "300 D STREET SW" }, "geometry": { "type": "Point", "coordinates": [ -77.016736980148181, 38.884866384017926 ] } },
{ "type": "Feature", "properties": { "OBJECTID": 71, "WEBURL": "http:\/\/www.iolp.gsa.gov\/iolp\/BuildingInfo.asp?bID=DC0369", "BLDG_NAME": "300 E ST SW ", "GIS_ID": "FED_57", "ALIAS": " ", "OWNERSHIP": "Leased", "X": 398581.27, "Y": 135010.42, "ADDRID": 42489, "ADDRESS": "300 E STREET SW" }, "geometry": { "type": "Point", "coordinates": [ -77.016353767668335, 38.882936842016598 ] } },
{ "type": "Feature", "properties": { "OBJECTID": 72, "WEBURL": "http:\/\/www.iolp.gsa.gov\/iolp\/BuildingInfo.asp?bID=DC0391", "BLDG_NAME": "3015 V ST NE ", "GIS_ID": null, "ALIAS": null, "OWNERSHIP": "Leased", "X": 402963.02, "Y": 138959.84, "ADDRID": 150591, "ADDRESS": "3015 V STREET NE" }, "geometry": { "type": "Point", "coordinates": [ -76.965835144897895, 38.918510786544189 ] } },
{ "type": "Feature", "properties": { "OBJECTID": 73, "WEBURL": "http:\/\/www.iolp.gsa.gov\/iolp\/BuildingInfo.asp?bID=DC0692", "BLDG_NAME": "3025 V ST NE ", "GIS_ID": "FED_61", "ALIAS": " ", "OWNERSHIP": "Leased", "X": 402984.4, "Y": 138958.59, "ADDRID": 149326, "ADDRESS": "3025 V STREET NE" }, "geometry": { "type": "Point", "coordinates": [ -76.965588613561309, 38.918499453796677 ] } },
{ "type": "Feature", "properties": { "OBJECTID": 74, "WEBURL": "http:\/\/www.iolp.gsa.gov\/iolp\/BuildingInfo.asp?bID=DC1372", "BLDG_NAME": "3030 V STREET NE ", "GIS_ID": "FED_251", "ALIAS": " ", "OWNERSHIP": "Leased", "X": 403002.42, "Y": 139041.58, "ADDRID": 150597, "ADDRESS": "3030 V STREET NE" }, "geometry": { "type": "Point", "coordinates": [ -76.965380458718357, 38.919246993624284 ] } },
{ "type": "Feature", "properties": { "OBJECTID": 75, "WEBURL": "http:\/\/www.iolp.gsa.gov\/iolp\/BuildingInfo.asp?bID=DC0685", "BLDG_NAME": "3035 V STREET, NE ", "GIS_ID": "FED_157", "ALIAS": " ", "OWNERSHIP": "Leased", "X": 403012.9, "Y": 138955.65, "ADDRID": 149327, "ADDRESS": "3035 V STREET NE" }, "geometry": { "type": "Point", "coordinates": [ -76.965259987696115, 38.918472872074467 ] } },
{ "type": "Feature", "properties": { "OBJECTID": 76, "WEBURL": "http:\/\/www.iolp.gsa.gov\/iolp\/BuildingInfo.asp?bID=DC1372", "BLDG_NAME": "3070 V Street NE ", "GIS_ID": null, "ALIAS": null, "OWNERSHIP": "Leased", "X": 403126.07, "Y": 139033.61, "ADDRID": 149325, "ADDRESS": "3070 V STREET NE" }, "geometry": { "type": "Point", "coordinates": [ -76.963954649071368, 38.919174766156729 ] } },
{ "type": "Feature", "properties": { "OBJECTID": 77, "WEBURL": "http:\/\/www.iolp.gsa.gov\/iolp\/BuildingInfo.asp?bID=DC0686", "BLDG_NAME": "3165 V ST NE ", "GIS_ID": null, "ALIAS": null, "OWNERSHIP": "Leased", "X": 403305.46, "Y": 138941.4, "ADDRID": 149333, "ADDRESS": "3165 V STREET NE" }, "geometry": { "type": "Point", "coordinates": [ -76.961886494189486, 38.918343451808546 ] } },
{ "type": "Feature", "properties": { "OBJECTID": 78, "WEBURL": "http:\/\/www.iolp.gsa.gov\/iolp\/BuildingInfo.asp?bID=DC0713", "BLDG_NAME": "3298 FORT LINCOLN DRIVE ", "GIS_ID": "FED_244", "ALIAS": " ", "OWNERSHIP": "Leased", "X": 403752.35, "Y": 139266.78, "ADDRID": 151262, "ADDRESS": "3298 FORT LINCOLN DRIVE NE" }, "geometry": { "type": "Point", "coordinates": [ -76.956731556235084, 38.921272786876941 ] } },
{ "type": "Feature", "properties": { "OBJECTID": 79, "WEBURL": "http:\/\/www.iolp.gsa.gov\/iolp\/BuildingInfo.asp?bID=DC0397", "BLDG_NAME": "3365 V ST NE ", "GIS_ID": "FED_178", "ALIAS": " ", "OWNERSHIP": "Leased", "X": 403533.21, "Y": 138926.93, "ADDRID": 287844, "ADDRESS": "3365 V STREET NE" }, "geometry": { "type": "Point", "coordinates": [ -76.959260347135697, 38.918212215241709 ] } },
{ "type": "Feature", "properties": { "OBJECTID": 80, "WEBURL": "http:\/\/www.iolp.gsa.gov\/iolp\/BuildingInfo.asp?bID=DC0215", "BLDG_NAME": "355 E ST SW ", "GIS_ID": null, "ALIAS": null, "OWNERSHIP": "Leased", "X": 398580.42, "Y": 135084.38, "ADDRID": 307324, "ADDRESS": "355 E STREET SW" }, "geometry": { "type": "Point", "coordinates": [ -77.016363717108945, 38.883603100928724 ] } },
{ "type": "Feature", "properties": { "OBJECTID": 81, "WEBURL": "http:\/\/www.iolp.gsa.gov\/iolp\/BuildingInfo.asp?bID=DC0208", "BLDG_NAME": "375 E ST SW ", "GIS_ID": null, "ALIAS": null, "OWNERSHIP": "Leased", "X": 398532.44, "Y": 135133.52, "ADDRID": 307097, "ADDRESS": "375 E STREET SW" }, "geometry": { "type": "Point", "coordinates": [ -77.016916817759565, 38.884045694214784 ] } },
{ "type": "Feature", "properties": { "OBJECTID": 82, "WEBURL": "http:\/\/www.iolp.gsa.gov\/iolp\/BuildingInfo.asp?bID=DC0175", "BLDG_NAME": "395 E ST SW ", "GIS_ID": "FED_245", "ALIAS": " ", "OWNERSHIP": "Leased", "X": 398511.73, "Y": 135086.32, "ADDRID": 300404, "ADDRESS": "395 E STREET SW" }, "geometry": { "type": "Point", "coordinates": [ -77.017155411047028, 38.883620463581686 ] } },
{ "type": "Feature", "properties": { "OBJECTID": 83, "WEBURL": "http:\/\/www.iolp.gsa.gov\/iolp\/BuildingInfo.asp?bID=DC1170", "BLDG_NAME": "400 7TH ST SW ", "GIS_ID": null, "ALIAS": null, "OWNERSHIP": "Leased", "X": 398132.5, "Y": 135138.41, "ADDRID": 276612, "ADDRESS": "400 7TH STREET SW" }, "geometry": { "type": "Point", "coordinates": [ -77.021526386355262, 38.884088986533861 ] } },
{ "type": "Feature", "properties": { "OBJECTID": 84, "WEBURL": "http:\/\/www.iolp.gsa.gov\/iolp\/BuildingInfo.asp?bID=DC0309", "BLDG_NAME": "400 C ST SW ", "GIS_ID": "FED_78", "ALIAS": " ", "OWNERSHIP": "Leased", "X": 398438.66, "Y": 135331.91, "ADDRID": 276613, "ADDRESS": "400 C STREET SW" }, "geometry": { "type": "Point", "coordinates": [ -77.017998141004156, 38.885832705964589 ] } },
{ "type": "Feature", "properties": { "OBJECTID": 85, "WEBURL": "http:\/\/www.iolp.gsa.gov\/iolp\/BuildingInfo.asp?bID=DC0421", "BLDG_NAME": "400 VIRGINIA AVE SW ", "GIS_ID": "FED_93", "ALIAS": " ", "OWNERSHIP": "Leased", "X": 398423.92, "Y": 135156.16, "ADDRID": 28349, "ADDRESS": "400 VIRGINIA AVENUE SW" }, "geometry": { "type": "Point", "coordinates": [ -77.018167629673712, 38.884249456181045 ] } },
{ "type": "Feature", "properties": { "OBJECTID": 86, "WEBURL": "http:\/\/www.iolp.gsa.gov\/iolp\/BuildingInfo.asp?bID=DC0554", "BLDG_NAME": "401 9TH STREET NW ", "GIS_ID": "FED_185", "ALIAS": " ", "OWNERSHIP": "Leased", "X": 397948.93, "Y": 136400.21, "ADDRID": 242761, "ADDRESS": "401 9TH STREET NW" }, "geometry": { "type": "Point", "coordinates": [ -77.023645912480802, 38.895455346646457 ] } },
{ "type": "Feature", "properties": { "OBJECTID": 87, "WEBURL": "http:\/\/www.iolp.gsa.gov\/iolp\/BuildingInfo.asp?bID=DC0365", "BLDG_NAME": "409 3RD ST. S.W. ", "GIS_ID": "FED_65", "ALIAS": " ", "OWNERSHIP": "Leased", "X": 398647.87, "Y": 135196.57, "ADDRID": 156394, "ADDRESS": "409 3RD STREET SW" }, "geometry": { "type": "Point", "coordinates": [ -77.015586539851526, 38.884613858036239 ] } },
{ "type": "Feature", "properties": { "OBJECTID": 88, "WEBURL": "http:\/\/www.iolp.gsa.gov\/iolp\/BuildingInfo.asp?bID=DC0717", "BLDG_NAME": "425 3RD ST SW ", "GIS_ID": null, "ALIAS": null, "OWNERSHIP": "Leased", "X": 398656.31, "Y": 135084.17, "ADDRID": 306117, "ADDRESS": "425 3RD STREET SW" }, "geometry": { "type": "Point", "coordinates": [ -77.015489043030556, 38.88360132845343 ] } },
{ "type": "Feature", "properties": { "OBJECTID": 89, "WEBURL": "http:\/\/www.iolp.gsa.gov\/iolp\/BuildingInfo.asp?bID=DC1261", "BLDG_NAME": "425 EYE STREET NW 425 EYE STREET NW ", "GIS_ID": null, "ALIAS": null, "OWNERSHIP": "Leased", "X": 398530.44, "Y": 137094.66, "ADDRID": 237566, "ADDRESS": "425 I STREET NW" }, "geometry": { "type": "Point", "coordinates": [ -77.016944064914867, 38.901712368598822 ] } },
{ "type": "Feature", "properties": { "OBJECTID": 90, "WEBURL": "http:\/\/www.iolp.gsa.gov\/iolp\/BuildingInfo.asp?bID=DC0293", "BLDG_NAME": "429 LENFANT PLAZA, SW ", "GIS_ID": null, "ALIAS": null, "OWNERSHIP": "Leased", "X": 397816.18, "Y": 135111.72, "ADDRID": 302402, "ADDRESS": "429 LENFANT PLAZA SW" }, "geometry": { "type": "Point", "coordinates": [ -77.025172086901023, 38.883847823823388 ] } },
{ "type": "Feature", "properties": { "OBJECTID": 91, "WEBURL": "http:\/\/www.iolp.gsa.gov\/iolp\/BuildingInfo.asp?bID=DC0407", "BLDG_NAME": "445 12TH ST SW ", "GIS_ID": "FED_64", "ALIAS": " ", "OWNERSHIP": "Leased", "X": 397526.18, "Y": 135050.26, "ADDRID": 276640, "ADDRESS": "445 12TH STREET SW" }, "geometry": { "type": "Point", "coordinates": [ -77.028514285245265, 38.883293400178317 ] } },
{ "type": "Feature", "properties": { "OBJECTID": 92, "WEBURL": "http:\/\/www.iolp.gsa.gov\/iolp\/BuildingInfo.asp?bID=DC0049", "BLDG_NAME": "450 5TH STREET, NW ", "GIS_ID": "FED_246", "ALIAS": " ", "OWNERSHIP": "Leased", "X": 398325.89, "Y": 136417.91, "ADDRID": 238951, "ADDRESS": "450 5TH STREET NW" }, "geometry": { "type": "Point", "coordinates": [ -77.019300564108093, 38.895615593595053 ] } },
{ "type": "Feature", "properties": { "OBJECTID": 93, "WEBURL": "http:\/\/www.iolp.gsa.gov\/iolp\/BuildingInfo.asp?bID=DC0191", "BLDG_NAME": "455 MASSACHUSETTS AVE NW ", "GIS_ID": "FED_247", "ALIAS": " ", "OWNERSHIP": "Leased", "X": 398462.24, "Y": 137020.98, "ADDRID": 300381, "ADDRESS": "455 MASSACHUSETTS AVENUE NW" }, "geometry": { "type": "Point", "coordinates": [ -77.01773014169008, 38.901048516096317 ] } },
{ "type": "Feature", "properties": { "OBJECTID": 94, "WEBURL": "http:\/\/www.iolp.gsa.gov\/iolp\/BuildingInfo.asp?bID=DC0376", "BLDG_NAME": "470\/490 LENFANT PLZ SW ", "GIS_ID": null, "ALIAS": null, "OWNERSHIP": "Leased", "X": 397888.12, "Y": 135144.74, "ADDRID": 301852, "ADDRESS": "470 LENFANT PLAZA SW" }, "geometry": { "type": "Point", "coordinates": [ -77.024343037805721, 38.884145456480525 ] } },
{ "type": "Feature", "properties": { "OBJECTID": 95, "WEBURL": "http:\/\/www.iolp.gsa.gov\/iolp\/BuildingInfo.asp?bID=DC0040", "BLDG_NAME": "500 12TH ST, SW ", "GIS_ID": "FED_248", "ALIAS": " ", "OWNERSHIP": "Leased", "X": 397615.4, "Y": 135127.11, "ADDRID": 276665, "ADDRESS": "500 12TH STREET SW" }, "geometry": { "type": "Point", "coordinates": [ -77.027486247255482, 38.88398594117443 ] } },
{ "type": "Feature", "properties": { "OBJECTID": 96, "WEBURL": "http:\/\/www.iolp.gsa.gov\/iolp\/BuildingInfo.asp?bID=DC0377", "BLDG_NAME": "500 1ST ST NW ", "GIS_ID": "FED_66", "ALIAS": " ", "OWNERSHIP": "Leased", "X": 398908.81, "Y": 136503.95, "ADDRID": 238370, "ADDRESS": "500 1ST STREET NW" }, "geometry": { "type": "Point", "coordinates": [ -77.012581098354119, 38.896391590534058 ] } },
{ "type": "Feature", "properties": { "OBJECTID": 97, "WEBURL": "http:\/\/www.iolp.gsa.gov\/iolp\/BuildingInfo.asp?bID=DC0292", "BLDG_NAME": "500 C STREET,SW ", "GIS_ID": "FED_67", "ALIAS": " ", "OWNERSHIP": "Leased", "X": 398379.99, "Y": 135303.57, "ADDRID": 276666, "ADDRESS": "500 C STREET SW" }, "geometry": { "type": "Point", "coordinates": [ -77.018674299073353, 38.885577302222451 ] } },
{ "type": "Feature", "properties": { "OBJECTID": 98, "WEBURL": "http:\/\/www.iolp.gsa.gov\/iolp\/BuildingInfo.asp?bID=DC0331", "BLDG_NAME": "500 E ST SW ", "GIS_ID": "FED_68", "ALIAS": " ", "OWNERSHIP": "Leased", "X": 398341.79, "Y": 135014.98, "ADDRID": 15650, "ADDRESS": "500 E STREET SW" }, "geometry": { "type": "Point", "coordinates": [ -77.019113890578467, 38.882977501127876 ] } },
{ "type": "Feature", "properties": { "OBJECTID": 99, "WEBURL": "http:\/\/www.iolp.gsa.gov\/iolp\/BuildingInfo.asp?bID=DC0392", "BLDG_NAME": "501 3RD ST NW ", "GIS_ID": "FED_69", "ALIAS": " ", "OWNERSHIP": "Leased", "X": 398717.88, "Y": 136523.46, "ADDRID": 238368, "ADDRESS": "501 3RD STREET NW" }, "geometry": { "type": "Point", "coordinates": [ -77.014782101718055, 38.896567085937825 ] } },
{ "type": "Feature", "properties": { "OBJECTID": 100, "WEBURL": "http:\/\/www.iolp.gsa.gov\/iolp\/BuildingInfo.asp?bID=DC0361", "BLDG_NAME": "501 SCHOOL ST SW ", "GIS_ID": "FED_70", "ALIAS": " ", "OWNERSHIP": "Leased", "X": 398336.19, "Y": 135144.95, "ADDRID": 15274, "ADDRESS": "501 SCHOOL STREET SW" }, "geometry": { "type": "Point", "coordinates": [ -77.019178747808198, 38.88414831050639 ] } },
{ "type": "Feature", "properties": { "OBJECTID": 101, "WEBURL": "http:\/\/www.iolp.gsa.gov\/iolp\/BuildingInfo.asp?bID=DC0513", "BLDG_NAME": "515 22ND STREET., NW ", "GIS_ID": "FED_71", "ALIAS": " ", "OWNERSHIP": "Leased", "X": 395794.48, "Y": 136556.77, "ADDRID": 242539, "ADDRESS": "515 22ND STREET NW" }, "geometry": { "type": "Point", "coordinates": [ -77.048482205650188, 38.896858028691803 ] } },
{ "type": "Feature", "properties": { "OBJECTID": 102, "WEBURL": "http:\/\/www.iolp.gsa.gov\/iolp\/BuildingInfo.asp?bID=DC0466", "BLDG_NAME": "518 23RD STREET, NW ", "GIS_ID": "FED_182", "ALIAS": " ", "OWNERSHIP": "Leased", "X": 395555.6, "Y": 136521.78, "ADDRID": 298799, "ADDRESS": "518 23RD STREET NW" }, "geometry": { "type": "Point", "coordinates": [ -77.051235712797549, 38.896541650666528 ] } },
{ "type": "Feature", "properties": { "OBJECTID": 103, "WEBURL": "http:\/\/www.iolp.gsa.gov\/iolp\/BuildingInfo.asp?bID=DC0510", "BLDG_NAME": "520 23RD ST NW ", "GIS_ID": "FED_10", "ALIAS": " ", "OWNERSHIP": "Leased", "X": 395549.28, "Y": 136567.96, "ADDRID": 298800, "ADDRESS": "520 23RD STREET NW" }, "geometry": { "type": "Point", "coordinates": [ -77.051308866665622, 38.89695762494307 ] } },
{ "type": "Feature", "properties": { "OBJECTID": 104, "WEBURL": "http:\/\/www.iolp.gsa.gov\/iolp\/BuildingInfo.asp?bID=DC1178", "BLDG_NAME": "529 14TH ST NW ", "GIS_ID": "FED_142", "ALIAS": " ", "OWNERSHIP": "Leased", "X": 397263.41, "Y": 136574.85, "ADDRID": 301074, "ADDRESS": "529 14TH STREET NW" }, "geometry": { "type": "Point", "coordinates": [ -77.031548912707564, 38.897026700644801 ] } },
{ "type": "Feature", "properties": { "OBJECTID": 105, "WEBURL": "http:\/\/www.iolp.gsa.gov\/iolp\/BuildingInfo.asp?bID=DC0569", "BLDG_NAME": "550 12TH STREET SW ", "GIS_ID": "FED_188", "ALIAS": " ", "OWNERSHIP": "Leased", "X": 397613.24, "Y": 135047.29, "ADDRID": 276670, "ADDRESS": "550 12TH STREET SW" }, "geometry": { "type": "Point", "coordinates": [ -77.02751086530121, 38.883266885947478 ] } },
{ "type": "Feature", "properties": { "OBJECTID": 106, "WEBURL": "http:\/\/www.iolp.gsa.gov\/iolp\/BuildingInfo.asp?bID=DC0321", "BLDG_NAME": "555 4TH ST NW ", "GIS_ID": "FED_83", "ALIAS": " ", "OWNERSHIP": "Leased", "X": 398643.4, "Y": 136555.14, "ADDRID": 237750, "ADDRESS": "555 4TH STREET NW" }, "geometry": { "type": "Point", "coordinates": [ -77.015640742941784, 38.896852359141093 ] } },
{ "type": "Feature", "properties": { "OBJECTID": 107, "WEBURL": "http:\/\/www.iolp.gsa.gov\/iolp\/BuildingInfo.asp?bID=DC0326", "BLDG_NAME": "555 NEW JERSEY AVE NW ", "GIS_ID": "FED_73", "ALIAS": " ", "OWNERSHIP": "Leased", "X": 399024.7, "Y": 136577.65, "ADDRID": 218676, "ADDRESS": "555 NEW JERSEY AVENUE NW" }, "geometry": { "type": "Point", "coordinates": [ -77.011245268077644, 38.897055643333879 ] } },
{ "type": "Feature", "properties": { "OBJECTID": 108, "WEBURL": "http:\/\/www.iolp.gsa.gov\/iolp\/BuildingInfo.asp?bID=DC0226", "BLDG_NAME": "600 19th St NW ", "GIS_ID": null, "ALIAS": null, "OWNERSHIP": "Leased", "X": 396197.02, "Y": 136668.71, "ADDRID": 241087, "ADDRESS": "600 19TH STREET NW" }, "geometry": { "type": "Point", "coordinates": [ -77.043842470651555, 38.897868258664694 ] } },
{ "type": "Feature", "properties": { "OBJECTID": 109, "WEBURL": "http:\/\/www.iolp.gsa.gov\/iolp\/BuildingInfo.asp?bID=DC0173", "BLDG_NAME": "600 E STREET NW ", "GIS_ID": "FED_22", "ALIAS": " ", "OWNERSHIP": "Leased", "X": 398222.56, "Y": 136436.97, "ADDRID": 238715, "ADDRESS": "600 E STREET NW" }, "geometry": { "type": "Point", "coordinates": [ -77.020491748599554, 38.895787090175183 ] } },
{ "type": "Feature", "properties": { "OBJECTID": 110, "WEBURL": "http:\/\/www.iolp.gsa.gov\/iolp\/BuildingInfo.asp?bID=DC1216", "BLDG_NAME": "601 D ST NW ", "GIS_ID": "FED_145", "ALIAS": " ", "OWNERSHIP": "Leased", "X": 398218.26, "Y": 136357.86, "ADDRID": 238714, "ADDRESS": "601 D STREET NW" }, "geometry": { "type": "Point", "coordinates": [ -77.020541111690761, 38.895074429523007 ] } },
{ "type": "Feature", "properties": { "OBJECTID": 111, "WEBURL": "http:\/\/www.iolp.gsa.gov\/iolp\/BuildingInfo.asp?bID=DC0574", "BLDG_NAME": "601 NEW JERSEY AVE NW ", "GIS_ID": "FED_11", "ALIAS": " ", "OWNERSHIP": "Leased", "X": 398999.54, "Y": 136666.96, "ADDRID": 279844, "ADDRESS": "601 NEW JERSEY AVENUE NW" }, "geometry": { "type": "Point", "coordinates": [ -77.011535435613027, 38.897860152065839 ] } },
{ "type": "Feature", "properties": { "OBJECTID": 112, "WEBURL": "http:\/\/www.iolp.gsa.gov\/iolp\/BuildingInfo.asp?bID=DC1085", "BLDG_NAME": "616 H ST NW ", "GIS_ID": "FED_228", "ALIAS": " ", "OWNERSHIP": "Leased", "X": 398192.82, "Y": 136855.31, "ADDRID": 295093, "ADDRESS": "616 H STREET NW" }, "geometry": { "type": "Point", "coordinates": [ -77.020835677645906, 38.899555588442553 ] } },
{ "type": "Feature", "properties": { "OBJECTID": 113, "WEBURL": "http:\/\/www.iolp.gsa.gov\/iolp\/BuildingInfo.asp?bID=DC0368", "BLDG_NAME": "625 INDIANA AVE NW ", "GIS_ID": "FED_184", "ALIAS": " ", "OWNERSHIP": "Leased", "X": 398200.59, "Y": 136300.9, "ADDRID": 279862, "ADDRESS": "625 INDIANA AVENUE NW" }, "geometry": { "type": "Point", "coordinates": [ -77.020744651607004, 38.894561276861509 ] } },
{ "type": "Feature", "properties": { "OBJECTID": 114, "WEBURL": "http:\/\/www.iolp.gsa.gov\/iolp\/BuildingInfo.asp?bID=DC0216", "BLDG_NAME": "633 INDIANA AVENUE, NW ", "GIS_ID": null, "ALIAS": null, "OWNERSHIP": "Leased", "X": 398163.55, "Y": 136281.14, "ADDRID": 238716, "ADDRESS": "633 INDIANA AVENUE NW" }, "geometry": { "type": "Point", "coordinates": [ -77.02117157055963, 38.89438319487958 ] } },
{ "type": "Feature", "properties": { "OBJECTID": 115, "WEBURL": "http:\/\/www.iolp.gsa.gov\/iolp\/BuildingInfo.asp?bID=DC0364", "BLDG_NAME": "650 MASSACHUSETTS AVE NW ", "GIS_ID": "FED_13", "ALIAS": " ", "OWNERSHIP": "Leased", "X": 398141.26, "Y": 137089.12, "ADDRID": 243177, "ADDRESS": "650 MASSACHUSETTS AVENUE NW" }, "geometry": { "type": "Point", "coordinates": [ -77.021430700494676, 38.901661725341285 ] } },
{ "type": "Feature", "properties": { "OBJECTID": 116, "WEBURL": "http:\/\/www.iolp.gsa.gov\/iolp\/BuildingInfo.asp?bID=DC0549", "BLDG_NAME": "655 15TH ST NW ", "GIS_ID": "FED_140", "ALIAS": " ", "OWNERSHIP": "Leased", "X": 397122.2, "Y": 136673.07, "ADDRID": 279876, "ADDRESS": "655 15TH STREET NW" }, "geometry": { "type": "Point", "coordinates": [ -77.033177152712241, 38.897911051141875 ] } },
{ "type": "Feature", "properties": { "OBJECTID": 117, "WEBURL": "http:\/\/www.iolp.gsa.gov\/iolp\/BuildingInfo.asp?bID=DC0302", "BLDG_NAME": "717 14TH ST NW ", "GIS_ID": null, "ALIAS": null, "OWNERSHIP": "Leased", "X": 397262.45, "Y": 136783.55, "ADDRID": 279904, "ADDRESS": "717 14TH STREET NW" }, "geometry": { "type": "Point", "coordinates": [ -77.031560811126766, 38.898906743019445 ] } },
{ "type": "Feature", "properties": { "OBJECTID": 118, "WEBURL": "http:\/\/www.iolp.gsa.gov\/iolp\/BuildingInfo.asp?bID=DC0465", "BLDG_NAME": "740 - 15TH ST., NW ", "GIS_ID": "FED_14", "ALIAS": " ", "OWNERSHIP": "Leased", "X": 397056.86, "Y": 136896.83, "ADDRID": 293256, "ADDRESS": "740 15TH STREET NW" }, "geometry": { "type": "Point", "coordinates": [ -77.033931341707174, 38.899926545731581 ] } },
{ "type": "Feature", "properties": { "OBJECTID": 119, "WEBURL": "http:\/\/www.iolp.gsa.gov\/iolp\/BuildingInfo.asp?bID=DC0370", "BLDG_NAME": "750 17TH ST NW ", "GIS_ID": "FED_15", "ALIAS": " ", "OWNERSHIP": "Leased", "X": 396545.44, "Y": 136880.87, "ADDRID": 218751, "ADDRESS": "750 17TH STREET NW" }, "geometry": { "type": "Point", "coordinates": [ -77.039827004377784, 38.899780911024372 ] } },
{ "type": "Feature", "properties": { "OBJECTID": 120, "WEBURL": "http:\/\/www.iolp.gsa.gov\/iolp\/BuildingInfo.asp?bID=DC0198", "BLDG_NAME": "77 K ST NE ", "GIS_ID": null, "ALIAS": null, "OWNERSHIP": "Leased", "X": 399446.61, "Y": 137139.29, "ADDRID": 304768, "ADDRESS": "77 K STREET NE" }, "geometry": { "type": "Point", "coordinates": [ -77.006382060791964, 38.902115466196044 ] } },
{ "type": "Feature", "properties": { "OBJECTID": 121, "WEBURL": "http:\/\/www.iolp.gsa.gov\/iolp\/BuildingInfo.asp?bID=DC0555", "BLDG_NAME": "800 9TH STREET, SW ", "GIS_ID": "FED_91", "ALIAS": " ", "OWNERSHIP": "Leased", "X": 397900.97, "Y": 134751.15, "ADDRID": 276806, "ADDRESS": "800 9TH STREET SW" }, "geometry": { "type": "Point", "coordinates": [ -77.024193731064898, 38.880599875828871 ] } },
{ "type": "Feature", "properties": { "OBJECTID": 122, "WEBURL": "http:\/\/www.iolp.gsa.gov\/iolp\/BuildingInfo.asp?bID=DC0366", "BLDG_NAME": "800 K ST., N.W. ", "GIS_ID": "FED_151", "ALIAS": " ", "OWNERSHIP": "Leased", "X": 398050.38, "Y": 137104.91, "ADDRID": 218759, "ADDRESS": "800 K STREET NW" }, "geometry": { "type": "Point", "coordinates": [ -77.022478452073557, 38.901803770393826 ] } },
{ "type": "Feature", "properties": { "OBJECTID": 123, "WEBURL": "http:\/\/www.iolp.gsa.gov\/iolp\/BuildingInfo.asp?bID=DC0406", "BLDG_NAME": "800 N CAPITOL ST NW ", "GIS_ID": "FED_17", "ALIAS": " ", "OWNERSHIP": "Leased", "X": 399156.14, "Y": 136961.34, "ADDRID": 237165, "ADDRESS": "800 NORTH CAPITOL STREET NW" }, "geometry": { "type": "Point", "coordinates": [ -77.009730536213439, 38.900512197883721 ] } },
{ "type": "Feature", "properties": { "OBJECTID": 124, "WEBURL": "http:\/\/www.iolp.gsa.gov\/iolp\/BuildingInfo.asp?bID=DC0367", "BLDG_NAME": "801 EYE ST NW ", "GIS_ID": "FED_152", "ALIAS": " ", "OWNERSHIP": "Leased", "X": 397983.67, "Y": 137031.04, "ADDRID": 279944, "ADDRESS": "801 I STREET NW" }, "geometry": { "type": "Point", "coordinates": [ -77.023247300506767, 38.901138172496616 ] } },
{ "type": "Feature", "properties": { "OBJECTID": 125, "WEBURL": "http:\/\/www.iolp.gsa.gov\/iolp\/BuildingInfo.asp?bID=DC0382", "BLDG_NAME": "810 7TH STREET NW ", "GIS_ID": "FED_18", "ALIAS": " ", "OWNERSHIP": "Leased", "X": 398072.79, "Y": 136939.95, "ADDRID": 238405, "ADDRESS": "810 7TH STREET NW" }, "geometry": { "type": "Point", "coordinates": [ -77.022219635768053, 38.900317801034817 ] } },
{ "type": "Feature", "properties": { "OBJECTID": 126, "WEBURL": "http:\/\/www.iolp.gsa.gov\/iolp\/BuildingInfo.asp?bID=DC0373", "BLDG_NAME": "820 1ST ST NE ", "GIS_ID": "FED_86", "ALIAS": " ", "OWNERSHIP": "Leased", "X": 399322.63, "Y": 136968.66, "ADDRID": 288995, "ADDRESS": "820 1ST STREET NE" }, "geometry": { "type": "Point", "coordinates": [ -77.007811200447776, 38.900578283207089 ] } },
{ "type": "Feature", "properties": { "OBJECTID": 127, "WEBURL": "http:\/\/www.iolp.gsa.gov\/iolp\/BuildingInfo.asp?bID=DC0564", "BLDG_NAME": "830 1ST ST NE WASHINGTON, DC ", "GIS_ID": "FED_158", "ALIAS": " ", "OWNERSHIP": "Leased", "X": 399338.58, "Y": 137024.34, "ADDRID": 289008, "ADDRESS": "830 1ST STREET NE" }, "geometry": { "type": "Point", "coordinates": [ -77.007627377891453, 38.901079880784906 ] } },
{ "type": "Feature", "properties": { "OBJECTID": 128, "WEBURL": "http:\/\/www.iolp.gsa.gov\/iolp\/BuildingInfo.asp?bID=DC0454", "BLDG_NAME": "888 1ST ST NE ", "GIS_ID": "FED_160", "ALIAS": " ", "OWNERSHIP": "Leased", "X": 399382.61, "Y": 137075.08, "ADDRID": 81586, "ADDRESS": "888 1ST STREET NE" }, "geometry": { "type": "Point", "coordinates": [ -77.007119829410414, 38.901536996923888 ] } },
{ "type": "Feature", "properties": { "OBJECTID": 129, "WEBURL": "http:\/\/www.iolp.gsa.gov\/iolp\/BuildingInfo.asp?bID=DC0217", "BLDG_NAME": "90 K ST NE ", "GIS_ID": null, "ALIAS": null, "OWNERSHIP": "Leased", "X": 399423.88, "Y": 137224.67, "ADDRID": 289039, "ADDRESS": "90 K STREET NE" }, "geometry": { "type": "Point", "coordinates": [ -77.006644176100679, 38.902884585037228 ] } },
{ "type": "Feature", "properties": { "OBJECTID": 130, "WEBURL": "http:\/\/www.iolp.gsa.gov\/iolp\/BuildingInfo.asp?bID=DC0343", "BLDG_NAME": "901 D ST SW ", "GIS_ID": null, "ALIAS": null, "OWNERSHIP": "Leased", "X": 397852.85, "Y": 135246.13, "ADDRID": 81693, "ADDRESS": "901 D STREET SW" }, "geometry": { "type": "Point", "coordinates": [ -77.024749863734669, 38.885058731143438 ] } },
{ "type": "Feature", "properties": { "OBJECTID": 131, "WEBURL": "http:\/\/www.iolp.gsa.gov\/iolp\/BuildingInfo.asp?bID=DC0335", "BLDG_NAME": "950 LENFANT PLAZA ", "GIS_ID": "FED_19", "ALIAS": " ", "OWNERSHIP": "Leased", "X": 397837.82, "Y": 135060.38, "ADDRID": 301854, "ADDRESS": "950 LENFANT PLAZA SW" }, "geometry": { "type": "Point", "coordinates": [ -77.024922511682277, 38.883385386776752 ] } },
{ "type": "Feature", "properties": { "OBJECTID": 132, "WEBURL": "http:\/\/www.iolp.gsa.gov\/iolp\/BuildingInfo.asp?bID=DC0576", "BLDG_NAME": "955 LENFANT PLZ SW ", "GIS_ID": "FED_141", "ALIAS": " ", "OWNERSHIP": "Leased", "X": 397827.44, "Y": 135181.95, "ADDRID": 291726, "ADDRESS": "955 LENFANT PLAZA SW" }, "geometry": { "type": "Point", "coordinates": [ -77.025042530880299, 38.884480510613045 ] } },
{ "type": "Feature", "properties": { "OBJECTID": 133, "WEBURL": "http:\/\/www.iolp.gsa.gov\/iolp\/BuildingInfo.asp?bID=DC0316", "BLDG_NAME": "999 E ST NW ", "GIS_ID": "FED_229", "ALIAS": " ", "OWNERSHIP": "Leased", "X": 397782.1, "Y": 136498.25, "ADDRID": 239820, "ADDRESS": "999 E STREET NW" }, "geometry": { "type": "Point", "coordinates": [ -77.02556935525979, 38.896338121759328 ] } },
{ "type": "Feature", "properties": { "OBJECTID": 134, "WEBURL": "http:\/\/www.iolp.gsa.gov\/iolp\/BuildingInfo.asp?bID=DC0221", "BLDG_NAME": "999 N CAPITOL ST NE ", "GIS_ID": null, "ALIAS": null, "OWNERSHIP": "Leased", "X": 399258.75, "Y": 137129.68, "ADDRID": 308941, "ADDRESS": "999 NORTH CAPITOL STREET NE" }, "geometry": { "type": "Point", "coordinates": [ -77.008547801377119, 38.902028757462617 ] } },
{ "type": "Feature", "properties": { "OBJECTID": 135, "WEBURL": "http:\/\/www.iolp.gsa.gov\/iolp\/BuildingInfo.asp?bID=DC0093", "BLDG_NAME": "1000 Independence Ave SW ", "GIS_ID": "FED_136", "ALIAS": " ", "OWNERSHIP": "Owned", "X": 397799.0, "Y": 135461.51, "ADDRID": 277730, "ADDRESS": "1000 INDEPENDENCE AVENUE SW" }, "geometry": { "type": "Point", "coordinates": [ -77.025371217000654, 38.886998823326252 ] } },
{ "type": "Feature", "properties": { "OBJECTID": 136, "WEBURL": "http:\/\/www.iolp.gsa.gov\/iolp\/BuildingInfo.asp?bID=DC0093", "BLDG_NAME": "1000 INDEPENDENCE AVE SW ", "GIS_ID": "FED_136", "ALIAS": " ", "OWNERSHIP": "Owned", "X": 397799.0, "Y": 135461.51, "ADDRID": 277730, "ADDRESS": "1000 INDEPENDENCE AVENUE SW" }, "geometry": { "type": "Point", "coordinates": [ -77.025371217000654, 38.886998823326252 ] } },
{ "type": "Feature", "properties": { "OBJECTID": 137, "WEBURL": "http:\/\/www.iolp.gsa.gov\/iolp\/BuildingInfo.asp?bID=DC0022", "BLDG_NAME": "1111 CONST AVE NW ", "GIS_ID": "FED_115", "ALIAS": " ", "OWNERSHIP": "Owned", "X": 397651.64, "Y": 136101.09, "ADDRID": 291699, "ADDRESS": "1111 CONSTITUTION AVENUE NW" }, "geometry": { "type": "Point", "coordinates": [ -77.027071888521533, 38.892760019184479 ] } },
{ "type": "Feature", "properties": { "OBJECTID": 138, "WEBURL": "http:\/\/www.gsa.gov", "BLDG_NAME": "1200 PENNSYLVANIA AVE NW ", "GIS_ID": "FED_256", "ALIAS": null, "OWNERSHIP": "Owned", "X": 397488.93, "Y": 136330.51, "ADDRID": 291700, "ADDRESS": "1200 PENNSYLVANIA AVENUE NW" }, "geometry": { "type": "Point", "coordinates": [ -77.028948289367207, 38.894826269620467 ] } },
{ "type": "Feature", "properties": { "OBJECTID": 139, "WEBURL": "http:\/\/www.iolp.gsa.gov\/iolp\/BuildingInfo.asp?bID=DC0521", "BLDG_NAME": "1201 CONSTITUTION AVE NW ", "GIS_ID": "FED_137", "ALIAS": " ", "OWNERSHIP": "Owned", "X": 397498.75, "Y": 136076.08, "ADDRID": 218043, "ADDRESS": "1201 CONSTITUTION AVENUE NW" }, "geometry": { "type": "Point", "coordinates": [ -77.028834164259735, 38.892534298044559 ] } },
{ "type": "Feature", "properties": { "OBJECTID": 140, "WEBURL": "http:\/\/www.iolp.gsa.gov\/iolp\/BuildingInfo.asp?bID=DC0459", "BLDG_NAME": "1300 Pennsylvania Ave NW ", "GIS_ID": "FED_254", "ALIAS": null, "OWNERSHIP": "Owned", "X": 397379.12, "Y": 136343.99, "ADDRID": 293198, "ADDRESS": "1300 PENNSYLVANIA AVENUE NW" }, "geometry": { "type": "Point", "coordinates": [ -77.030214160036152, 38.894947381854784 ] } },
{ "type": "Feature", "properties": { "OBJECTID": 141, "WEBURL": "http:\/\/www.iolp.gsa.gov\/iolp\/BuildingInfo.asp?bID=DC0515", "BLDG_NAME": "1300 PENNSYLVANIA AVE NW ", "GIS_ID": "FED_254", "ALIAS": null, "OWNERSHIP": "Owned", "X": 397379.12, "Y": 136343.99, "ADDRID": 293198, "ADDRESS": "1300 PENNSYLVANIA AVENUE NW" }, "geometry": { "type": "Point", "coordinates": [ -77.030214160036152, 38.894947381854784 ] } },
{ "type": "Feature", "properties": { "OBJECTID": 142, "WEBURL": "http:\/\/www.iolp.gsa.gov\/iolp\/BuildingInfo.asp?bID=DC0516", "BLDG_NAME": "1300 PENNSYLVANIA AVE NW ", "GIS_ID": "FED_254", "ALIAS": null, "OWNERSHIP": "Owned", "X": 397379.12, "Y": 136343.99, "ADDRID": 293198, "ADDRESS": "1300 PENNSYLVANIA AVENUE NW" }, "geometry": { "type": "Point", "coordinates": [ -77.030214160036152, 38.894947381854784 ] } },
{ "type": "Feature", "properties": { "OBJECTID": 143, "WEBURL": "http:\/\/www.iolp.gsa.gov\/iolp\/BuildingInfo.asp?bID=DC0522", "BLDG_NAME": "1301 CONSTITUTION AV NW ", "GIS_ID": "FED_138", "ALIAS": " ", "OWNERSHIP": "Owned", "X": 397395.0, "Y": 136073.11, "ADDRID": 293199, "ADDRESS": "1301 CONSTITUTION AVENUE NW" }, "geometry": { "type": "Point", "coordinates": [ -77.030030078018754, 38.892507241830884 ] } },
{ "type": "Feature", "properties": { "OBJECTID": 144, "WEBURL": "http:\/\/www.iolp.gsa.gov\/iolp\/BuildingInfo.asp?bID=DC0522", "BLDG_NAME": "1301 CONSTITUTION AVE NW ", "GIS_ID": "FED_138", "ALIAS": " ", "OWNERSHIP": "Owned", "X": 397395.0, "Y": 136073.11, "ADDRID": 293199, "ADDRESS": "1301 CONSTITUTION AVENUE NW" }, "geometry": { "type": "Point", "coordinates": [ -77.030030078018754, 38.892507241830884 ] } },
{ "type": "Feature", "properties": { "OBJECTID": 145, "WEBURL": "http:\/\/www.iolp.gsa.gov\/iolp\/BuildingInfo.asp?bID=DC0522", "BLDG_NAME": "1301 Constitution Ave NW ", "GIS_ID": "FED_138", "ALIAS": " ", "OWNERSHIP": "Owned", "X": 397395.0, "Y": 136073.11, "ADDRID": 293199, "ADDRESS": "1301 CONSTITUTION AVENUE NW" }, "geometry": { "type": "Point", "coordinates": [ -77.030030078018754, 38.892507241830884 ] } },
{ "type": "Feature", "properties": { "OBJECTID": 146, "WEBURL": "http:\/\/www.iolp.gsa.gov\/iolp\/BuildingInfo.asp?bID=DC0013", "BLDG_NAME": "1401 CONSTITUTION AVE NW ", "GIS_ID": "FED_116", "ALIAS": "Herbert Hoover Building", "OWNERSHIP": "Owned", "X": 397153.15, "Y": 136088.73, "ADDRID": 301066, "ADDRESS": "1401 CONSTITUTION AVENUE NW" }, "geometry": { "type": "Point", "coordinates": [ -77.032817943751425, 38.892647202587192 ] } },
{ "type": "Feature", "properties": { "OBJECTID": 147, "WEBURL": "http:\/\/www.iolp.gsa.gov\/iolp\/BuildingInfo.asp?bID=DC0111", "BLDG_NAME": "1520 H STREET NW ", "GIS_ID": "FED_135", "ALIAS": " ", "OWNERSHIP": "Owned", "X": 396987.06, "Y": 136908.55, "ADDRID": 291706, "ADDRESS": "1520 H STREET NW" }, "geometry": { "type": "Point", "coordinates": [ -77.03473606025679, 38.900031887206794 ] } },
{ "type": "Feature", "properties": { "OBJECTID": 148, "WEBURL": "http:\/\/www.iolp.gsa.gov\/iolp\/BuildingInfo.asp?bID=DC0037", "BLDG_NAME": "1600 PENNSYLVANIA AVE NW ", "GIS_ID": "FED_190", "ALIAS": " ", "OWNERSHIP": "Owned", "X": 396829.87, "Y": 136646.99, "ADDRID": 293211, "ADDRESS": "1600 PENNSYLVANIA AVENUE NW" }, "geometry": { "type": "Point", "coordinates": [ -77.036546970683034, 38.897675107298504 ] } },
{ "type": "Feature", "properties": { "OBJECTID": 149, "WEBURL": "http:\/\/www.iolp.gsa.gov\/iolp\/BuildingInfo.asp?bID=DC0037", "BLDG_NAME": "1600 PENNSYLVANIA AVE NW ", "GIS_ID": "FED_190", "ALIAS": " ", "OWNERSHIP": "Owned", "X": 396829.87, "Y": 136646.99, "ADDRID": 293211, "ADDRESS": "1600 PENNSYLVANIA AVENUE NW" }, "geometry": { "type": "Point", "coordinates": [ -77.036546970683034, 38.897675107298504 ] } },
{ "type": "Feature", "properties": { "OBJECTID": 150, "WEBURL": "http:\/\/www.iolp.gsa.gov\/iolp\/BuildingInfo.asp?bID=DC0042", "BLDG_NAME": "1651-53 PENNSYLVANIA AVE NW ", "GIS_ID": null, "ALIAS": null, "OWNERSHIP": "Owned", "X": 396652.14, "Y": 136795.66, "ADDRID": 218402, "ADDRESS": "1651 PENNSYLVANIA AVENUE NW" }, "geometry": { "type": "Point", "coordinates": [ -77.03859653449878, 38.899013721520902 ] } },
{ "type": "Feature", "properties": { "OBJECTID": 151, "WEBURL": "http:\/\/www.iolp.gsa.gov\/iolp\/BuildingInfo.asp?bID=DC0078", "BLDG_NAME": "1724 F STREET NW ", "GIS_ID": "FED_30", "ALIAS": " ", "OWNERSHIP": "Owned", "X": 396468.38, "Y": 136579.19, "ADDRID": 218460, "ADDRESS": "1724 F STREET NW" }, "geometry": { "type": "Point", "coordinates": [ -77.040713813129443, 38.89706296214532 ] } },
{ "type": "Feature", "properties": { "OBJECTID": 152, "WEBURL": "http:\/\/www.iolp.gsa.gov\/iolp\/BuildingInfo.asp?bID=DC0035", "BLDG_NAME": "17TH AND PA AVE. NW ", "GIS_ID": null, "ALIAS": null, "OWNERSHIP": "Owned", "X": 396576.999994779995177, "Y": 136774.328124360006768, "ADDRID": 902251, "ADDRESS": "17TH STREET NW AND PENNSYLVANIA AVENUE NW" }, "geometry": { "type": "Point", "coordinates": [ -77.039462644776194, 38.898821266866932 ] } },
{ "type": "Feature", "properties": { "OBJECTID": 153, "WEBURL": "http:\/\/www.iolp.gsa.gov\/iolp\/BuildingInfo.asp?bID=DC0021", "BLDG_NAME": "1800 F ST NW ", "GIS_ID": "FED_133", "ALIAS": " ", "OWNERSHIP": "Owned", "X": 396307.35, "Y": 136585.96, "ADDRID": 291709, "ADDRESS": "1800 F STREET NW" }, "geometry": { "type": "Point", "coordinates": [ -77.042570158161581, 38.89712328702646 ] } },
{ "type": "Feature", "properties": { "OBJECTID": 154, "WEBURL": "http:\/\/www.iolp.gsa.gov\/iolp\/BuildingInfo.asp?bID=DC0020", "BLDG_NAME": "1849 C ST NW ", "GIS_ID": "FED_125", "ALIAS": "Main Interior Building", "OWNERSHIP": "Owned", "X": 396304.4, "Y": 136289.52, "ADDRID": 293214, "ADDRESS": "1849 C STREET NW" }, "geometry": { "type": "Point", "coordinates": [ -77.04260257010688, 38.894452834587113 ] } },
{ "type": "Feature", "properties": { "OBJECTID": 155, "WEBURL": "http:\/\/www.iolp.gsa.gov\/iolp\/BuildingInfo.asp?bID=DC0082", "BLDG_NAME": "1900 E ST NW ", "GIS_ID": "FED_34", "ALIAS": " ", "OWNERSHIP": "Owned", "X": 396166.66, "Y": 136324.86, "ADDRID": 279775, "ADDRESS": "1900 E STREET NW" }, "geometry": { "type": "Point", "coordinates": [ -77.044190537263844, 38.894770600426547 ] } },
{ "type": "Feature", "properties": { "OBJECTID": 156, "WEBURL": "http:\/\/www.iolp.gsa.gov\/iolp\/BuildingInfo.asp?bID=DC0032", "BLDG_NAME": "1951 CONSTITUTION AVE NW ", "GIS_ID": "FED_162", "ALIAS": "Department of Interior South", "OWNERSHIP": "Owned", "X": 396161.32, "Y": 136113.61, "ADDRID": 291711, "ADDRESS": "1951 CONSTITUTION AVENUE NW" }, "geometry": { "type": "Point", "coordinates": [ -77.044250912842699, 38.892867559139219 ] } },
{ "type": "Feature", "properties": { "OBJECTID": 157, "WEBURL": "http:\/\/www.iolp.gsa.gov\/iolp\/BuildingInfo.asp?bID=DC0086", "BLDG_NAME": "200 C STREET SW ", "GIS_ID": "FED_109", "ALIAS": " ", "OWNERSHIP": "Owned", "X": 398748.94, "Y": 135296.57, "ADDRID": 277784, "ADDRESS": "200 C STREET SW" }, "geometry": { "type": "Point", "coordinates": [ -77.014421818547561, 38.885514846099085 ] } },
{ "type": "Feature", "properties": { "OBJECTID": 158, "WEBURL": "http:\/\/www.iolp.gsa.gov\/iolp\/BuildingInfo.asp?bID=DC0116", "BLDG_NAME": "200 CONSTITUTION AVE NW ", "GIS_ID": "FED_108", "ALIAS": "Perkins Building", "OWNERSHIP": "Owned", "X": 398751.12, "Y": 136164.69, "ADDRID": 291712, "ADDRESS": "200 CONSTITUTION AVENUE NW" }, "geometry": { "type": "Point", "coordinates": [ -77.014398270556839, 38.893335201511825 ] } },
{ "type": "Feature", "properties": { "OBJECTID": 159, "WEBURL": "http:\/\/www.iolp.gsa.gov\/iolp\/BuildingInfo.asp?bID=DC0115", "BLDG_NAME": "200 INDEPENDENCE AVE SW ", "GIS_ID": "FED_127", "ALIAS": "HHH", "OWNERSHIP": "Owned", "X": 398751.14, "Y": 135448.48, "ADDRID": 291713, "ADDRESS": "200 INDEPENDENCE AVENUE SW" }, "geometry": { "type": "Point", "coordinates": [ -77.014396737832982, 38.886883312565601 ] } },
{ "type": "Feature", "properties": { "OBJECTID": 160, "WEBURL": "http:\/\/www.iolp.gsa.gov\/iolp\/BuildingInfo.asp?bID=DC0501", "BLDG_NAME": "201 14th Street SW ", "GIS_ID": "FED_38", "ALIAS": " Main(Orig. Bur.of Engr.&Prntg", "OWNERSHIP": "Owned", "X": 397163.84, "Y": 135494.79, "ADDRID": 291704, "ADDRESS": "201 14TH STREET SW" }, "geometry": { "type": "Point", "coordinates": [ -77.032692268082215, 38.887296802449107 ] } },
{ "type": "Feature", "properties": { "OBJECTID": 161, "WEBURL": "http:\/\/www.iolp.gsa.gov\/iolp\/BuildingInfo.asp?bID=DC1269", "BLDG_NAME": "2025 E ST NW ", "GIS_ID": "FED_239", "ALIAS": " ", "OWNERSHIP": "Owned", "X": 396033.99, "Y": 136507.33, "ADDRID": 293219, "ADDRESS": "2025 E STREET NW" }, "geometry": { "type": "Point", "coordinates": [ -77.045720924124637, 38.896413768439551 ] } },
{ "type": "Feature", "properties": { "OBJECTID": 162, "WEBURL": "http:\/\/www.iolp.gsa.gov\/iolp\/BuildingInfo.asp?bID=DC0046", "BLDG_NAME": "2201 C ST NW ", "GIS_ID": "FED_104", "ALIAS": " ", "OWNERSHIP": "Owned", "X": 395809.19, "Y": 136254.5, "ADDRID": 243360, "ADDRESS": "2201 C STREET NW" }, "geometry": { "type": "Point", "coordinates": [ -77.048310789294746, 38.894135140075981 ] } },
{ "type": "Feature", "properties": { "OBJECTID": 163, "WEBURL": "http:\/\/www.iolp.gsa.gov\/iolp\/BuildingInfo.asp?bID=DC1257", "BLDG_NAME": "2401 E ST NW ", "GIS_ID": "FED_77", "ALIAS": " ", "OWNERSHIP": "Owned", "X": 395496.47, "Y": 136520.71, "ADDRID": 274047, "ADDRESS": "2401 E STREET NW" }, "geometry": { "type": "Point", "coordinates": [ -77.051917334806433, 38.896531710757699 ] } },
{ "type": "Feature", "properties": { "OBJECTID": 164, "WEBURL": "http:\/\/www.iolp.gsa.gov\/iolp\/BuildingInfo.asp?bID=DC0531", "BLDG_NAME": "2430 E ST NW ", "GIS_ID": "FED_169", "ALIAS": " ", "OWNERSHIP": "Owned", "X": 395536.96, "Y": 136267.57, "ADDRID": 274048, "ADDRESS": "2430 E STREET NW" }, "geometry": { "type": "Point", "coordinates": [ -77.05144893628227, 38.894251539435508 ] } },
{ "type": "Feature", "properties": { "OBJECTID": 165, "WEBURL": "http:\/\/www.iolp.gsa.gov\/iolp\/BuildingInfo.asp?bID=DC0531", "BLDG_NAME": "2430 E ST NW ", "GIS_ID": "FED_169", "ALIAS": " ", "OWNERSHIP": "Owned", "X": 395536.96, "Y": 136267.57, "ADDRID": 274048, "ADDRESS": "2430 E STREET NW" }, "geometry": { "type": "Point", "coordinates": [ -77.05144893628227, 38.894251539435508 ] } },
{ "type": "Feature", "properties": { "OBJECTID": 166, "WEBURL": "http:\/\/www.iolp.gsa.gov\/iolp\/BuildingInfo.asp?bID=DC0531", "BLDG_NAME": "2430 E ST NW ", "GIS_ID": "FED_169", "ALIAS": " ", "OWNERSHIP": "Owned", "X": 395536.96, "Y": 136267.57, "ADDRID": 274048, "ADDRESS": "2430 E STREET NW" }, "geometry": { "type": "Point", "coordinates": [ -77.05144893628227, 38.894251539435508 ] } },
{ "type": "Feature", "properties": { "OBJECTID": 167, "WEBURL": "http:\/\/www.iolp.gsa.gov\/iolp\/BuildingInfo.asp?bID=DC0220", "BLDG_NAME": "2701 MARTIN LUTHER KING JR AVE SE ", "GIS_ID": null, "ALIAS": null, "OWNERSHIP": "Owned", "X": 399899.71, "Y": 131683.93, "ADDRID": 307858, "ADDRESS": "2701 MARTIN LUTHER KING JR AVENUE SE" }, "geometry": { "type": "Point", "coordinates": [ -77.001157681653439, 38.852971594087727 ] } },
{ "type": "Feature", "properties": { "OBJECTID": 168, "WEBURL": "http:\/\/www.iolp.gsa.gov\/iolp\/BuildingInfo.asp?bID=DC0227", "BLDG_NAME": "2701 MARTIN LUTHER KING JR AVE SE ", "GIS_ID": null, "ALIAS": null, "OWNERSHIP": "Owned", "X": 399899.71, "Y": 131683.93, "ADDRID": 307858, "ADDRESS": "2701 MARTIN LUTHER KING JR AVENUE SE" }, "geometry": { "type": "Point", "coordinates": [ -77.001157681653439, 38.852971594087727 ] } },
{ "type": "Feature", "properties": { "OBJECTID": 169, "WEBURL": "http:\/\/www.iolp.gsa.gov\/iolp\/BuildingInfo.asp?bID=DC1340", "BLDG_NAME": "2701 MARTIN LUTHER KING JR AVE SE ", "GIS_ID": null, "ALIAS": null, "OWNERSHIP": "Owned", "X": 399899.71, "Y": 131683.93, "ADDRID": 307858, "ADDRESS": "2701 MARTIN LUTHER KING JR AVENUE SE" }, "geometry": { "type": "Point", "coordinates": [ -77.001157681653439, 38.852971594087727 ] } },
{ "type": "Feature", "properties": { "OBJECTID": 170, "WEBURL": "http:\/\/www.iolp.gsa.gov\/iolp\/BuildingInfo.asp?bID=DC1343", "BLDG_NAME": "2701 MARTIN LUTHER KING JR AVE SE ", "GIS_ID": null, "ALIAS": null, "OWNERSHIP": "Owned", "X": 399899.71, "Y": 131683.93, "ADDRID": 307858, "ADDRESS": "2701 MARTIN LUTHER KING JR AVENUE SE" }, "geometry": { "type": "Point", "coordinates": [ -77.001157681653439, 38.852971594087727 ] } },
{ "type": "Feature", "properties": { "OBJECTID": 171, "WEBURL": "http:\/\/www.iolp.gsa.gov\/iolp\/BuildingInfo.asp?bID=DC1460", "BLDG_NAME": "2701 MARTIN LUTHER KING JR AVE SE ", "GIS_ID": null, "ALIAS": null, "OWNERSHIP": "Owned", "X": 399899.71, "Y": 131683.93, "ADDRID": 307858, "ADDRESS": "2701 MARTIN LUTHER KING JR AVENUE SE" }, "geometry": { "type": "Point", "coordinates": [ -77.001157681653439, 38.852971594087727 ] } },
{ "type": "Feature", "properties": { "OBJECTID": 172, "WEBURL": "http:\/\/www.iolp.gsa.gov\/iolp\/BuildingInfo.asp?bID=DC1473", "BLDG_NAME": "2701 MARTIN LUTHER KING, JR.AVE, SE ", "GIS_ID": null, "ALIAS": null, "OWNERSHIP": "Owned", "X": 399899.71, "Y": 131683.93, "ADDRID": 307858, "ADDRESS": "2701 MARTIN LUTHER KING JR AVENUE SE" }, "geometry": { "type": "Point", "coordinates": [ -77.001157681653439, 38.852971594087727 ] } },
{ "type": "Feature", "properties": { "OBJECTID": 173, "WEBURL": "http:\/\/www.iolp.gsa.gov\/iolp\/BuildingInfo.asp?bID=DC0027", "BLDG_NAME": "2701 S CAPITOL ST SE ANACOSTIA NAVAL STATION ", "GIS_ID": "FED_193", "ALIAS": " ", "OWNERSHIP": "Owned", "X": 399623.18, "Y": 132574.71, "ADDRID": 291843, "ADDRESS": "2701 SOUTH CAPITOL STREET SW" }, "geometry": { "type": "Point", "coordinates": [ -77.004343961754088, 38.860996045699899 ] } },
{ "type": "Feature", "properties": { "OBJECTID": 174, "WEBURL": "http:\/\/www.iolp.gsa.gov\/iolp\/BuildingInfo.asp?bID=DC0027", "BLDG_NAME": "2701 SOUTH CAPITOL ST. ANACOSTIA NAVAL STATION ", "GIS_ID": "FED_193", "ALIAS": " ", "OWNERSHIP": "Owned", "X": 399623.18, "Y": 132574.71, "ADDRID": 291843, "ADDRESS": "2701 SOUTH CAPITOL STREET SW" }, "geometry": { "type": "Point", "coordinates": [ -77.004343961754088, 38.860996045699899 ] } },
{ "type": "Feature", "properties": { "OBJECTID": 175, "WEBURL": "http:\/\/www.iolp.gsa.gov\/iolp\/BuildingInfo.asp?bID=DC0027", "BLDG_NAME": "2701 SOUTH CAPITOL STREET SW ANACOSTIA NAVAL STATION ", "GIS_ID": "FED_193", "ALIAS": " ", "OWNERSHIP": "Owned", "X": 399623.18, "Y": 132574.71, "ADDRID": 291843, "ADDRESS": "2701 SOUTH CAPITOL STREET SW" }, "geometry": { "type": "Point", "coordinates": [ -77.004343961754088, 38.860996045699899 ] } },
{ "type": "Feature", "properties": { "OBJECTID": 176, "WEBURL": "http:\/\/www.iolp.gsa.gov\/iolp\/BuildingInfo.asp?bID=DC0469", "BLDG_NAME": "2702 S CAPITOL ST SE ANACOSTIA NAVAL STATION ", "GIS_ID": "FED_95", "ALIAS": " ", "OWNERSHIP": "Owned", "X": 399651.01, "Y": 132304.44, "ADDRID": 302058, "ADDRESS": "2700 SOUTH CAPITOL STREET SE" }, "geometry": { "type": "Point", "coordinates": [ -77.004023170099515, 38.858561350722461 ] } },
{ "type": "Feature", "properties": { "OBJECTID": 177, "WEBURL": "http:\/\/www.iolp.gsa.gov\/iolp\/BuildingInfo.asp?bID=DC0274", "BLDG_NAME": "300 12th Street SW ", "GIS_ID": "FED_253", "ALIAS": "AGRICULTURE ANNEX (COTTON)", "OWNERSHIP": "Owned", "X": 397592.5, "Y": 135300.83, "ADDRID": 42685, "ADDRESS": "300 12TH STREET SW" }, "geometry": { "type": "Point", "coordinates": [ -77.027750792363832, 38.885550815250177 ] } },
{ "type": "Feature", "properties": { "OBJECTID": 178, "WEBURL": "http:\/\/www.iolp.gsa.gov\/iolp\/BuildingInfo.asp?bID=DC0031", "BLDG_NAME": "301 7th St SW ", "GIS_ID": "FED_107", "ALIAS": " ", "OWNERSHIP": "Owned", "X": 398047.16, "Y": 135262.41, "ADDRID": 277855, "ADDRESS": "301 7TH STREET SW" }, "geometry": { "type": "Point", "coordinates": [ -77.022510335558081, 38.88520584076656 ] } },
{ "type": "Feature", "properties": { "OBJECTID": 179, "WEBURL": "http:\/\/www.iolp.gsa.gov\/iolp\/BuildingInfo.asp?bID=DC0075", "BLDG_NAME": "320 FIRST STREET NW ", "GIS_ID": "FED_25", "ALIAS": " ", "OWNERSHIP": "Owned", "X": 398919.17, "Y": 136275.78, "ADDRID": 299646, "ADDRESS": "320 1ST STREET NW" }, "geometry": { "type": "Point", "coordinates": [ -77.012461313192503, 38.894336164088422 ] } },
{ "type": "Feature", "properties": { "OBJECTID": 180, "WEBURL": "http:\/\/www.iolp.gsa.gov\/iolp\/BuildingInfo.asp?bID=DC0033", "BLDG_NAME": "330 C ST SW ", "GIS_ID": "FED_27", "ALIAS": " ", "OWNERSHIP": "Owned", "X": 398579.72, "Y": 135287.2, "ADDRID": 276582, "ADDRESS": "330 C STREET SW" }, "geometry": { "type": "Point", "coordinates": [ -77.016372204284224, 38.885430180402992 ] } },
{ "type": "Feature", "properties": { "OBJECTID": 181, "WEBURL": "http:\/\/www.iolp.gsa.gov\/iolp\/BuildingInfo.asp?bID=DC0034", "BLDG_NAME": "330 INDEP AVE SW ", "GIS_ID": "FED_122", "ALIAS": "Health & Human Services North", "OWNERSHIP": "Owned", "X": 398584.46, "Y": 135444.06, "ADDRID": 293236, "ADDRESS": "330 INDEPENDENCE AVENUE SW" }, "geometry": { "type": "Point", "coordinates": [ -77.016317895010928, 38.886843242889263 ] } },
{ "type": "Feature", "properties": { "OBJECTID": 182, "WEBURL": "http:\/\/www.iolp.gsa.gov\/iolp\/BuildingInfo.asp?bID=DC0573", "BLDG_NAME": "333 CONSTITUTION AVE NW ", "GIS_ID": "FED_194", "ALIAS": " ", "OWNERSHIP": "Owned", "X": 398573.34, "Y": 136127.33, "ADDRID": 238373, "ADDRESS": "333 CONSTITUTION AVENUE NW" }, "geometry": { "type": "Point", "coordinates": [ -77.016447483994952, 38.892998378161018 ] } },
{ "type": "Feature", "properties": { "OBJECTID": 183, "WEBURL": "http:\/\/www.iolp.gsa.gov\/iolp\/BuildingInfo.asp?bID=DC0573", "BLDG_NAME": "333 CONSTITUTION AVE. NW, ", "GIS_ID": "FED_194", "ALIAS": " ", "OWNERSHIP": "Owned", "X": 398573.34, "Y": 136127.33, "ADDRID": 238373, "ADDRESS": "333 CONSTITUTION AVENUE NW" }, "geometry": { "type": "Point", "coordinates": [ -77.016447483994952, 38.892998378161018 ] } },
{ "type": "Feature", "properties": { "OBJECTID": 184, "WEBURL": "http:\/\/www.iolp.gsa.gov\/iolp\/BuildingInfo.asp?bID=DC1429", "BLDG_NAME": "3801 NEBRASKA AVENUE, NW ", "GIS_ID": "FED_227", "ALIAS": " ", "OWNERSHIP": "Owned", "X": 392689.87, "Y": 141298.42, "ADDRID": 291849, "ADDRESS": "3801 NEBRASKA AVENUE NW" }, "geometry": { "type": "Point", "coordinates": [ -77.084321654949463, 38.939552023697843 ] } },
{ "type": "Feature", "properties": { "OBJECTID": 185, "WEBURL": "http:\/\/www.iolp.gsa.gov\/iolp\/BuildingInfo.asp?bID=DC0010", "BLDG_NAME": "400 MARYLAND AVE SW ", "GIS_ID": "FED_110", "ALIAS": " ", "OWNERSHIP": "Owned", "X": 398375.18, "Y": 135405.17, "ADDRID": 276614, "ADDRESS": "400 MARYLAND AVENUE SW" }, "geometry": { "type": "Point", "coordinates": [ -77.018729978772356, 38.88649254499304 ] } },
{ "type": "Feature", "properties": { "OBJECTID": 186, "WEBURL": "http:\/\/www.iolp.gsa.gov\/iolp\/BuildingInfo.asp?bID=DC0114", "BLDG_NAME": "400 SECOND STREET NW ", "GIS_ID": "FED_123", "ALIAS": " ", "OWNERSHIP": "Owned", "X": 398716.63, "Y": 136404.51, "ADDRID": 279729, "ADDRESS": "400 2ND STREET NW" }, "geometry": { "type": "Point", "coordinates": [ -77.014796288987426, 38.895495538911526 ] } },
{ "type": "Feature", "properties": { "OBJECTID": 187, "WEBURL": "http:\/\/www.iolp.gsa.gov\/iolp\/BuildingInfo.asp?bID=DC0024", "BLDG_NAME": "401 14TH ST SW ", "GIS_ID": null, "ALIAS": null, "OWNERSHIP": "Owned", "X": 397186.94, "Y": 135211.21, "ADDRID": 306554, "ADDRESS": "401 14TH STREET SW" }, "geometry": { "type": "Point", "coordinates": [ -77.032424853159597, 38.884742279702046 ] } },
{ "type": "Feature", "properties": { "OBJECTID": 188, "WEBURL": "http:\/\/www.iolp.gsa.gov\/iolp\/BuildingInfo.asp?bID=DC0016", "BLDG_NAME": "450 E ST NW ", "GIS_ID": "FED_161", "ALIAS": " ", "OWNERSHIP": "Owned", "X": 398415.53, "Y": 136439.68, "ADDRID": 293245, "ADDRESS": "450 E STREET NW" }, "geometry": { "type": "Point", "coordinates": [ -77.018267290447341, 38.895811871919634 ] } },
{ "type": "Feature", "properties": { "OBJECTID": 189, "WEBURL": "http:\/\/www.iolp.gsa.gov\/iolp\/BuildingInfo.asp?bID=DC0092", "BLDG_NAME": "451 7TH STREET SW ", "GIS_ID": "FED_126", "ALIAS": "HUD", "OWNERSHIP": "Owned", "X": 398020.0, "Y": 135162.56, "ADDRID": 291719, "ADDRESS": "451 7TH STREET SW" }, "geometry": { "type": "Point", "coordinates": [ -77.022823088656182, 38.88430629283917 ] } },
{ "type": "Feature", "properties": { "OBJECTID": 190, "WEBURL": "http:\/\/www.iolp.gsa.gov\/iolp\/BuildingInfo.asp?bID=DC0030", "BLDG_NAME": "5TH & F STREETS, NW ", "GIS_ID": null, "ALIAS": null, "OWNERSHIP": "Owned", "X": 398357.990140429988969, "Y": 136609.819996209989768, "ADDRID": 902521, "ADDRESS": "5TH STREET NW AND F STREET NW" }, "geometry": { "type": "Point", "coordinates": [ -77.018930988989524, 38.897344449591991 ] } },
{ "type": "Feature", "properties": { "OBJECTID": 191, "WEBURL": "http:\/\/www.iolp.gsa.gov\/iolp\/BuildingInfo.asp?bID=DC0084", "BLDG_NAME": "600 INDEPENDENCE AVE SW ", "GIS_ID": "FED_196", "ALIAS": " ", "OWNERSHIP": "Owned", "X": 398177.16, "Y": 135486.44, "ADDRID": 277762, "ADDRESS": "600 INDEPENDENCE AVENUE SW" }, "geometry": { "type": "Point", "coordinates": [ -77.021012575376616, 38.887224267781917 ] } },
{ "type": "Feature", "properties": { "OBJECTID": 192, "WEBURL": "http:\/\/www.iolp.gsa.gov\/iolp\/BuildingInfo.asp?bID=DC0019", "BLDG_NAME": "600 Pennsylvania Avenue NW ", "GIS_ID": "FED_105", "ALIAS": " ", "OWNERSHIP": "Owned", "X": 398163.91, "Y": 136099.38, "ADDRID": 238718, "ADDRESS": "600 PENNSYLVANIA AVENUE NW" }, "geometry": { "type": "Point", "coordinates": [ -77.021166934877883, 38.892745834232024 ] } },
{ "type": "Feature", "properties": { "OBJECTID": 193, "WEBURL": "http:\/\/www.iolp.gsa.gov\/iolp\/BuildingInfo.asp?bID=DC0048", "BLDG_NAME": "600 SEVENTEENTH STREET ", "GIS_ID": "FED_129", "ALIAS": " ", "OWNERSHIP": "Owned", "X": 396551.48, "Y": 136634.72, "ADDRID": 295829, "ADDRESS": "600 17TH STREET NW" }, "geometry": { "type": "Point", "coordinates": [ -77.039756138436246, 38.897563526540566 ] } },
{ "type": "Feature", "properties": { "OBJECTID": 194, "WEBURL": "http:\/\/www.iolp.gsa.gov\/iolp\/BuildingInfo.asp?bID=DC0463", "BLDG_NAME": "601 - 4TH ST, NW ", "GIS_ID": "FED_170", "ALIAS": " ", "OWNERSHIP": "Owned", "X": 398629.24, "Y": 136658.57, "ADDRID": 218684, "ADDRESS": "601 4TH STREET NW" }, "geometry": { "type": "Point", "coordinates": [ -77.015804181423874, 38.897784072306756 ] } },
{ "type": "Feature", "properties": { "OBJECTID": 195, "WEBURL": "http:\/\/www.iolp.gsa.gov\/iolp\/BuildingInfo.asp?bID=DC0313", "BLDG_NAME": "633 Third Street, NW ", "GIS_ID": "FED_106", "ALIAS": " ", "OWNERSHIP": "Owned", "X": 398711.88, "Y": 136690.27, "ADDRID": 238367, "ADDRESS": "633 3RD STREET NW" }, "geometry": { "type": "Point", "coordinates": [ -77.014851580440833, 38.8980697624445 ] } },
{ "type": "Feature", "properties": { "OBJECTID": 196, "WEBURL": "http:\/\/www.iolp.gsa.gov\/iolp\/BuildingInfo.asp?bID=DC0117", "BLDG_NAME": "708 JACKSON PLACE NW ", "GIS_ID": "FED_100", "ALIAS": " ", "OWNERSHIP": "Owned", "X": 396683.78, "Y": 136810.94, "ADDRID": 218720, "ADDRESS": "708 JACKSON PLACE NW" }, "geometry": { "type": "Point", "coordinates": [ -77.038231861254275, 38.89915148922136 ] } },
{ "type": "Feature", "properties": { "OBJECTID": 197, "WEBURL": "http:\/\/www.iolp.gsa.gov\/iolp\/BuildingInfo.asp?bID=DC0118", "BLDG_NAME": "712 JACKSON PL NW ", "GIS_ID": "FED_99", "ALIAS": " ", "OWNERSHIP": "Owned", "X": 396682.7, "Y": 136819.44, "ADDRID": 218724, "ADDRESS": "712 JACKSON PLACE NW" }, "geometry": { "type": "Point", "coordinates": [ -77.038244352609311, 38.89922805621282 ] } },
{ "type": "Feature", "properties": { "OBJECTID": 198, "WEBURL": "http:\/\/www.iolp.gsa.gov\/iolp\/BuildingInfo.asp?bID=DC0119", "BLDG_NAME": "716 JACKSON PLACE NW ", "GIS_ID": "FED_32", "ALIAS": " ", "OWNERSHIP": "Owned", "X": 396683.7, "Y": 136826.67, "ADDRID": 218727, "ADDRESS": "716 JACKSON PLACE NW" }, "geometry": { "type": "Point", "coordinates": [ -77.038232859449039, 38.899293190434236 ] } },
{ "type": "Feature", "properties": { "OBJECTID": 199, "WEBURL": "http:\/\/www.iolp.gsa.gov\/iolp\/BuildingInfo.asp?bID=DC0094", "BLDG_NAME": "717 MADISON PL NW ", "GIS_ID": "FED_114", "ALIAS": "Madison Place Complex", "OWNERSHIP": "Owned", "X": 396987.99, "Y": 136852.91, "ADDRID": 279906, "ADDRESS": "717 MADISON PLACE NW" }, "geometry": { "type": "Point", "coordinates": [ -77.034725095024555, 38.899530665244306 ] } },
{ "type": "Feature", "properties": { "OBJECTID": 200, "WEBURL": "http:\/\/www.iolp.gsa.gov\/iolp\/BuildingInfo.asp?bID=DC0094", "BLDG_NAME": "717 MADISON PL NW ", "GIS_ID": "FED_114", "ALIAS": "Madison Place Complex", "OWNERSHIP": "Owned", "X": 396987.99, "Y": 136852.91, "ADDRID": 279906, "ADDRESS": "717 MADISON PLACE NW" }, "geometry": { "type": "Point", "coordinates": [ -77.034725095024555, 38.899530665244306 ] } },
{ "type": "Feature", "properties": { "OBJECTID": 201, "WEBURL": "http:\/\/www.iolp.gsa.gov\/iolp\/BuildingInfo.asp?bID=DC0094", "BLDG_NAME": "717 MADISON PL NW ", "GIS_ID": "FED_114", "ALIAS": "Madison Place Complex", "OWNERSHIP": "Owned", "X": 396987.99, "Y": 136852.91, "ADDRID": 279906, "ADDRESS": "717 MADISON PLACE NW" }, "geometry": { "type": "Point", "coordinates": [ -77.034725095024555, 38.899530665244306 ] } },
{ "type": "Feature", "properties": { "OBJECTID": 202, "WEBURL": "http:\/\/www.iolp.gsa.gov\/iolp\/BuildingInfo.asp?bID=DC0120", "BLDG_NAME": "718 JACKSON PL NW ", "GIS_ID": "FED_102", "ALIAS": " ", "OWNERSHIP": "Owned", "X": 396682.86, "Y": 136833.16, "ADDRID": 218728, "ADDRESS": "718 JACKSON PLACE NW" }, "geometry": { "type": "Point", "coordinates": [ -77.038242574380348, 38.899351651524718 ] } },
{ "type": "Feature", "properties": { "OBJECTID": 203, "WEBURL": "http:\/\/www.iolp.gsa.gov\/iolp\/BuildingInfo.asp?bID=DC0121", "BLDG_NAME": "722 JACKSON PL NW ", "GIS_ID": "FED_96", "ALIAS": " ", "OWNERSHIP": "Owned", "X": 396684.15, "Y": 136843.23, "ADDRID": 218734, "ADDRESS": "722 JACKSON PLACE NW" }, "geometry": { "type": "Point", "coordinates": [ -77.038227751760346, 38.899442370582214 ] } },
{ "type": "Feature", "properties": { "OBJECTID": 204, "WEBURL": "http:\/\/www.iolp.gsa.gov\/iolp\/BuildingInfo.asp?bID=DC0105", "BLDG_NAME": "725 17TH ST NW ", "GIS_ID": "FED_113", "ALIAS": " ", "OWNERSHIP": "Owned", "X": 396610.34, "Y": 136844.16, "ADDRID": 291723, "ADDRESS": "725 17TH STREET NW" }, "geometry": { "type": "Point", "coordinates": [ -77.039078645705985, 38.899450466808688 ] } },
{ "type": "Feature", "properties": { "OBJECTID": 205, "WEBURL": "http:\/\/www.iolp.gsa.gov\/iolp\/BuildingInfo.asp?bID=DC0122", "BLDG_NAME": "726 JACKSON PL NW ", "GIS_ID": "FED_31", "ALIAS": " ", "OWNERSHIP": "Owned", "X": 396683.11, "Y": 136856.28, "ADDRID": 218738, "ADDRESS": "726 JACKSON PLACE NW" }, "geometry": { "type": "Point", "coordinates": [ -77.038239804010431, 38.899559925760251 ] } },
{ "type": "Feature", "properties": { "OBJECTID": 206, "WEBURL": "http:\/\/www.iolp.gsa.gov\/iolp\/BuildingInfo.asp?bID=DC0123", "BLDG_NAME": "730 JACKSON PL NW ", "GIS_ID": "FED_98", "ALIAS": " ", "OWNERSHIP": "Owned", "X": 396684.2, "Y": 136864.52, "ADDRID": 218742, "ADDRESS": "730 JACKSON PLACE NW" }, "geometry": { "type": "Point", "coordinates": [ -77.038227278136446, 38.899634158760477 ] } },
{ "type": "Feature", "properties": { "OBJECTID": 207, "WEBURL": "http:\/\/www.iolp.gsa.gov\/iolp\/BuildingInfo.asp?bID=DC0124", "BLDG_NAME": "734 JACKSON PLACE NW ", "GIS_ID": "FED_97", "ALIAS": " ", "OWNERSHIP": "Owned", "X": 396685.19, "Y": 136873.42, "ADDRID": 218744, "ADDRESS": "734 JACKSON PLACE NW" }, "geometry": { "type": "Point", "coordinates": [ -77.038215908236523, 38.899714336898974 ] } },
{ "type": "Feature", "properties": { "OBJECTID": 208, "WEBURL": "http:\/\/www.iolp.gsa.gov\/iolp\/BuildingInfo.asp?bID=DC0125", "BLDG_NAME": "736 JACKSON PLACE NW ", "GIS_ID": "FED_103", "ALIAS": " ", "OWNERSHIP": "Owned", "X": 396683.93, "Y": 136880.41, "ADDRID": 218745, "ADDRESS": "736 JACKSON PLACE NW" }, "geometry": { "type": "Point", "coordinates": [ -77.038230467451427, 38.899777300581952 ] } },
{ "type": "Feature", "properties": { "OBJECTID": 209, "WEBURL": "http:\/\/www.iolp.gsa.gov\/iolp\/BuildingInfo.asp?bID=DC0126", "BLDG_NAME": "740 JACKSON PLACE NW ", "GIS_ID": "FED_101", "ALIAS": " ", "OWNERSHIP": "Owned", "X": 396686.03, "Y": 136887.65, "ADDRID": 218748, "ADDRESS": "740 JACKSON PLACE NW" }, "geometry": { "type": "Point", "coordinates": [ -77.038206293252642, 38.899842529027339 ] } },
{ "type": "Feature", "properties": { "OBJECTID": 210, "WEBURL": "http:\/\/www.iolp.gsa.gov\/iolp\/BuildingInfo.asp?bID=DC0127", "BLDG_NAME": "744 JACKSON PLACE NW ", "GIS_ID": null, "ALIAS": null, "OWNERSHIP": "Owned", "X": 396686.12, "Y": 136895.32, "ADDRID": 309615, "ADDRESS": "744 JACKSON PLACE NW" }, "geometry": { "type": "Point", "coordinates": [ -77.03820529272474, 38.899911623485544 ] } },
{ "type": "Feature", "properties": { "OBJECTID": 211, "WEBURL": "http:\/\/www.iolp.gsa.gov\/iolp\/BuildingInfo.asp?bID=DC0083", "BLDG_NAME": "800 INDEPENDENCE AVE SW ", "GIS_ID": "FED_164", "ALIAS": " ", "OWNERSHIP": "Owned", "X": 398008.92, "Y": 135447.42, "ADDRID": 79569, "ADDRESS": "800 INDEPENDENCE AVENUE SW" }, "geometry": { "type": "Point", "coordinates": [ -77.022951618490822, 38.886872395786476 ] } },
{ "type": "Feature", "properties": { "OBJECTID": 212, "WEBURL": "http:\/\/www.iolp.gsa.gov\/iolp\/BuildingInfo.asp?bID=DC0007", "BLDG_NAME": "810 VERMONT AVE NW ", "GIS_ID": "FED_163", "ALIAS": " ", "OWNERSHIP": "Owned", "X": 396944.25, "Y": 136997.21, "ADDRID": 279954, "ADDRESS": "810 VERMONT AVENUE NW" }, "geometry": { "type": "Point", "coordinates": [ -77.035229976943114, 38.900830420515689 ] } },
{ "type": "Feature", "properties": { "OBJECTID": 213, "WEBURL": "http:\/\/www.iolp.gsa.gov\/iolp\/BuildingInfo.asp?bID=DC0026", "BLDG_NAME": "811 VERMONT AVE NW ", "GIS_ID": "FED_124", "ALIAS": " ", "OWNERSHIP": "Owned", "X": 397020.85, "Y": 136989.79, "ADDRID": 279956, "ADDRESS": "811 VERMONT AVENUE NW" }, "geometry": { "type": "Point", "coordinates": [ -77.03434687478962, 38.900763841474422 ] } },
{ "type": "Feature", "properties": { "OBJECTID": 214, "WEBURL": "http:\/\/www.iolp.gsa.gov\/iolp\/BuildingInfo.asp?bID=DC0090", "BLDG_NAME": "935 PENNSYLVANIA AVE NW ", "GIS_ID": "FED_111", "ALIAS": "FBI Building", "OWNERSHIP": "Owned", "X": 397825.35, "Y": 136316.44, "ADDRID": 291725, "ADDRESS": "935 PENNSYLVANIA AVENUE NW" }, "geometry": { "type": "Point", "coordinates": [ -77.025070210812572, 38.89470041859979 ] } },
{ "type": "Feature", "properties": { "OBJECTID": 215, "WEBURL": "http:\/\/www.iolp.gsa.gov\/iolp\/BuildingInfo.asp?bID=DC0720", "BLDG_NAME": "940 H STREET, NW ", "GIS_ID": "FED_197", "ALIAS": " ", "OWNERSHIP": "Owned", "X": 397766.06, "Y": 136855.54, "ADDRID": 278830, "ADDRESS": "940 H STREET NW" }, "geometry": { "type": "Point", "coordinates": [ -77.025755420121229, 38.899556679239382 ] } },
{ "type": "Feature", "properties": { "OBJECTID": 216, "WEBURL": "http:\/\/www.iolp.gsa.gov\/iolp\/BuildingInfo.asp?bID=DC0505", "BLDG_NAME": "950 H ST NW ", "GIS_ID": "FED_112", "ALIAS": " ", "OWNERSHIP": "Owned", "X": 397813.84, "Y": 136837.63, "ADDRID": 278833, "ADDRESS": "950 H STREET NW" }, "geometry": { "type": "Point", "coordinates": [ -77.02520454938994, 38.899395459643955 ] } },
{ "type": "Feature", "properties": { "OBJECTID": 217, "WEBURL": "http:\/\/www.iolp.gsa.gov\/iolp\/BuildingInfo.asp?bID=DC0023", "BLDG_NAME": "950 Pennsylvania Avenue NW ", "GIS_ID": null, "ALIAS": null, "OWNERSHIP": "Owned", "X": 397827.08, "Y": 136200.27, "ADDRID": 297440, "ADDRESS": "950 PENNSYLVANIA AVENUE NW" }, "geometry": { "type": "Point", "coordinates": [ -77.025049901024786, 38.893653920616657 ] } },
{ "type": "Feature", "properties": { "OBJECTID": 218, "WEBURL": "http:\/\/www.iolp.gsa.gov\/iolp\/BuildingInfo.asp?bID=DC0566", "BLDG_NAME": "99 NEW YORK AVE NE ", "GIS_ID": null, "ALIAS": null, "OWNERSHIP": "Owned", "X": 399594.8, "Y": 137759.97, "ADDRID": 301063, "ADDRESS": "99 NEW YORK AVENUE NE" }, "geometry": { "type": "Point", "coordinates": [ -77.004674013416846, 38.907706851180663 ] } },
{ "type": "Feature", "properties": { "OBJECTID": 219, "WEBURL": "http:\/\/www.iolp.gsa.gov\/iolp\/BuildingInfo.asp?bID=DC1400", "BLDG_NAME": "Nebraska Ave Complex Nebraska Avenue Complex ", "GIS_ID": "FED_227", "ALIAS": " ", "OWNERSHIP": "Owned", "X": 392689.87, "Y": 141298.42, "ADDRID": 291849, "ADDRESS": "NEBRASKA AVENUE COMPLEX" }, "geometry": { "type": "Point", "coordinates": [ -77.084321654949463, 38.939552023697843 ] } },
{ "type": "Feature", "properties": { "OBJECTID": 220, "WEBURL": "http:\/\/www.iolp.gsa.gov\/iolp\/BuildingInfo.asp?bID=DC1405", "BLDG_NAME": "NEBRASKA AVE. COMPLEX NEBRASKA AVENUE COMPLEX ", "GIS_ID": "FED_227", "ALIAS": " ", "OWNERSHIP": "Owned", "X": 392689.87, "Y": 141298.42, "ADDRID": 291849, "ADDRESS": "NEBRASKA AVENUE COMPLEX" }, "geometry": { "type": "Point", "coordinates": [ -77.084321654949463, 38.939552023697843 ] } },
{ "type": "Feature", "properties": { "OBJECTID": 221, "WEBURL": "http:\/\/www.iolp.gsa.gov\/iolp\/BuildingInfo.asp?bID=DC1401", "BLDG_NAME": "NEBRASKA AVENUE COMPLEX 3801 NEBRASKA AVENUE ", "GIS_ID": "FED_227", "ALIAS": " ", "OWNERSHIP": "Owned", "X": 392689.87, "Y": 141298.42, "ADDRID": 291849, "ADDRESS": "3801 NEBRASKA AVENUE NW" }, "geometry": { "type": "Point", "coordinates": [ -77.084321654949463, 38.939552023697843 ] } },
{ "type": "Feature", "properties": { "OBJECTID": 222, "WEBURL": "http:\/\/www.iolp.gsa.gov\/iolp\/BuildingInfo.asp?bID=DC1402", "BLDG_NAME": "NEBRASKA AVENUE COMPLEX 3801 NEBRASKA AVENUE ", "GIS_ID": "FED_227", "ALIAS": " ", "OWNERSHIP": "Owned", "X": 392689.87, "Y": 141298.42, "ADDRID": 291849, "ADDRESS": "3801 NEBRASKA AVENUE NW" }, "geometry": { "type": "Point", "coordinates": [ -77.084321654949463, 38.939552023697843 ] } },
{ "type": "Feature", "properties": { "OBJECTID": 223, "WEBURL": "http:\/\/www.iolp.gsa.gov\/iolp\/BuildingInfo.asp?bID=DC1403", "BLDG_NAME": "NEBRASKA AVENUE COMPLEX 3801 NEBRASKA AVENUE ", "GIS_ID": "FED_227", "ALIAS": " ", "OWNERSHIP": "Owned", "X": 392689.87, "Y": 141298.42, "ADDRID": 291849, "ADDRESS": "3801 NEBRASKA AVENUE NW" }, "geometry": { "type": "Point", "coordinates": [ -77.084321654949463, 38.939552023697843 ] } },
{ "type": "Feature", "properties": { "OBJECTID": 224, "WEBURL": "http:\/\/www.iolp.gsa.gov\/iolp\/BuildingInfo.asp?bID=DC1404", "BLDG_NAME": "NEBRASKA AVENUE COMPLEX 3801 NEBRASKA AVENUE ", "GIS_ID": "FED_227", "ALIAS": " ", "OWNERSHIP": "Owned", "X": 392689.87, "Y": 141298.42, "ADDRID": 291849, "ADDRESS": "3801 NEBRASKA AVENUE NW" }, "geometry": { "type": "Point", "coordinates": [ -77.084321654949463, 38.939552023697843 ] } },
{ "type": "Feature", "properties": { "OBJECTID": 225, "WEBURL": "http:\/\/www.iolp.gsa.gov\/iolp\/BuildingInfo.asp?bID=DC1406", "BLDG_NAME": "NEBRASKA AVENUE COMPLEX 3801 NEBRASKA AVENUE ", "GIS_ID": "FED_227", "ALIAS": " ", "OWNERSHIP": "Owned", "X": 392689.87, "Y": 141298.42, "ADDRID": 291849, "ADDRESS": "3801 NEBRASKA AVENUE NW" }, "geometry": { "type": "Point", "coordinates": [ -77.084321654949463, 38.939552023697843 ] } },
{ "type": "Feature", "properties": { "OBJECTID": 226, "WEBURL": "http:\/\/www.iolp.gsa.gov\/iolp\/BuildingInfo.asp?bID=DC1407", "BLDG_NAME": "NEBRASKA AVENUE COMPLEX 3801 NEBRASKA AVENUE ", "GIS_ID": "FED_227", "ALIAS": " ", "OWNERSHIP": "Owned", "X": 392689.87, "Y": 141298.42, "ADDRID": 291849, "ADDRESS": "3801 NEBRASKA AVENUE NW" }, "geometry": { "type": "Point", "coordinates": [ -77.084321654949463, 38.939552023697843 ] } },
{ "type": "Feature", "properties": { "OBJECTID": 227, "WEBURL": "http:\/\/www.iolp.gsa.gov\/iolp\/BuildingInfo.asp?bID=DC1409", "BLDG_NAME": "NEBRASKA AVENUE COMPLEX 3801 NEBRASKA AVENUE ", "GIS_ID": "FED_227", "ALIAS": " ", "OWNERSHIP": "Owned", "X": 392689.87, "Y": 141298.42, "ADDRID": 291849, "ADDRESS": "3801 NEBRASKA AVENUE NW" }, "geometry": { "type": "Point", "coordinates": [ -77.084321654949463, 38.939552023697843 ] } },
{ "type": "Feature", "properties": { "OBJECTID": 228, "WEBURL": "http:\/\/www.iolp.gsa.gov\/iolp\/BuildingInfo.asp?bID=DC1410", "BLDG_NAME": "NEBRASKA AVENUE COMPLEX 3801 NEBRASKA AVENUE ", "GIS_ID": "FED_227", "ALIAS": " ", "OWNERSHIP": "Owned", "X": 392689.87, "Y": 141298.42, "ADDRID": 291849, "ADDRESS": "3801 NEBRASKA AVENUE NW" }, "geometry": { "type": "Point", "coordinates": [ -77.084321654949463, 38.939552023697843 ] } },
{ "type": "Feature", "properties": { "OBJECTID": 229, "WEBURL": "http:\/\/www.iolp.gsa.gov\/iolp\/BuildingInfo.asp?bID=DC1411", "BLDG_NAME": "NEBRASKA AVENUE COMPLEX 3801 NEBRASKA AVENUE ", "GIS_ID": "FED_227", "ALIAS": " ", "OWNERSHIP": "Owned", "X": 392689.87, "Y": 141298.42, "ADDRID": 291849, "ADDRESS": "3801 NEBRASKA AVENUE NW" }, "geometry": { "type": "Point", "coordinates": [ -77.084321654949463, 38.939552023697843 ] } },
{ "type": "Feature", "properties": { "OBJECTID": 230, "WEBURL": "http:\/\/www.iolp.gsa.gov\/iolp\/BuildingInfo.asp?bID=DC1412", "BLDG_NAME": "NEBRASKA AVENUE COMPLEX 3801 NEBRASKA AVENUE ", "GIS_ID": "FED_227", "ALIAS": " ", "OWNERSHIP": "Owned", "X": 392689.87, "Y": 141298.42, "ADDRID": 291849, "ADDRESS": "3801 NEBRASKA AVENUE NW" }, "geometry": { "type": "Point", "coordinates": [ -77.084321654949463, 38.939552023697843 ] } },
{ "type": "Feature", "properties": { "OBJECTID": 231, "WEBURL": "http:\/\/www.iolp.gsa.gov\/iolp\/BuildingInfo.asp?bID=DC1413", "BLDG_NAME": "NEBRASKA AVENUE COMPLEX 3801 NEBRASKA AVENUE ", "GIS_ID": "FED_227", "ALIAS": " ", "OWNERSHIP": "Owned", "X": 392689.87, "Y": 141298.42, "ADDRID": 291849, "ADDRESS": "3801 NEBRASKA AVENUE NW" }, "geometry": { "type": "Point", "coordinates": [ -77.084321654949463, 38.939552023697843 ] } },
{ "type": "Feature", "properties": { "OBJECTID": 232, "WEBURL": "http:\/\/www.iolp.gsa.gov\/iolp\/BuildingInfo.asp?bID=DC1414", "BLDG_NAME": "NEBRASKA AVENUE COMPLEX 3801 NEBRASKA AVENUE ", "GIS_ID": "FED_227", "ALIAS": " ", "OWNERSHIP": "Owned", "X": 392689.87, "Y": 141298.42, "ADDRID": 291849, "ADDRESS": "3801 NEBRASKA AVENUE NW" }, "geometry": { "type": "Point", "coordinates": [ -77.084321654949463, 38.939552023697843 ] } },
{ "type": "Feature", "properties": { "OBJECTID": 233, "WEBURL": "http:\/\/www.iolp.gsa.gov\/iolp\/BuildingInfo.asp?bID=DC1415", "BLDG_NAME": "NEBRASKA AVENUE COMPLEX 3801 NEBRASKA AVENUE ", "GIS_ID": "FED_227", "ALIAS": " ", "OWNERSHIP": "Owned", "X": 392689.87, "Y": 141298.42, "ADDRID": 291849, "ADDRESS": "3801 NEBRASKA AVENUE NW" }, "geometry": { "type": "Point", "coordinates": [ -77.084321654949463, 38.939552023697843 ] } },
{ "type": "Feature", "properties": { "OBJECTID": 234, "WEBURL": "http:\/\/www.iolp.gsa.gov\/iolp\/BuildingInfo.asp?bID=DC1416", "BLDG_NAME": "NEBRASKA AVENUE COMPLEX 3801 NEBRASKA AVENUE ", "GIS_ID": "FED_227", "ALIAS": " ", "OWNERSHIP": "Owned", "X": 392689.87, "Y": 141298.42, "ADDRID": 291849, "ADDRESS": "3801 NEBRASKA AVENUE NW" }, "geometry": { "type": "Point", "coordinates": [ -77.084321654949463, 38.939552023697843 ] } },
{ "type": "Feature", "properties": { "OBJECTID": 235, "WEBURL": "http:\/\/www.iolp.gsa.gov\/iolp\/BuildingInfo.asp?bID=DC1417", "BLDG_NAME": "NEBRASKA AVENUE COMPLEX 3801 NEBRASKA AVENUE ", "GIS_ID": "FED_227", "ALIAS": " ", "OWNERSHIP": "Owned", "X": 392689.87, "Y": 141298.42, "ADDRID": 291849, "ADDRESS": "3801 NEBRASKA AVENUE NW" }, "geometry": { "type": "Point", "coordinates": [ -77.084321654949463, 38.939552023697843 ] } },
{ "type": "Feature", "properties": { "OBJECTID": 236, "WEBURL": "http:\/\/www.iolp.gsa.gov\/iolp\/BuildingInfo.asp?bID=DC1418", "BLDG_NAME": "NEBRASKA AVENUE COMPLEX 3801 NEBRASKA AVENUE ", "GIS_ID": "FED_227", "ALIAS": " ", "OWNERSHIP": "Owned", "X": 392689.87, "Y": 141298.42, "ADDRID": 291849, "ADDRESS": "3801 NEBRASKA AVENUE NW" }, "geometry": { "type": "Point", "coordinates": [ -77.084321654949463, 38.939552023697843 ] } },
{ "type": "Feature", "properties": { "OBJECTID": 237, "WEBURL": "http:\/\/www.iolp.gsa.gov\/iolp\/BuildingInfo.asp?bID=DC1419", "BLDG_NAME": "NEBRASKA AVENUE COMPLEX 3801 NEBRASKA AVENUE ", "GIS_ID": "FED_227", "ALIAS": " ", "OWNERSHIP": "Owned", "X": 392689.87, "Y": 141298.42, "ADDRID": 291849, "ADDRESS": "3801 NEBRASKA AVENUE NW" }, "geometry": { "type": "Point", "coordinates": [ -77.084321654949463, 38.939552023697843 ] } },
{ "type": "Feature", "properties": { "OBJECTID": 238, "WEBURL": "http:\/\/www.iolp.gsa.gov\/iolp\/BuildingInfo.asp?bID=DC1420", "BLDG_NAME": "NEBRASKA AVENUE COMPLEX 3801 NEBRASKA AVENUE ", "GIS_ID": "FED_227", "ALIAS": " ", "OWNERSHIP": "Owned", "X": 392689.87, "Y": 141298.42, "ADDRID": 291849, "ADDRESS": "3801 NEBRASKA AVENUE NW" }, "geometry": { "type": "Point", "coordinates": [ -77.084321654949463, 38.939552023697843 ] } },
{ "type": "Feature", "properties": { "OBJECTID": 239, "WEBURL": "http:\/\/www.iolp.gsa.gov\/iolp\/BuildingInfo.asp?bID=DC1421", "BLDG_NAME": "NEBRASKA AVENUE COMPLEX 3801 NEBRASKA AVENUE ", "GIS_ID": "FED_227", "ALIAS": " ", "OWNERSHIP": "Owned", "X": 392689.87, "Y": 141298.42, "ADDRID": 291849, "ADDRESS": "3801 NEBRASKA AVENUE NW" }, "geometry": { "type": "Point", "coordinates": [ -77.084321654949463, 38.939552023697843 ] } },
{ "type": "Feature", "properties": { "OBJECTID": 240, "WEBURL": "http:\/\/www.iolp.gsa.gov\/iolp\/BuildingInfo.asp?bID=DC1422", "BLDG_NAME": "NEBRASKA AVENUE COMPLEX 3801 NEBRASKA AVENUE ", "GIS_ID": "FED_227", "ALIAS": " ", "OWNERSHIP": "Owned", "X": 392689.87, "Y": 141298.42, "ADDRID": 291849, "ADDRESS": "3801 NEBRASKA AVENUE NW" }, "geometry": { "type": "Point", "coordinates": [ -77.084321654949463, 38.939552023697843 ] } },
{ "type": "Feature", "properties": { "OBJECTID": 241, "WEBURL": "http:\/\/www.iolp.gsa.gov\/iolp\/BuildingInfo.asp?bID=DC1423", "BLDG_NAME": "NEBRASKA AVENUE COMPLEX 3801 NEBRASKA AVENUE ", "GIS_ID": "FED_227", "ALIAS": " ", "OWNERSHIP": "Owned", "X": 392689.87, "Y": 141298.42, "ADDRID": 291849, "ADDRESS": "3801 NEBRASKA AVENUE NW" }, "geometry": { "type": "Point", "coordinates": [ -77.084321654949463, 38.939552023697843 ] } },
{ "type": "Feature", "properties": { "OBJECTID": 242, "WEBURL": "http:\/\/www.iolp.gsa.gov\/iolp\/BuildingInfo.asp?bID=DC1424", "BLDG_NAME": "NEBRASKA AVENUE COMPLEX 3801 NEBRASKA AVENUE ", "GIS_ID": "FED_227", "ALIAS": " ", "OWNERSHIP": "Owned", "X": 392689.87, "Y": 141298.42, "ADDRID": 291849, "ADDRESS": "3801 NEBRASKA AVENUE NW" }, "geometry": { "type": "Point", "coordinates": [ -77.084321654949463, 38.939552023697843 ] } },
{ "type": "Feature", "properties": { "OBJECTID": 243, "WEBURL": "http:\/\/www.iolp.gsa.gov\/iolp\/BuildingInfo.asp?bID=DC1426", "BLDG_NAME": "NEBRASKA AVENUE COMPLEX 3801 NEBRASKA AVENUE ", "GIS_ID": "FED_227", "ALIAS": " ", "OWNERSHIP": "Owned", "X": 392689.87, "Y": 141298.42, "ADDRID": 291849, "ADDRESS": "3801 NEBRASKA AVENUE NW" }, "geometry": { "type": "Point", "coordinates": [ -77.084321654949463, 38.939552023697843 ] } },
{ "type": "Feature", "properties": { "OBJECTID": 244, "WEBURL": "http:\/\/www.iolp.gsa.gov\/iolp\/BuildingInfo.asp?bID=DC1427", "BLDG_NAME": "NEBRASKA AVENUE COMPLEX 3801 NEBRASKA AVENUE ", "GIS_ID": "FED_227", "ALIAS": " ", "OWNERSHIP": "Owned", "X": 392689.87, "Y": 141298.42, "ADDRID": 291849, "ADDRESS": "3801 NEBRASKA AVENUE NW" }, "geometry": { "type": "Point", "coordinates": [ -77.084321654949463, 38.939552023697843 ] } },
{ "type": "Feature", "properties": { "OBJECTID": 245, "WEBURL": "http:\/\/www.iolp.gsa.gov\/iolp\/BuildingInfo.asp?bID=DC1428", "BLDG_NAME": "NEBRASKA AVENUE COMPLEX 3801 NEBRASKA AVENUE ", "GIS_ID": "FED_227", "ALIAS": " ", "OWNERSHIP": "Owned", "X": 392689.87, "Y": 141298.42, "ADDRID": 291849, "ADDRESS": "3801 NEBRASKA AVENUE NW" }, "geometry": { "type": "Point", "coordinates": [ -77.084321654949463, 38.939552023697843 ] } },