{"type":"FeatureCollection","features":[{"type":"Feature","properties":{"OBJECTID":1,"WEBURL":"http://www.iolp.gsa.gov/iolp/BuildingInfo.asp?bID=DC0398","NUM":398,"BLDG_NAME":"1 MASSACHUSETTS AVE NW ","GIS_ID":"FED_144","ALIAS":" ","OWNERSHIP":"Leased","X":399170.78,"Y":136696.43,"ADDRID":238009,"ADDRESS":"1 MASSACHUSETTS AVENUE NW"},"geometry":{"type":"Point","coordinates":[-77.00956144228859,38.8981258068195]}},{"type":"Feature","properties":{"OBJECTID":2,"WEBURL":"http://www.iolp.gsa.gov/iolp/BuildingInfo.asp?bID=DC0218","NUM":218,"BLDG_NAME":"1 THOMAS CIR NW","GIS_ID":null,"ALIAS":null,"OWNERSHIP":"Leased","X":397172.44,"Y":137502.09,"ADDRID":240253,"ADDRESS":"1 THOMAS CIRCLE NW"},"geometry":{"type":"Point","coordinates":[-77.0326014063812,38.90537932236303]}},{"type":"Feature","properties":{"OBJECTID":3,"WEBURL":"http://www.iolp.gsa.gov/iolp/BuildingInfo.asp?bID=DC0707","NUM":707,"BLDG_NAME":"1025 F STREET NW ","GIS_ID":"FED_155","ALIAS":" ","OWNERSHIP":"Leased","X":397701.84,"Y":136658.03,"ADDRID":278794,"ADDRESS":"1025 F STREET NW"},"geometry":{"type":"Point","coordinates":[-77.02649509528997,38.89777727207152]}},{"type":"Feature","properties":{"OBJECTID":4,"WEBURL":"http://www.iolp.gsa.gov/iolp/BuildingInfo.asp?bID=DC0404","NUM":404,"BLDG_NAME":"1099 14TH STREET ","GIS_ID":"FED_79","ALIAS":" ","OWNERSHIP":"Leased","X":397251.86,"Y":137280.68,"ADDRID":278809,"ADDRESS":"1099 14TH STREET NW"},"geometry":{"type":"Point","coordinates":[-77.0316848820833,38.903385034933095]}},{"type":"Feature","properties":{"OBJECTID":5,"WEBURL":"http://www.iolp.gsa.gov/iolp/BuildingInfo.asp?bID=DC0194","NUM":194,"BLDG_NAME":"1100 1ST ST NE","GIS_ID":null,"ALIAS":null,"OWNERSHIP":"Leased","X":399453.96,"Y":137350.49,"ADDRID":306087,"ADDRESS":"1100 1ST STREET NE"},"geometry":{"type":"Point","coordinates":[-77.00629749406528,38.90401803543715]}},{"type":"Feature","properties":{"OBJECTID":6,"WEBURL":"http://www.iolp.gsa.gov/iolp/BuildingInfo.asp?bID=DC1184","NUM":1184,"BLDG_NAME":"1100 L STREET, NW ","GIS_ID":"FED_2","ALIAS":" ","OWNERSHIP":"Leased","X":397610.58,"Y":137299.73,"ADDRID":239119,"ADDRESS":"1100 L STREET NW"},"geometry":{"type":"Point","coordinates":[-77.02754935813694,38.90355769255566]}},{"type":"Feature","properties":{"OBJECTID":7,"WEBURL":"http://www.iolp.gsa.gov/iolp/BuildingInfo.asp?bID=DC0395","NUM":395,"BLDG_NAME":"111 MASSACHUSETTS AVE NW ","GIS_ID":"FED_87","ALIAS":" ","OWNERSHIP":"Leased","X":398857.25,"Y":136868.74,"ADDRID":238363,"ADDRESS":"111 MASSACHUSETTS AVENUE NW"},"geometry":{"type":"Point","coordinates":[-77.01317606906946,38.89967768587079]}},{"type":"Feature","properties":{"OBJECTID":8,"WEBURL":"http://www.iolp.gsa.gov/iolp/BuildingInfo.asp?bID=DC1117","NUM":1117,"BLDG_NAME":"1111 20TH STREET, NW ","GIS_ID":"FED_187","ALIAS":" ","OWNERSHIP":"Leased","X":396140.4,"Y":137359.53,"ADDRID":278855,"ADDRESS":"1111 20TH STREET NW"},"geometry":{"type":"Point","coordinates":[-77.04449905959164,38.904091165492055]}},{"type":"Feature","properties":{"OBJECTID":9,"WEBURL":"http://www.iolp.gsa.gov/iolp/BuildingInfo.asp?bID=DC0432","NUM":432,"BLDG_NAME":"1120 20TH ST NW ","GIS_ID":"FED_186","ALIAS":" ","OWNERSHIP":"Leased","X":396063.69,"Y":137415.17,"ADDRID":240941,"ADDRESS":"1120 20TH STREET NW"},"geometry":{"type":"Point","coordinates":[-77.04538375697115,38.904592049996126]}},{"type":"Feature","properties":{"OBJECTID":10,"WEBURL":"http://www.iolp.gsa.gov/iolp/BuildingInfo.asp?bID=DC0295","NUM":295,"BLDG_NAME":"1120 VERMONT AVE NW ","GIS_ID":"FED_165","ALIAS":" ","OWNERSHIP":"Leased","X":397138,"Y":137440.34,"ADDRID":240249,"ADDRESS":"1120 VERMONT AVENUE NW"},"geometry":{"type":"Point","coordinates":[-77.03299820998389,38.90482294518281]}},{"type":"Feature","properties":{"OBJECTID":11,"WEBURL":"http://www.iolp.gsa.gov/iolp/BuildingInfo.asp?bID=DC0557","NUM":557,"BLDG_NAME":"1125 15TH ST NW","GIS_ID":"FED_7","ALIAS":" ","OWNERSHIP":"Leased","X":397041.86,"Y":137401.91,"ADDRID":240247,"ADDRESS":"1125 15TH STREET NW"},"geometry":{"type":"Point","coordinates":[-77.03410643998707,38.904476435875814]}},{"type":"Feature","properties":{"OBJECTID":12,"WEBURL":"http://www.iolp.gsa.gov/iolp/BuildingInfo.asp?bID=DC0689","NUM":689,"BLDG_NAME":"1200 NEW JERSEY AVE, SE ","GIS_ID":"FED_5","ALIAS":" ","OWNERSHIP":"Leased","X":399714.7,"Y":134228.92,"ADDRID":300402,"ADDRESS":"1200 NEW JERSEY AVENUE SE"},"geometry":{"type":"Point","coordinates":[-77.00329016526231,38.87589788176946]}},{"type":"Feature","properties":{"OBJECTID":13,"WEBURL":"http://www.iolp.gsa.gov/iolp/BuildingInfo.asp?bID=DC1392","NUM":1392,"BLDG_NAME":"1201 15TH STREET, NW ","GIS_ID":"FED_231","ALIAS":" ","OWNERSHIP":"Leased","X":397053.32,"Y":137573.34,"ADDRID":240244,"ADDRESS":"1201 15TH STREET NW"},"geometry":{"type":"Point","coordinates":[-77.0339750541959,38.90602077601324]}},{"type":"Feature","properties":{"OBJECTID":14,"WEBURL":"http://www.iolp.gsa.gov/iolp/BuildingInfo.asp?bID=DC0690","NUM":690,"BLDG_NAME":"1201 I ST NW ","GIS_ID":"FED_6","ALIAS":" ","OWNERSHIP":"Leased","X":397522.71,"Y":137086.75,"ADDRID":240924,"ADDRESS":"1201 I STREET NW"},"geometry":{"type":"Point","coordinates":[-77.02856162283928,38.90163884967845]}},{"type":"Feature","properties":{"OBJECTID":15,"WEBURL":"http://www.iolp.gsa.gov/iolp/BuildingInfo.asp?bID=DC0068","NUM":68,"BLDG_NAME":"1201 MARYLAND AVE SW ","GIS_ID":"FED_232","ALIAS":" ","OWNERSHIP":"Leased","X":397453.41,"Y":135206.33,"ADDRID":300320,"ADDRESS":"1201 MARYLAND AVENUE SW"},"geometry":{"type":"Point","coordinates":[-77.02935357397322,38.88469913108489]}},{"type":"Feature","properties":{"OBJECTID":16,"WEBURL":"http://www.iolp.gsa.gov/iolp/BuildingInfo.asp?bID=DC0712","NUM":712,"BLDG_NAME":"1201 New York Avenue NW","GIS_ID":"FED_166","ALIAS":" ","OWNERSHIP":"Leased","X":397523.81,"Y":137018.15,"ADDRID":278918,"ADDRESS":"1201 NEW YORK AVENUE NW"},"geometry":{"type":"Point","coordinates":[-77.02854869419237,38.901020879439805]}},{"type":"Feature","properties":{"OBJECTID":17,"WEBURL":"http://www.iolp.gsa.gov/iolp/BuildingInfo.asp?bID=DC0571","NUM":571,"BLDG_NAME":"122 C STREET, NW","GIS_ID":"FED_167","ALIAS":" ","OWNERSHIP":"Leased","X":398870.35,"Y":136165.21,"ADDRID":278952,"ADDRESS":"122 C STREET NW"},"geometry":{"type":"Point","coordinates":[-77.01302389312411,38.89334004720873]}},{"type":"Feature","properties":{"OBJECTID":18,"WEBURL":"http://www.iolp.gsa.gov/iolp/BuildingInfo.asp?bID=DC0813","NUM":813,"BLDG_NAME":"1220 L STREET, NW","GIS_ID":"FED_39","ALIAS":" ","OWNERSHIP":"Leased","X":397472.05,"Y":137281.07,"ADDRID":240921,"ADDRESS":"1220 L STREET NW"},"geometry":{"type":"Point","coordinates":[-77.02914636989398,38.90338920911787]}},{"type":"Feature","properties":{"OBJECTID":19,"WEBURL":"http://www.iolp.gsa.gov/iolp/BuildingInfo.asp?bID=DC1105","NUM":1105,"BLDG_NAME":"1222 22ND ST NW","GIS_ID":"FED_40","ALIAS":" ","OWNERSHIP":"Leased","X":395735.71,"Y":137558.79,"ADDRID":276965,"ADDRESS":"1222 22ND STREET NW"},"geometry":{"type":"Point","coordinates":[-77.04916590909377,38.905884299188706]}},{"type":"Feature","properties":{"OBJECTID":20,"WEBURL":"http://www.iolp.gsa.gov/iolp/BuildingInfo.asp?bID=DC0060","NUM":60,"BLDG_NAME":"1227 25TH STREET, NW ","GIS_ID":"FED_234","ALIAS":" ","OWNERSHIP":"Leased","X":395423.43,"Y":137572.48,"ADDRID":273948,"ADDRESS":"1227 25TH STREET NW"},"geometry":{"type":"Point","coordinates":[-77.05276632150067,38.90600605286513]}},{"type":"Feature","properties":{"OBJECTID":21,"WEBURL":"http://www.iolp.gsa.gov/iolp/BuildingInfo.asp?bID=DC0403","NUM":403,"BLDG_NAME":"1250 MARYLAND AVE SW ","GIS_ID":"FED_154","ALIAS":" ","OWNERSHIP":"Leased","X":397446.48,"Y":135095.71,"ADDRID":289120,"ADDRESS":"1250 MARYLAND AVENUE SW"},"geometry":{"type":"Point","coordinates":[-77.0294330361258,38.88370260343699]}},{"type":"Feature","properties":{"OBJECTID":22,"WEBURL":"http://www.iolp.gsa.gov/iolp/BuildingInfo.asp?bID=DC0207","NUM":207,"BLDG_NAME":"1275 FIRST ST NE","GIS_ID":null,"ALIAS":null,"OWNERSHIP":"Leased","X":399526.21,"Y":137678.49,"ADDRID":303729,"ADDRESS":"1275 1ST STREET NE"},"geometry":{"type":"Point","coordinates":[-77.00546476150171,38.906972816630045]}},{"type":"Feature","properties":{"OBJECTID":23,"WEBURL":"http://www.iolp.gsa.gov/iolp/BuildingInfo.asp?bID=DC1147","NUM":1147,"BLDG_NAME":"1291 TAYLOR ST NW ","GIS_ID":"FED_41","ALIAS":" ","OWNERSHIP":"Leased","X":397529.77,"Y":141493.79,"ADDRID":223665,"ADDRESS":"1291 TAYLOR STREET NW"},"geometry":{"type":"Point","coordinates":[-77.02849609249401,38.94133891537666]}},{"type":"Feature","properties":{"OBJECTID":24,"WEBURL":"http://www.iolp.gsa.gov/iolp/BuildingInfo.asp?bID=DC0422","NUM":422,"BLDG_NAME":"1301 K ST NW ","GIS_ID":"FED_143","ALIAS":" ","OWNERSHIP":"Leased","X":397352.63,"Y":137230.54,"ADDRID":240647,"ADDRESS":"1301 K STREET NW"},"geometry":{"type":"Point","coordinates":[-77.03052293750412,38.90293366534804]}},{"type":"Feature","properties":{"OBJECTID":25,"WEBURL":"http://www.iolp.gsa.gov/iolp/BuildingInfo.asp?bID=DC0319","NUM":319,"BLDG_NAME":"1301 NEW YORK AVE","GIS_ID":"FED_42","ALIAS":" ","OWNERSHIP":"Leased","X":397398.25,"Y":136969.32,"ADDRID":279022,"ADDRESS":"1301 NEW YORK AVENUE NW"},"geometry":{"type":"Point","coordinates":[-77.02999601003202,38.90058063857444]}},{"type":"Feature","properties":{"OBJECTID":26,"WEBURL":"http://www.iolp.gsa.gov/iolp/BuildingInfo.asp?bID=DC1234","NUM":1234,"BLDG_NAME":"131 M ST NE ","GIS_ID":"FED_250","ALIAS":" ","OWNERSHIP":"Leased","X":399583.74,"Y":137478.45,"ADDRID":68490,"ADDRESS":"131 M STREET NE"},"geometry":{"type":"Point","coordinates":[-77.00480135824554,38.90517081536221]}},{"type":"Feature","properties":{"OBJECTID":27,"WEBURL":"http://www.iolp.gsa.gov/iolp/BuildingInfo.asp?bID=DC0437","NUM":437,"BLDG_NAME":"1310 G ST NW","GIS_ID":"FED_43","ALIAS":" ","OWNERSHIP":"Leased","X":397343.59,"Y":136696.01,"ADDRID":240663,"ADDRESS":"1310 G STREET NW"},"geometry":{"type":"Point","coordinates":[-77.03062508918626,38.89811839997024]}},{"type":"Feature","properties":{"OBJECTID":28,"WEBURL":"http://www.iolp.gsa.gov/iolp/BuildingInfo.asp?bID=DC0534","NUM":534,"BLDG_NAME":"1325 G ST, NW ","GIS_ID":"FED_45","ALIAS":" ","OWNERSHIP":"Leased","X":397311.8,"Y":136763.36,"ADDRID":240653,"ADDRESS":"1325 G STREET NW"},"geometry":{"type":"Point","coordinates":[-77.03099182442442,38.89872501651871]}},{"type":"Feature","properties":{"OBJECTID":29,"WEBURL":"http://www.iolp.gsa.gov/iolp/BuildingInfo.asp?bID=DC0388","NUM":388,"BLDG_NAME":"1331 F STREET NW ","GIS_ID":"FED_46","ALIAS":" ","OWNERSHIP":"Leased","X":397317.22,"Y":136643.83,"ADDRID":240659,"ADDRESS":"1331 F STREET NW"},"geometry":{"type":"Point","coordinates":[-77.03092887584452,38.89764826348586]}},{"type":"Feature","properties":{"OBJECTID":30,"WEBURL":"http://www.iolp.gsa.gov/iolp/BuildingInfo.asp?bID=DC0320","NUM":320,"BLDG_NAME":"1331 PENN AVENUE,NW","GIS_ID":"FED_146","ALIAS":" ","OWNERSHIP":"Leased","X":397278.55,"Y":136502.52,"ADDRID":279081,"ADDRESS":"1331 PENNSYLVANIA AVENUE NW"},"geometry":{"type":"Point","coordinates":[-77.03137409653763,38.896375172606724]}},{"type":"Feature","properties":{"OBJECTID":31,"WEBURL":"http://www.iolp.gsa.gov/iolp/BuildingInfo.asp?bID=DC0811","NUM":811,"BLDG_NAME":"1341 G ST NW ","GIS_ID":"FED_76","ALIAS":" ","OWNERSHIP":"Leased","X":397270.13,"Y":136746.84,"ADDRID":240652,"ADDRESS":"1341 G STREET NW"},"geometry":{"type":"Point","coordinates":[-77.0314721300425,38.89857606994508]}},{"type":"Feature","properties":{"OBJECTID":32,"WEBURL":"http://www.iolp.gsa.gov/iolp/BuildingInfo.asp?bID=DC0703","NUM":703,"BLDG_NAME":"1400 K ST NW","GIS_ID":"FED_47","ALIAS":" ","OWNERSHIP":"Leased","X":397188.82,"Y":137146.36,"ADDRID":240269,"ADDRESS":"1400 K STREET NW"},"geometry":{"type":"Point","coordinates":[-77.03241110411865,38.90217483328032]}},{"type":"Feature","properties":{"OBJECTID":33,"WEBURL":"http://www.iolp.gsa.gov/iolp/BuildingInfo.asp?bID=DC0350","NUM":350,"BLDG_NAME":"1400 L STREET NW ","GIS_ID":"FED_172","ALIAS":" ","OWNERSHIP":"Leased","X":397190.44,"Y":137288.43,"ADDRID":240266,"ADDRESS":"1400 L STREET NW"},"geometry":{"type":"Point","coordinates":[-77.03239300909358,38.903454655479884]}},{"type":"Feature","properties":{"OBJECTID":34,"WEBURL":"http://www.iolp.gsa.gov/iolp/BuildingInfo.asp?bID=DC0328","NUM":328,"BLDG_NAME":"1400 NEW YORK AVE NW","GIS_ID":"FED_72","ALIAS":" ","OWNERSHIP":"Leased","X":397186.91,"Y":136790.33,"ADDRID":279125,"ADDRESS":"1400 NEW YORK AVENUE NW"},"geometry":{"type":"Point","coordinates":[-77.03243166535819,38.89896758118522]}},{"type":"Feature","properties":{"OBJECTID":35,"WEBURL":"http://www.iolp.gsa.gov/iolp/BuildingInfo.asp?bID=DC0426","NUM":426,"BLDG_NAME":"1401 H ST NW ","GIS_ID":"FED_75","ALIAS":" ","OWNERSHIP":"Leased","X":397187.62,"Y":136960.55,"ADDRID":217998,"ADDRESS":"1401 H STREET NW"},"geometry":{"type":"Point","coordinates":[-77.03242417748004,38.9005009865225]}},{"type":"Feature","properties":{"OBJECTID":36,"WEBURL":"http://www.iolp.gsa.gov/iolp/BuildingInfo.asp?bID=DC0385","NUM":385,"BLDG_NAME":"1425 NEW YORK AVE NW ","GIS_ID":"FED_48","ALIAS":" ","OWNERSHIP":"Leased","X":397174.19,"Y":136849.53,"ADDRID":300903,"ADDRESS":"1425 NEW YORK AVENUE NW"},"geometry":{"type":"Point","coordinates":[-77.03257854543692,38.899500835350494]}},{"type":"Feature","properties":{"OBJECTID":37,"WEBURL":"http://www.iolp.gsa.gov/iolp/BuildingInfo.asp?bID=DC1152","NUM":1152,"BLDG_NAME":"1441 L ST","GIS_ID":"FED_50","ALIAS":" ","OWNERSHIP":"Leased","X":397071.25,"Y":137344.22,"ADDRID":240245,"ADDRESS":"1441 L STREET NW"},"geometry":{"type":"Point","coordinates":[-77.03376735905687,38.90395684243036]}},{"type":"Feature","properties":{"OBJECTID":38,"WEBURL":"http://www.iolp.gsa.gov/iolp/BuildingInfo.asp?bID=DC0067","NUM":67,"BLDG_NAME":"145 N STREET, NE","GIS_ID":null,"ALIAS":null,"OWNERSHIP":"Leased","X":399603.13,"Y":137670.21,"ADDRID":303732,"ADDRESS":"145 N STREET NE"},"geometry":{"type":"Point","coordinates":[-77.00457792125455,38.90689826563016]}},{"type":"Feature","properties":{"OBJECTID":39,"WEBURL":"http://www.iolp.gsa.gov/iolp/BuildingInfo.asp?bID=DC0197","NUM":197,"BLDG_NAME":"1575 EYE STREET, NW ","GIS_ID":null,"ALIAS":null,"OWNERSHIP":"Leased","X":396923.31,"Y":137084.13,"ADDRID":218344,"ADDRESS":"1575 I STREET NW"},"geometry":{"type":"Point","coordinates":[-77.03547176952593,38.901613353910086]}},{"type":"Feature","properties":{"OBJECTID":40,"WEBURL":"http://www.iolp.gsa.gov/iolp/BuildingInfo.asp?bID=DC0424","NUM":424,"BLDG_NAME":"1615 M STREET, NW","GIS_ID":null,"ALIAS":null,"OWNERSHIP":"Leased","X":396760.09,"Y":137555.81,"ADDRID":301103,"ADDRESS":"1615 M STREET NW"},"geometry":{"type":"Point","coordinates":[-77.03735566921273,38.905861827567705]}},{"type":"Feature","properties":{"OBJECTID":41,"WEBURL":"http://www.iolp.gsa.gov/iolp/BuildingInfo.asp?bID=DC0696","NUM":696,"BLDG_NAME":"1629 K STREET, NW ","GIS_ID":"FED_153","ALIAS":" ","OWNERSHIP":"Leased","X":396712.9,"Y":137230.4,"ADDRID":242031,"ADDRESS":"1629 K STREET NW"},"geometry":{"type":"Point","coordinates":[-77.03789817181139,38.902930244383604]}},{"type":"Feature","properties":{"OBJECTID":42,"WEBURL":"http://www.iolp.gsa.gov/iolp/BuildingInfo.asp?bID=DC0045","NUM":45,"BLDG_NAME":"1717 H ST NW ","GIS_ID":"FED_235","ALIAS":" ","OWNERSHIP":"Leased","X":396478.7,"Y":136960.85,"ADDRID":279331,"ADDRESS":"1717 H STREET NW"},"geometry":{"type":"Point","coordinates":[-77.04059680373636,38.90050113474692]}},{"type":"Feature","properties":{"OBJECTID":43,"WEBURL":"http://www.iolp.gsa.gov/iolp/BuildingInfo.asp?bID=DC0189","NUM":189,"BLDG_NAME":"1717 PENNSYLVANIA AVENUE, NW ","GIS_ID":"FED_236","ALIAS":" ","OWNERSHIP":"Leased","X":396496.29,"Y":136846.4,"ADDRID":279332,"ADDRESS":"1717 PENNSYLVANIA AVENUE NW"},"geometry":{"type":"Point","coordinates":[-77.0403934375346,38.89947019830451]}},{"type":"Feature","properties":{"OBJECTID":44,"WEBURL":"http://www.iolp.gsa.gov/iolp/BuildingInfo.asp?bID=DC0852","NUM":852,"BLDG_NAME":"1722 I STREET NW ","GIS_ID":"FED_80","ALIAS":" ","OWNERSHIP":"Leased","X":396455.45,"Y":137020.49,"ADDRID":279347,"ADDRESS":"1722 I STREET NW"},"geometry":{"type":"Point","coordinates":[-77.04086514392489,38.90103829977276]}},{"type":"Feature","properties":{"OBJECTID":45,"WEBURL":"http://www.iolp.gsa.gov/iolp/BuildingInfo.asp?bID=DC0423","NUM":423,"BLDG_NAME":"1730 M STREET MW ","GIS_ID":"FED_51","ALIAS":" ","OWNERSHIP":"Leased","X":396539.28,"Y":137499.67,"ADDRID":241789,"ADDRESS":"1730 M STREET NW"},"geometry":{"type":"Point","coordinates":[-77.03990113602053,38.90535525703669]}},{"type":"Feature","properties":{"OBJECTID":46,"WEBURL":"http://www.iolp.gsa.gov/iolp/BuildingInfo.asp?bID=DC0199","NUM":199,"BLDG_NAME":"1735 NEW YORK AVE N.W ","GIS_ID":null,"ALIAS":null,"OWNERSHIP":"Leased","X":396452.55,"Y":136522.12,"ADDRID":218464,"ADDRESS":"1735 NEW YORK AVENUE NW"},"geometry":{"type":"Point","coordinates":[-77.04089600218812,38.89654879103664]}},{"type":"Feature","properties":{"OBJECTID":47,"WEBURL":"http://www.iolp.gsa.gov/iolp/BuildingInfo.asp?bID=DC0560","NUM":560,"BLDG_NAME":"1750 PENNSYLVANIA AVE NW ","GIS_ID":"FED_174","ALIAS":" ","OWNERSHIP":"Leased","X":396464.2,"Y":136788.13,"ADDRID":279377,"ADDRESS":"1750 PENNSYLVANIA AVENUE NW"},"geometry":{"type":"Point","coordinates":[-77.04076307456425,38.8989451526242]}},{"type":"Feature","properties":{"OBJECTID":48,"WEBURL":"http://www.iolp.gsa.gov/iolp/BuildingInfo.asp?bID=DC0371","NUM":371,"BLDG_NAME":"1776 G ST NW ","GIS_ID":"FED_54","ALIAS":" ","OWNERSHIP":"Leased","X":396428.16,"Y":136695.02,"ADDRID":218480,"ADDRESS":"1776 G STREET NW"},"geometry":{"type":"Point","coordinates":[-77.04117806033443,38.898106238344276]}},{"type":"Feature","properties":{"OBJECTID":49,"WEBURL":"http://www.iolp.gsa.gov/iolp/BuildingInfo.asp?bID=DC1123","NUM":1123,"BLDG_NAME":"1800 G ST NW ","GIS_ID":"FED_55","ALIAS":" ","OWNERSHIP":"Leased","X":396305.46,"Y":136686.3,"ADDRID":218491,"ADDRESS":"1800 G STREET NW"},"geometry":{"type":"Point","coordinates":[-77.04259248527376,38.89802717824952]}},{"type":"Feature","properties":{"OBJECTID":50,"WEBURL":"http://www.iolp.gsa.gov/iolp/BuildingInfo.asp?bID=DC0506","NUM":506,"BLDG_NAME":"1800 M ST NW ","GIS_ID":"FED_56","ALIAS":" ","OWNERSHIP":"Leased","X":396336.44,"Y":137497.81,"ADDRID":241302,"ADDRESS":"1800 M STREET NW"},"geometry":{"type":"Point","coordinates":[-77.0422396805165,38.90533767938724]}},{"type":"Feature","properties":{"OBJECTID":51,"WEBURL":"http://www.iolp.gsa.gov/iolp/BuildingInfo.asp?bID=DC0347","NUM":347,"BLDG_NAME":"1801 L ST NW ","GIS_ID":"FED_175","ALIAS":" ","OWNERSHIP":"Leased","X":396356.58,"Y":137348.25,"ADDRID":240971,"ADDRESS":"1801 L STREET NW"},"geometry":{"type":"Point","coordinates":[-77.04200669184164,38.90399047401572]}},{"type":"Feature","properties":{"OBJECTID":52,"WEBURL":"http://www.iolp.gsa.gov/iolp/BuildingInfo.asp?bID=DC0714","NUM":714,"BLDG_NAME":"1900 HALF ST SW ","GIS_ID":"FED_238","ALIAS":" ","OWNERSHIP":"Leased","X":399138.28,"Y":133199.59,"ADDRID":277760,"ADDRESS":"1900 HALF STREET SW"},"geometry":{"type":"Point","coordinates":[-77.00993171222636,38.86662488357942]}},{"type":"Feature","properties":{"OBJECTID":53,"WEBURL":"http://www.iolp.gsa.gov/iolp/BuildingInfo.asp?bID=DC0436","NUM":436,"BLDG_NAME":"1905 9TH ST NE ","GIS_ID":"FED_147","ALIAS":" ","OWNERSHIP":"Leased","X":400583.63,"Y":138764.04,"ADDRID":54411,"ADDRESS":"1905 9TH STREET NE"},"geometry":{"type":"Point","coordinates":[-76.99327250362775,38.916751755505175]}},{"type":"Feature","properties":{"OBJECTID":54,"WEBURL":"http://www.iolp.gsa.gov/iolp/BuildingInfo.asp?bID=DC0345","NUM":345,"BLDG_NAME":"1990 K ST NW ","GIS_ID":"FED_176","ALIAS":" ","OWNERSHIP":"Leased","X":396135.86,"Y":137148.75,"ADDRID":218576,"ADDRESS":"1990 K STREET NW"},"geometry":{"type":"Point","coordinates":[-77.04455021463497,38.90219236465857]}},{"type":"Feature","properties":{"OBJECTID":55,"WEBURL":"http://www.iolp.gsa.gov/iolp/BuildingInfo.asp?bID=DC0011","NUM":11,"BLDG_NAME":"2 MASSACHUSETTS AVE NE ","GIS_ID":"FED_148","ALIAS":" ","OWNERSHIP":"Leased","X":399289.64,"Y":136698.7,"ADDRID":293217,"ADDRESS":"2 MASSACHUSETTS AVENUE NE"},"geometry":{"type":"Point","coordinates":[-77.00819123936462,38.89814635994005]}},{"type":"Feature","properties":{"OBJECTID":56,"WEBURL":"http://www.iolp.gsa.gov/iolp/BuildingInfo.asp?bID=DC0190","NUM":190,"BLDG_NAME":"20 M ST SE ","GIS_ID":null,"ALIAS":null,"OWNERSHIP":"Leased","X":399314.32,"Y":134328.67,"ADDRID":301132,"ADDRESS":"20 M STREET SE"},"geometry":{"type":"Point","coordinates":[-77.00790436461021,38.876796248209345]}},{"type":"Feature","properties":{"OBJECTID":57,"WEBURL":"http://www.iolp.gsa.gov/iolp/BuildingInfo.asp?bID=DC1359","NUM":1359,"BLDG_NAME":"20 MASSACHUSETTS AVE NW ","GIS_ID":"FED_74","ALIAS":" ","OWNERSHIP":"Leased","X":399074.78,"Y":136657.3,"ADDRID":243242,"ADDRESS":"20 MASSACHUSETTS AVENUE NW"},"geometry":{"type":"Point","coordinates":[-77.01066806721664,38.89777321371452]}},{"type":"Feature","properties":{"OBJECTID":58,"WEBURL":"http://www.iolp.gsa.gov/iolp/BuildingInfo.asp?bID=DC1218","NUM":1218,"BLDG_NAME":"2000 L ST NW ","GIS_ID":null,"ALIAS":null,"OWNERSHIP":"Leased","X":396028.64,"Y":137284.56,"ADDRID":243349,"ADDRESS":"2000 L STREET NW"},"geometry":{"type":"Point","coordinates":[-77.04578709088626,38.90341531137656]}},{"type":"Feature","properties":{"OBJECTID":59,"WEBURL":"http://www.iolp.gsa.gov/iolp/BuildingInfo.asp?bID=DC1269","NUM":1269,"BLDG_NAME":"2025 E ST NW ","GIS_ID":"FED_239","ALIAS":" ","OWNERSHIP":"Leased","X":396033.99,"Y":136507.33,"ADDRID":293219,"ADDRESS":"2025 E STREET NW"},"geometry":{"type":"Point","coordinates":[-77.04572092412464,38.89641376843955]}},{"type":"Feature","properties":{"OBJECTID":60,"WEBURL":"http://www.iolp.gsa.gov/iolp/BuildingInfo.asp?bID=DC0467","NUM":467,"BLDG_NAME":"2041 MLK JR AVE, SE ","GIS_ID":"FED_168","ALIAS":" ","OWNERSHIP":"Leased","X":400882.92,"Y":133122.47,"ADDRID":278056,"ADDRESS":"2041 MARTIN LUTHER KING JR AVENUE SE"},"geometry":{"type":"Point","coordinates":[-76.98982866632619,38.86593013448234]}},{"type":"Feature","properties":{"OBJECTID":61,"WEBURL":"http://www.iolp.gsa.gov/iolp/BuildingInfo.asp?bID=DC1230","NUM":1230,"BLDG_NAME":"2100 2ND ST SW ","GIS_ID":"FED_156","ALIAS":" ","OWNERSHIP":"Leased","X":398876.36,"Y":132923.16,"ADDRID":277778,"ADDRESS":"2100 2ND STREET SW"},"geometry":{"type":"Point","coordinates":[-77.01294931313197,38.86413439182726]}},{"type":"Feature","properties":{"OBJECTID":62,"WEBURL":"http://www.iolp.gsa.gov/iolp/BuildingInfo.asp?bID=DC1084","NUM":1084,"BLDG_NAME":"2100 K ST NW ","GIS_ID":"FED_149","ALIAS":" ","OWNERSHIP":"Leased","X":395923.82,"Y":137153.68,"ADDRID":242489,"ADDRESS":"2100 K STREET NW"},"geometry":{"type":"Point","coordinates":[-77.0469947572034,38.90223581805933]}},{"type":"Feature","properties":{"OBJECTID":63,"WEBURL":"http://www.iolp.gsa.gov/iolp/BuildingInfo.asp?bID=DC1222","NUM":1222,"BLDG_NAME":"2100 M STREET NW ","GIS_ID":"FED_59","ALIAS":" ","OWNERSHIP":"Leased","X":395922.96,"Y":137446.32,"ADDRID":279529,"ADDRESS":"2100 M STREET NW"},"geometry":{"type":"Point","coordinates":[-77.04700640903572,38.90487201859367]}},{"type":"Feature","properties":{"OBJECTID":64,"WEBURL":"http://www.iolp.gsa.gov/iolp/BuildingInfo.asp?bID=DC0386","NUM":386,"BLDG_NAME":"2100 PENNSYLVANIA AVE NW ","GIS_ID":"FED_177","ALIAS":" ","OWNERSHIP":"Leased","X":395904.9,"Y":137021.23,"ADDRID":242495,"ADDRESS":"2100 PENNSYLVANIA AVENUE NW"},"geometry":{"type":"Point","coordinates":[-77.04721208772541,38.90104257330099]}},{"type":"Feature","properties":{"OBJECTID":65,"WEBURL":"http://www.iolp.gsa.gov/iolp/BuildingInfo.asp?bID=DC0340","NUM":340,"BLDG_NAME":"2121 VIRGINIA AVE N W ","GIS_ID":"FED_60","ALIAS":" ","OWNERSHIP":"Leased","X":395825.58,"Y":136505.97,"ADDRID":242542,"ADDRESS":"2121 VIRGINIA AVENUE NW"},"geometry":{"type":"Point","coordinates":[-77.04812338590118,38.89640055202294]}},{"type":"Feature","properties":{"OBJECTID":66,"WEBURL":"http://www.iolp.gsa.gov/iolp/BuildingInfo.asp?bID=DC0055","NUM":55,"BLDG_NAME":"2200 C STREET, NW ","GIS_ID":"FED_240","ALIAS":" ","OWNERSHIP":"Leased","X":395708.88,"Y":136142.25,"ADDRID":307327,"ADDRESS":"2200 C STREET NW"},"geometry":{"type":"Point","coordinates":[-77.0494663861446,38.89312346668102]}},{"type":"Feature","properties":{"OBJECTID":67,"WEBURL":"http://www.iolp.gsa.gov/iolp/BuildingInfo.asp?bID=DC1475","NUM":1475,"BLDG_NAME":"25 MASSACHUSETTS AVE, NW ","GIS_ID":"FED_242","ALIAS":" ","OWNERSHIP":"Leased","X":399096.59,"Y":136734.14,"ADDRID":300403,"ADDRESS":"25 MASSACHUSETTS AVENUE NW"},"geometry":{"type":"Point","coordinates":[-77.0104167462268,38.898465439041544]}},{"type":"Feature","properties":{"OBJECTID":68,"WEBURL":"http://www.iolp.gsa.gov/iolp/BuildingInfo.asp?bID=DC0468","NUM":468,"BLDG_NAME":"2800 V ST NE ","GIS_ID":"FED_21","ALIAS":" ","OWNERSHIP":"Leased","X":402687.5,"Y":139127.37,"ADDRID":287275,"ADDRESS":"2800 V STREET NE"},"geometry":{"type":"Point","coordinates":[-76.96901156175164,38.920020837400926]}},{"type":"Feature","properties":{"OBJECTID":69,"WEBURL":"http://www.iolp.gsa.gov/iolp/BuildingInfo.asp?bID=DC1128","NUM":1128,"BLDG_NAME":"300 7TH ST SW ","GIS_ID":"FED_150","ALIAS":" ","OWNERSHIP":"Leased","X":398143.82,"Y":135265.74,"ADDRID":277852,"ADDRESS":"300 7TH STREET SW"},"geometry":{"type":"Point","coordinates":[-77.02139626029084,38.88523604810387]}},{"type":"Feature","properties":{"OBJECTID":70,"WEBURL":"http://www.iolp.gsa.gov/iolp/BuildingInfo.asp?bID=DC0814","NUM":814,"BLDG_NAME":"300 D STREET, SW ","GIS_ID":"FED_90","ALIAS":" ","OWNERSHIP":"Leased","X":398548.06,"Y":135224.62,"ADDRID":156249,"ADDRESS":"300 D STREET SW"},"geometry":{"type":"Point","coordinates":[-77.01673698014818,38.884866384017926]}},{"type":"Feature","properties":{"OBJECTID":71,"WEBURL":"http://www.iolp.gsa.gov/iolp/BuildingInfo.asp?bID=DC0369","NUM":369,"BLDG_NAME":"300 E ST SW ","GIS_ID":"FED_57","ALIAS":" ","OWNERSHIP":"Leased","X":398581.27,"Y":135010.42,"ADDRID":42489,"ADDRESS":"300 E STREET SW"},"geometry":{"type":"Point","coordinates":[-77.01635376766833,38.8829368420166]}},{"type":"Feature","properties":{"OBJECTID":72,"WEBURL":"http://www.iolp.gsa.gov/iolp/BuildingInfo.asp?bID=DC0391","NUM":391,"BLDG_NAME":"3015 V ST NE ","GIS_ID":null,"ALIAS":null,"OWNERSHIP":"Leased","X":402963.02,"Y":138959.84,"ADDRID":150591,"ADDRESS":"3015 V STREET NE"},"geometry":{"type":"Point","coordinates":[-76.9658351448979,38.91851078654419]}},{"type":"Feature","properties":{"OBJECTID":73,"WEBURL":"http://www.iolp.gsa.gov/iolp/BuildingInfo.asp?bID=DC0692","NUM":692,"BLDG_NAME":"3025 V ST NE ","GIS_ID":"FED_61","ALIAS":" ","OWNERSHIP":"Leased","X":402984.4,"Y":138958.59,"ADDRID":149326,"ADDRESS":"3025 V STREET NE"},"geometry":{"type":"Point","coordinates":[-76.96558861356131,38.91849945379668]}},{"type":"Feature","properties":{"OBJECTID":74,"WEBURL":"http://www.iolp.gsa.gov/iolp/BuildingInfo.asp?bID=DC1372","NUM":1372,"BLDG_NAME":"3030 V STREET NE ","GIS_ID":"FED_251","ALIAS":" ","OWNERSHIP":"Leased","X":403002.42,"Y":139041.58,"ADDRID":150597,"ADDRESS":"3030 V STREET NE"},"geometry":{"type":"Point","coordinates":[-76.96538045871836,38.919246993624284]}},{"type":"Feature","properties":{"OBJECTID":75,"WEBURL":"http://www.iolp.gsa.gov/iolp/BuildingInfo.asp?bID=DC0685","NUM":685,"BLDG_NAME":"3035 V STREET, NE ","GIS_ID":"FED_157","ALIAS":" ","OWNERSHIP":"Leased","X":403012.9,"Y":138955.65,"ADDRID":149327,"ADDRESS":"3035 V STREET NE"},"geometry":{"type":"Point","coordinates":[-76.96525998769611,38.91847287207447]}},{"type":"Feature","properties":{"OBJECTID":76,"WEBURL":"http://www.iolp.gsa.gov/iolp/BuildingInfo.asp?bID=DC1372","NUM":1372,"BLDG_NAME":"3070 V Street NE ","GIS_ID":null,"ALIAS":null,"OWNERSHIP":"Leased","X":403126.07,"Y":139033.61,"ADDRID":149325,"ADDRESS":"3070 V STREET NE"},"geometry":{"type":"Point","coordinates":[-76.96395464907137,38.91917476615673]}},{"type":"Feature","properties":{"OBJECTID":77,"WEBURL":"http://www.iolp.gsa.gov/iolp/BuildingInfo.asp?bID=DC0686","NUM":686,"BLDG_NAME":"3165 V ST NE ","GIS_ID":null,"ALIAS":null,"OWNERSHIP":"Leased","X":403305.46,"Y":138941.4,"ADDRID":149333,"ADDRESS":"3165 V STREET NE"},"geometry":{"type":"Point","coordinates":[-76.96188649418949,38.918343451808546]}},{"type":"Feature","properties":{"OBJECTID":78,"WEBURL":"http://www.iolp.gsa.gov/iolp/BuildingInfo.asp?bID=DC0713","NUM":713,"BLDG_NAME":"3298 FORT LINCOLN DRIVE ","GIS_ID":"FED_244","ALIAS":" ","OWNERSHIP":"Leased","X":403752.35,"Y":139266.78,"ADDRID":151262,"ADDRESS":"3298 FORT LINCOLN DRIVE NE"},"geometry":{"type":"Point","coordinates":[-76.95673155623508,38.92127278687694]}},{"type":"Feature","properties":{"OBJECTID":79,"WEBURL":"http://www.iolp.gsa.gov/iolp/BuildingInfo.asp?bID=DC0397","NUM":397,"BLDG_NAME":"3365 V ST NE ","GIS_ID":"FED_178","ALIAS":" ","OWNERSHIP":"Leased","X":403533.21,"Y":138926.93,"ADDRID":287844,"ADDRESS":"3365 V STREET NE"},"geometry":{"type":"Point","coordinates":[-76.9592603471357,38.91821221524171]}},{"type":"Feature","properties":{"OBJECTID":80,"WEBURL":"http://www.iolp.gsa.gov/iolp/BuildingInfo.asp?bID=DC0215","NUM":215,"BLDG_NAME":"355 E ST SW ","GIS_ID":null,"ALIAS":null,"OWNERSHIP":"Leased","X":398580.42,"Y":135084.38,"ADDRID":307324,"ADDRESS":"355 E STREET SW"},"geometry":{"type":"Point","coordinates":[-77.01636371710894,38.883603100928724]}},{"type":"Feature","properties":{"OBJECTID":81,"WEBURL":"http://www.iolp.gsa.gov/iolp/BuildingInfo.asp?bID=DC0208","NUM":208,"BLDG_NAME":"375 E ST SW ","GIS_ID":null,"ALIAS":null,"OWNERSHIP":"Leased","X":398532.44,"Y":135133.52,"ADDRID":307097,"ADDRESS":"375 E STREET SW"},"geometry":{"type":"Point","coordinates":[-77.01691681775957,38.884045694214784]}},{"type":"Feature","properties":{"OBJECTID":82,"WEBURL":"http://www.iolp.gsa.gov/iolp/BuildingInfo.asp?bID=DC0175","NUM":175,"BLDG_NAME":"395 E ST SW ","GIS_ID":"FED_245","ALIAS":" ","OWNERSHIP":"Leased","X":398511.73,"Y":135086.32,"ADDRID":300404,"ADDRESS":"395 E STREET SW"},"geometry":{"type":"Point","coordinates":[-77.01715541104703,38.883620463581686]}},{"type":"Feature","properties":{"OBJECTID":83,"WEBURL":"http://www.iolp.gsa.gov/iolp/BuildingInfo.asp?bID=DC1170","NUM":1170,"BLDG_NAME":"400 7TH ST SW ","GIS_ID":null,"ALIAS":null,"OWNERSHIP":"Leased","X":398132.5,"Y":135138.41,"ADDRID":276612,"ADDRESS":"400 7TH STREET SW"},"geometry":{"type":"Point","coordinates":[-77.02152638635526,38.88408898653386]}},{"type":"Feature","properties":{"OBJECTID":84,"WEBURL":"http://www.iolp.gsa.gov/iolp/BuildingInfo.asp?bID=DC0309","NUM":309,"BLDG_NAME":"400 C ST SW ","GIS_ID":"FED_78","ALIAS":" ","OWNERSHIP":"Leased","X":398438.66,"Y":135331.91,"ADDRID":276613,"ADDRESS":"400 C STREET SW"},"geometry":{"type":"Point","coordinates":[-77.01799814100416,38.88583270596459]}},{"type":"Feature","properties":{"OBJECTID":85,"WEBURL":"http://www.iolp.gsa.gov/iolp/BuildingInfo.asp?bID=DC0421","NUM":421,"BLDG_NAME":"400 VIRGINIA AVE SW ","GIS_ID":"FED_93","ALIAS":" ","OWNERSHIP":"Leased","X":398423.92,"Y":135156.16,"ADDRID":28349,"ADDRESS":"400 VIRGINIA AVENUE SW"},"geometry":{"type":"Point","coordinates":[-77.01816762967371,38.884249456181045]}},{"type":"Feature","properties":{"OBJECTID":86,"WEBURL":"http://www.iolp.gsa.gov/iolp/BuildingInfo.asp?bID=DC0554","NUM":554,"BLDG_NAME":"401 9TH STREET NW ","GIS_ID":"FED_185","ALIAS":" ","OWNERSHIP":"Leased","X":397948.93,"Y":136400.21,"ADDRID":242761,"ADDRESS":"401 9TH STREET NW"},"geometry":{"type":"Point","coordinates":[-77.0236459124808,38.89545534664646]}},{"type":"Feature","properties":{"OBJECTID":87,"WEBURL":"http://www.iolp.gsa.gov/iolp/BuildingInfo.asp?bID=DC0365","NUM":365,"BLDG_NAME":"409 3RD ST. S.W. ","GIS_ID":"FED_65","ALIAS":" ","OWNERSHIP":"Leased","X":398647.87,"Y":135196.57,"ADDRID":156394,"ADDRESS":"409 3RD STREET SW"},"geometry":{"type":"Point","coordinates":[-77.01558653985153,38.88461385803624]}},{"type":"Feature","properties":{"OBJECTID":88,"WEBURL":"http://www.iolp.gsa.gov/iolp/BuildingInfo.asp?bID=DC0717","NUM":717,"BLDG_NAME":"425 3RD ST SW ","GIS_ID":null,"ALIAS":null,"OWNERSHIP":"Leased","X":398656.31,"Y":135084.17,"ADDRID":306117,"ADDRESS":"425 3RD STREET SW"},"geometry":{"type":"Point","coordinates":[-77.01548904303056,38.88360132845343]}},{"type":"Feature","properties":{"OBJECTID":89,"WEBURL":"http://www.iolp.gsa.gov/iolp/BuildingInfo.asp?bID=DC1261","NUM":1261,"BLDG_NAME":"425 EYE STREET NW 425 EYE STREET NW ","GIS_ID":null,"ALIAS":null,"OWNERSHIP":"Leased","X":398530.44,"Y":137094.66,"ADDRID":237566,"ADDRESS":"425 I STREET NW"},"geometry":{"type":"Point","coordinates":[-77.01694406491487,38.90171236859882]}},{"type":"Feature","properties":{"OBJECTID":90,"WEBURL":"http://www.iolp.gsa.gov/iolp/BuildingInfo.asp?bID=DC0293","NUM":293,"BLDG_NAME":"429 L'ENFANT PLAZA, SW ","GIS_ID":null,"ALIAS":null,"OWNERSHIP":"Leased","X":397816.18,"Y":135111.72,"ADDRID":302402,"ADDRESS":"429 L'ENFANT PLAZA SW"},"geometry":{"type":"Point","coordinates":[-77.02517208690102,38.88384782382339]}},{"type":"Feature","properties":{"OBJECTID":91,"WEBURL":"http://www.iolp.gsa.gov/iolp/BuildingInfo.asp?bID=DC0407","NUM":407,"BLDG_NAME":"445 12TH ST SW ","GIS_ID":"FED_64","ALIAS":" ","OWNERSHIP":"Leased","X":397526.18,"Y":135050.26,"ADDRID":276640,"ADDRESS":"445 12TH STREET SW"},"geometry":{"type":"Point","coordinates":[-77.02851428524527,38.88329340017832]}},{"type":"Feature","properties":{"OBJECTID":92,"WEBURL":"http://www.iolp.gsa.gov/iolp/BuildingInfo.asp?bID=DC0049","NUM":49,"BLDG_NAME":"450 5TH STREET, NW ","GIS_ID":"FED_246","ALIAS":" ","OWNERSHIP":"Leased","X":398325.89,"Y":136417.91,"ADDRID":238951,"ADDRESS":"450 5TH STREET NW"},"geometry":{"type":"Point","coordinates":[-77.0193005641081,38.89561559359505]}},{"type":"Feature","properties":{"OBJECTID":93,"WEBURL":"http://www.iolp.gsa.gov/iolp/BuildingInfo.asp?bID=DC0191","NUM":191,"BLDG_NAME":"455 MASSACHUSETTS AVE NW ","GIS_ID":"FED_247","ALIAS":" ","OWNERSHIP":"Leased","X":398462.24,"Y":137020.98,"ADDRID":300381,"ADDRESS":"455 MASSACHUSETTS AVENUE NW"},"geometry":{"type":"Point","coordinates":[-77.01773014169008,38.90104851609632]}},{"type":"Feature","properties":{"OBJECTID":94,"WEBURL":"http://www.iolp.gsa.gov/iolp/BuildingInfo.asp?bID=DC0376","NUM":376,"BLDG_NAME":"470/490 LENFANT PLZ SW ","GIS_ID":null,"ALIAS":null,"OWNERSHIP":"Leased","X":397888.12,"Y":135144.74,"ADDRID":301852,"ADDRESS":"470 L''ENFANT PLAZA SW"},"geometry":{"type":"Point","coordinates":[-77.02434303780572,38.884145456480525]}},{"type":"Feature","properties":{"OBJECTID":95,"WEBURL":"http://www.iolp.gsa.gov/iolp/BuildingInfo.asp?bID=DC0040","NUM":40,"BLDG_NAME":"500 12TH ST, SW ","GIS_ID":"FED_248","ALIAS":" ","OWNERSHIP":"Leased","X":397615.4,"Y":135127.11,"ADDRID":276665,"ADDRESS":"500 12TH STREET SW"},"geometry":{"type":"Point","coordinates":[-77.02748624725548,38.88398594117443]}},{"type":"Feature","properties":{"OBJECTID":96,"WEBURL":"http://www.iolp.gsa.gov/iolp/BuildingInfo.asp?bID=DC0377","NUM":377,"BLDG_NAME":"500 1ST ST NW ","GIS_ID":"FED_66","ALIAS":" ","OWNERSHIP":"Leased","X":398908.81,"Y":136503.95,"ADDRID":238370,"ADDRESS":"500 1ST STREET NW"},"geometry":{"type":"Point","coordinates":[-77.01258109835412,38.89639159053406]}},{"type":"Feature","properties":{"OBJECTID":97,"WEBURL":"http://www.iolp.gsa.gov/iolp/BuildingInfo.asp?bID=DC0292","NUM":292,"BLDG_NAME":"500 C STREET,SW ","GIS_ID":"FED_67","ALIAS":" ","OWNERSHIP":"Leased","X":398379.99,"Y":135303.57,"ADDRID":276666,"ADDRESS":"500 C STREET SW"},"geometry":{"type":"Point","coordinates":[-77.01867429907335,38.88557730222245]}},{"type":"Feature","properties":{"OBJECTID":98,"WEBURL":"http://www.iolp.gsa.gov/iolp/BuildingInfo.asp?bID=DC0331","NUM":331,"BLDG_NAME":"500 E ST SW ","GIS_ID":"FED_68","ALIAS":" ","OWNERSHIP":"Leased","X":398341.79,"Y":135014.98,"ADDRID":15650,"ADDRESS":"500 E STREET SW"},"geometry":{"type":"Point","coordinates":[-77.01911389057847,38.882977501127876]}},{"type":"Feature","properties":{"OBJECTID":99,"WEBURL":"http://www.iolp.gsa.gov/iolp/BuildingInfo.asp?bID=DC0392","NUM":392,"BLDG_NAME":"501 3RD ST NW ","GIS_ID":"FED_69","ALIAS":" ","OWNERSHIP":"Leased","X":398717.88,"Y":136523.46,"ADDRID":238368,"ADDRESS":"501 3RD STREET NW"},"geometry":{"type":"Point","coordinates":[-77.01478210171805,38.896567085937825]}},{"type":"Feature","properties":{"OBJECTID":100,"WEBURL":"http://www.iolp.gsa.gov/iolp/BuildingInfo.asp?bID=DC0361","NUM":361,"BLDG_NAME":"501 SCHOOL ST SW ","GIS_ID":"FED_70","ALIAS":" ","OWNERSHIP":"Leased","X":398336.19,"Y":135144.95,"ADDRID":15274,"ADDRESS":"501 SCHOOL STREET SW"},"geometry":{"type":"Point","coordinates":[-77.0191787478082,38.88414831050639]}},{"type":"Feature","properties":{"OBJECTID":101,"WEBURL":"http://www.iolp.gsa.gov/iolp/BuildingInfo.asp?bID=DC0513","NUM":513,"BLDG_NAME":"515 22ND STREET., NW ","GIS_ID":"FED_71","ALIAS":" ","OWNERSHIP":"Leased","X":395794.48,"Y":136556.77,"ADDRID":242539,"ADDRESS":"515 22ND STREET NW"},"geometry":{"type":"Point","coordinates":[-77.04848220565019,38.8968580286918]}},{"type":"Feature","properties":{"OBJECTID":102,"WEBURL":"http://www.iolp.gsa.gov/iolp/BuildingInfo.asp?bID=DC0466","NUM":466,"BLDG_NAME":"518 23RD STREET, NW ","GIS_ID":"FED_182","ALIAS":" ","OWNERSHIP":"Leased","X":395555.6,"Y":136521.78,"ADDRID":298799,"ADDRESS":"518 23RD STREET NW"},"geometry":{"type":"Point","coordinates":[-77.05123571279755,38.89654165066653]}},{"type":"Feature","properties":{"OBJECTID":103,"WEBURL":"http://www.iolp.gsa.gov/iolp/BuildingInfo.asp?bID=DC0510","NUM":510,"BLDG_NAME":"520 23RD ST NW ","GIS_ID":"FED_10","ALIAS":" ","OWNERSHIP":"Leased","X":395549.28,"Y":136567.96,"ADDRID":298800,"ADDRESS":"520 23RD STREET NW"},"geometry":{"type":"Point","coordinates":[-77.05130886666562,38.89695762494307]}},{"type":"Feature","properties":{"OBJECTID":104,"WEBURL":"http://www.iolp.gsa.gov/iolp/BuildingInfo.asp?bID=DC1178","NUM":1178,"BLDG_NAME":"529 14TH ST NW ","GIS_ID":"FED_142","ALIAS":" ","OWNERSHIP":"Leased","X":397263.41,"Y":136574.85,"ADDRID":301074,"ADDRESS":"529 14TH STREET NW"},"geometry":{"type":"Point","coordinates":[-77.03154891270756,38.8970267006448]}},{"type":"Feature","properties":{"OBJECTID":105,"WEBURL":"http://www.iolp.gsa.gov/iolp/BuildingInfo.asp?bID=DC0569","NUM":569,"BLDG_NAME":"550 12TH STREET SW ","GIS_ID":"FED_188","ALIAS":" ","OWNERSHIP":"Leased","X":397613.24,"Y":135047.29,"ADDRID":276670,"ADDRESS":"550 12TH STREET SW"},"geometry":{"type":"Point","coordinates":[-77.02751086530121,38.88326688594748]}},{"type":"Feature","properties":{"OBJECTID":106,"WEBURL":"http://www.iolp.gsa.gov/iolp/BuildingInfo.asp?bID=DC0321","NUM":321,"BLDG_NAME":"555 4TH ST NW ","GIS_ID":"FED_83","ALIAS":" ","OWNERSHIP":"Leased","X":398643.4,"Y":136555.14,"ADDRID":237750,"ADDRESS":"555 4TH STREET NW"},"geometry":{"type":"Point","coordinates":[-77.01564074294178,38.89685235914109]}},{"type":"Feature","properties":{"OBJECTID":107,"WEBURL":"http://www.iolp.gsa.gov/iolp/BuildingInfo.asp?bID=DC0326","NUM":326,"BLDG_NAME":"555 NEW JERSEY AVE NW ","GIS_ID":"FED_73","ALIAS":" ","OWNERSHIP":"Leased","X":399024.7,"Y":136577.65,"ADDRID":218676,"ADDRESS":"555 NEW JERSEY AVENUE NW"},"geometry":{"type":"Point","coordinates":[-77.01124526807764,38.89705564333388]}},{"type":"Feature","properties":{"OBJECTID":108,"WEBURL":"http://www.iolp.gsa.gov/iolp/BuildingInfo.asp?bID=DC0226","NUM":226,"BLDG_NAME":"600 19th St NW ","GIS_ID":null,"ALIAS":null,"OWNERSHIP":"Leased","X":396197.02,"Y":136668.71,"ADDRID":241087,"ADDRESS":"600 19TH STREET NW"},"geometry":{"type":"Point","coordinates":[-77.04384247065155,38.897868258664694]}},{"type":"Feature","properties":{"OBJECTID":109,"WEBURL":"http://www.iolp.gsa.gov/iolp/BuildingInfo.asp?bID=DC0173","NUM":173,"BLDG_NAME":"600 E STREET NW ","GIS_ID":"FED_22","ALIAS":" ","OWNERSHIP":"Leased","X":398222.56,"Y":136436.97,"ADDRID":238715,"ADDRESS":"600 E STREET NW"},"geometry":{"type":"Point","coordinates":[-77.02049174859955,38.89578709017518]}},{"type":"Feature","properties":{"OBJECTID":110,"WEBURL":"http://www.iolp.gsa.gov/iolp/BuildingInfo.asp?bID=DC1216","NUM":1216,"BLDG_NAME":"601 D ST NW ","GIS_ID":"FED_145","ALIAS":" ","OWNERSHIP":"Leased","X":398218.26,"Y":136357.86,"ADDRID":238714,"ADDRESS":"601 D STREET NW"},"geometry":{"type":"Point","coordinates":[-77.02054111169076,38.89507442952301]}},{"type":"Feature","properties":{"OBJECTID":111,"WEBURL":"http://www.iolp.gsa.gov/iolp/BuildingInfo.asp?bID=DC0574","NUM":574,"BLDG_NAME":"601 NEW JERSEY AVE NW ","GIS_ID":"FED_11","ALIAS":" ","OWNERSHIP":"Leased","X":398999.54,"Y":136666.96,"ADDRID":279844,"ADDRESS":"601 NEW JERSEY AVENUE NW"},"geometry":{"type":"Point","coordinates":[-77.01153543561303,38.89786015206584]}},{"type":"Feature","properties":{"OBJECTID":112,"WEBURL":"http://www.iolp.gsa.gov/iolp/BuildingInfo.asp?bID=DC1085","NUM":1085,"BLDG_NAME":"616 H ST NW ","GIS_ID":"FED_228","ALIAS":" ","OWNERSHIP":"Leased","X":398192.82,"Y":136855.31,"ADDRID":295093,"ADDRESS":"616 H STREET NW"},"geometry":{"type":"Point","coordinates":[-77.0208356776459,38.89955558844255]}},{"type":"Feature","properties":{"OBJECTID":113,"WEBURL":"http://www.iolp.gsa.gov/iolp/BuildingInfo.asp?bID=DC0368","NUM":368,"BLDG_NAME":"625 INDIANA AVE NW ","GIS_ID":"FED_184","ALIAS":" ","OWNERSHIP":"Leased","X":398200.59,"Y":136300.9,"ADDRID":279862,"ADDRESS":"625 INDIANA AVENUE NW"},"geometry":{"type":"Point","coordinates":[-77.020744651607,38.89456127686151]}},{"type":"Feature","properties":{"OBJECTID":114,"WEBURL":"http://www.iolp.gsa.gov/iolp/BuildingInfo.asp?bID=DC0216","NUM":216,"BLDG_NAME":"633 INDIANA AVENUE, NW ","GIS_ID":null,"ALIAS":null,"OWNERSHIP":"Leased","X":398163.55,"Y":136281.14,"ADDRID":238716,"ADDRESS":"633 INDIANA AVENUE NW"},"geometry":{"type":"Point","coordinates":[-77.02117157055963,38.89438319487958]}},{"type":"Feature","properties":{"OBJECTID":115,"WEBURL":"http://www.iolp.gsa.gov/iolp/BuildingInfo.asp?bID=DC0364","NUM":364,"BLDG_NAME":"650 MASSACHUSETTS AVE NW ","GIS_ID":"FED_13","ALIAS":" ","OWNERSHIP":"Leased","X":398141.26,"Y":137089.12,"ADDRID":243177,"ADDRESS":"650 MASSACHUSETTS AVENUE NW"},"geometry":{"type":"Point","coordinates":[-77.02143070049468,38.901661725341285]}},{"type":"Feature","properties":{"OBJECTID":116,"WEBURL":"http://www.iolp.gsa.gov/iolp/BuildingInfo.asp?bID=DC0549","NUM":549,"BLDG_NAME":"655 15TH ST NW ","GIS_ID":"FED_140","ALIAS":" ","OWNERSHIP":"Leased","X":397122.2,"Y":136673.07,"ADDRID":279876,"ADDRESS":"655 15TH STREET NW"},"geometry":{"type":"Point","coordinates":[-77.03317715271224,38.897911051141875]}},{"type":"Feature","properties":{"OBJECTID":117,"WEBURL":"http://www.iolp.gsa.gov/iolp/BuildingInfo.asp?bID=DC0302","NUM":302,"BLDG_NAME":"717 14TH ST NW ","GIS_ID":null,"ALIAS":null,"OWNERSHIP":"Leased","X":397262.45,"Y":136783.55,"ADDRID":279904,"ADDRESS":"717 14TH STREET NW"},"geometry":{"type":"Point","coordinates":[-77.03156081112677,38.898906743019445]}},{"type":"Feature","properties":{"OBJECTID":118,"WEBURL":"http://www.iolp.gsa.gov/iolp/BuildingInfo.asp?bID=DC0465","NUM":465,"BLDG_NAME":"740 - 15TH ST., NW ","GIS_ID":"FED_14","ALIAS":" ","OWNERSHIP":"Leased","X":397056.86,"Y":136896.83,"ADDRID":293256,"ADDRESS":"740 15TH STREET NW"},"geometry":{"type":"Point","coordinates":[-77.03393134170717,38.89992654573158]}},{"type":"Feature","properties":{"OBJECTID":119,"WEBURL":"http://www.iolp.gsa.gov/iolp/BuildingInfo.asp?bID=DC0370","NUM":370,"BLDG_NAME":"750 17TH ST NW ","GIS_ID":"FED_15","ALIAS":" ","OWNERSHIP":"Leased","X":396545.44,"Y":136880.87,"ADDRID":218751,"ADDRESS":"750 17TH STREET NW"},"geometry":{"type":"Point","coordinates":[-77.03982700437778,38.89978091102437]}},{"type":"Feature","properties":{"OBJECTID":120,"WEBURL":"http://www.iolp.gsa.gov/iolp/BuildingInfo.asp?bID=DC0198","NUM":198,"BLDG_NAME":"77 K ST NE ","GIS_ID":null,"ALIAS":null,"OWNERSHIP":"Leased","X":399446.61,"Y":137139.29,"ADDRID":304768,"ADDRESS":"77 K STREET NE"},"geometry":{"type":"Point","coordinates":[-77.00638206079196,38.902115466196044]}},{"type":"Feature","properties":{"OBJECTID":121,"WEBURL":"http://www.iolp.gsa.gov/iolp/BuildingInfo.asp?bID=DC0555","NUM":555,"BLDG_NAME":"800 9TH STREET, SW ","GIS_ID":"FED_91","ALIAS":" ","OWNERSHIP":"Leased","X":397900.97,"Y":134751.15,"ADDRID":276806,"ADDRESS":"800 9TH STREET SW"},"geometry":{"type":"Point","coordinates":[-77.0241937310649,38.88059987582887]}},{"type":"Feature","properties":{"OBJECTID":122,"WEBURL":"http://www.iolp.gsa.gov/iolp/BuildingInfo.asp?bID=DC0366","NUM":366,"BLDG_NAME":"800 K ST., N.W. ","GIS_ID":"FED_151","ALIAS":" ","OWNERSHIP":"Leased","X":398050.38,"Y":137104.91,"ADDRID":218759,"ADDRESS":"800 K STREET NW"},"geometry":{"type":"Point","coordinates":[-77.02247845207356,38.901803770393826]}},{"type":"Feature","properties":{"OBJECTID":123,"WEBURL":"http://www.iolp.gsa.gov/iolp/BuildingInfo.asp?bID=DC0406","NUM":406,"BLDG_NAME":"800 N CAPITOL ST NW ","GIS_ID":"FED_17","ALIAS":" ","OWNERSHIP":"Leased","X":399156.14,"Y":136961.34,"ADDRID":237165,"ADDRESS":"800 NORTH CAPITOL STREET NW"},"geometry":{"type":"Point","coordinates":[-77.00973053621344,38.90051219788372]}},{"type":"Feature","properties":{"OBJECTID":124,"WEBURL":"http://www.iolp.gsa.gov/iolp/BuildingInfo.asp?bID=DC0367","NUM":367,"BLDG_NAME":"801 EYE ST NW ","GIS_ID":"FED_152","ALIAS":" ","OWNERSHIP":"Leased","X":397983.67,"Y":137031.04,"ADDRID":279944,"ADDRESS":"801 I STREET NW"},"geometry":{"type":"Point","coordinates":[-77.02324730050677,38.901138172496616]}},{"type":"Feature","properties":{"OBJECTID":125,"WEBURL":"http://www.iolp.gsa.gov/iolp/BuildingInfo.asp?bID=DC0382","NUM":382,"BLDG_NAME":"810 7TH STREET NW ","GIS_ID":"FED_18","ALIAS":" ","OWNERSHIP":"Leased","X":398072.79,"Y":136939.95,"ADDRID":238405,"ADDRESS":"810 7TH STREET NW"},"geometry":{"type":"Point","coordinates":[-77.02221963576805,38.90031780103482]}},{"type":"Feature","properties":{"OBJECTID":126,"WEBURL":"http://www.iolp.gsa.gov/iolp/BuildingInfo.asp?bID=DC0373","NUM":373,"BLDG_NAME":"820 1ST ST NE ","GIS_ID":"FED_86","ALIAS":" ","OWNERSHIP":"Leased","X":399322.63,"Y":136968.66,"ADDRID":288995,"ADDRESS":"820 1ST STREET NE"},"geometry":{"type":"Point","coordinates":[-77.00781120044778,38.90057828320709]}},{"type":"Feature","properties":{"OBJECTID":127,"WEBURL":"http://www.iolp.gsa.gov/iolp/BuildingInfo.asp?bID=DC0564","NUM":564,"BLDG_NAME":"830 1ST ST NE WASHINGTON, DC ","GIS_ID":"FED_158","ALIAS":" ","OWNERSHIP":"Leased","X":399338.58,"Y":137024.34,"ADDRID":289008,"ADDRESS":"830 1ST STREET NE"},"geometry":{"type":"Point","coordinates":[-77.00762737789145,38.901079880784906]}},{"type":"Feature","properties":{"OBJECTID":128,"WEBURL":"http://www.iolp.gsa.gov/iolp/BuildingInfo.asp?bID=DC0454","NUM":454,"BLDG_NAME":"888 1ST ST NE ","GIS_ID":"FED_160","ALIAS":" ","OWNERSHIP":"Leased","X":399382.61,"Y":137075.08,"ADDRID":81586,"ADDRESS":"888 1ST STREET NE"},"geometry":{"type":"Point","coordinates":[-77.00711982941041,38.90153699692389]}},{"type":"Feature","properties":{"OBJECTID":129,"WEBURL":"http://www.iolp.gsa.gov/iolp/BuildingInfo.asp?bID=DC0217","NUM":217,"BLDG_NAME":"90 K ST NE ","GIS_ID":null,"ALIAS":null,"OWNERSHIP":"Leased","X":399423.88,"Y":137224.67,"ADDRID":289039,"ADDRESS":"90 K STREET NE"},"geometry":{"type":"Point","coordinates":[-77.00664417610068,38.90288458503723]}},{"type":"Feature","properties":{"OBJECTID":130,"WEBURL":"http://www.iolp.gsa.gov/iolp/BuildingInfo.asp?bID=DC0343","NUM":343,"BLDG_NAME":"901 D ST SW ","GIS_ID":null,"ALIAS":null,"OWNERSHIP":"Leased","X":397852.85,"Y":135246.13,"ADDRID":81693,"ADDRESS":"901 D STREET SW"},"geometry":{"type":"Point","coordinates":[-77.02474986373467,38.88505873114344]}},{"type":"Feature","properties":{"OBJECTID":131,"WEBURL":"http://www.iolp.gsa.gov/iolp/BuildingInfo.asp?bID=DC0335","NUM":335,"BLDG_NAME":"950 L'ENFANT PLAZA ","GIS_ID":"FED_19","ALIAS":" ","OWNERSHIP":"Leased","X":397837.82,"Y":135060.38,"ADDRID":301854,"ADDRESS":"950 L''ENFANT PLAZA SW"},"geometry":{"type":"Point","coordinates":[-77.02492251168228,38.88338538677675]}},{"type":"Feature","properties":{"OBJECTID":132,"WEBURL":"http://www.iolp.gsa.gov/iolp/BuildingInfo.asp?bID=DC0576","NUM":576,"BLDG_NAME":"955 LENFANT PLZ SW ","GIS_ID":"FED_141","ALIAS":" ","OWNERSHIP":"Leased","X":397827.44,"Y":135181.95,"ADDRID":291726,"ADDRESS":"955 L''ENFANT PLAZA SW"},"geometry":{"type":"Point","coordinates":[-77.0250425308803,38.884480510613045]}},{"type":"Feature","properties":{"OBJECTID":133,"WEBURL":"http://www.iolp.gsa.gov/iolp/BuildingInfo.asp?bID=DC0316","NUM":316,"BLDG_NAME":"999 E ST NW ","GIS_ID":"FED_229","ALIAS":" ","OWNERSHIP":"Leased","X":397782.1,"Y":136498.25,"ADDRID":239820,"ADDRESS":"999 E STREET NW"},"geometry":{"type":"Point","coordinates":[-77.02556935525979,38.89633812175933]}},{"type":"Feature","properties":{"OBJECTID":134,"WEBURL":"http://www.iolp.gsa.gov/iolp/BuildingInfo.asp?bID=DC0221","NUM":221,"BLDG_NAME":"999 N CAPITOL ST NE ","GIS_ID":null,"ALIAS":null,"OWNERSHIP":"Leased","X":399258.75,"Y":137129.68,"ADDRID":308941,"ADDRESS":"999 NORTH CAPITOL STREET NE"},"geometry":{"type":"Point","coordinates":[-77.00854780137712,38.90202875746262]}},{"type":"Feature","properties":{"OBJECTID":135,"WEBURL":"http://www.iolp.gsa.gov/iolp/BuildingInfo.asp?bID=DC0093","NUM":93,"BLDG_NAME":"1000 Independence Ave SW ","GIS_ID":"FED_136","ALIAS":" ","OWNERSHIP":"Owned","X":397799,"Y":135461.51,"ADDRID":277730,"ADDRESS":"1000 INDEPENDENCE AVENUE SW"},"geometry":{"type":"Point","coordinates":[-77.02537121700065,38.88699882332625]}},{"type":"Feature","properties":{"OBJECTID":136,"WEBURL":"http://www.iolp.gsa.gov/iolp/BuildingInfo.asp?bID=DC0093","NUM":93,"BLDG_NAME":"1000 INDEPENDENCE AVE SW ","GIS_ID":"FED_136","ALIAS":" ","OWNERSHIP":"Owned","X":397799,"Y":135461.51,"ADDRID":277730,"ADDRESS":"1000 INDEPENDENCE AVENUE SW"},"geometry":{"type":"Point","coordinates":[-77.02537121700065,38.88699882332625]}},{"type":"Feature","properties":{"OBJECTID":137,"WEBURL":"http://www.iolp.gsa.gov/iolp/BuildingInfo.asp?bID=DC0022","NUM":22,"BLDG_NAME":"1111 CONST AVE NW ","GIS_ID":"FED_115","ALIAS":" ","OWNERSHIP":"Owned","X":397651.64,"Y":136101.09,"ADDRID":291699,"ADDRESS":"1111 CONSTITUTION AVENUE NW"},"geometry":{"type":"Point","coordinates":[-77.02707188852153,38.89276001918448]}},{"type":"Feature","properties":{"OBJECTID":138,"WEBURL":"http://www.gsa.gov","NUM":null,"BLDG_NAME":"1200 PENNSYLVANIA AVE NW ","GIS_ID":"FED_256","ALIAS":null,"OWNERSHIP":"Owned","X":397488.93,"Y":136330.51,"ADDRID":291700,"ADDRESS":"1200 PENNSYLVANIA AVENUE NW"},"geometry":{"type":"Point","coordinates":[-77.02894828936721,38.89482626962047]}},{"type":"Feature","properties":{"OBJECTID":139,"WEBURL":"http://www.iolp.gsa.gov/iolp/BuildingInfo.asp?bID=DC0521","NUM":521,"BLDG_NAME":"1201 CONSTITUTION AVE NW ","GIS_ID":"FED_137","ALIAS":" ","OWNERSHIP":"Owned","X":397498.75,"Y":136076.08,"ADDRID":218043,"ADDRESS":"1201 CONSTITUTION AVENUE NW"},"geometry":{"type":"Point","coordinates":[-77.02883416425973,38.89253429804456]}},{"type":"Feature","properties":{"OBJECTID":140,"WEBURL":"http://www.iolp.gsa.gov/iolp/BuildingInfo.asp?bID=DC0459","NUM":516,"BLDG_NAME":"1300 Pennsylvania Ave NW ","GIS_ID":"FED_254","ALIAS":null,"OWNERSHIP":"Owned","X":397379.12,"Y":136343.99,"ADDRID":293198,"ADDRESS":"1300 PENNSYLVANIA AVENUE NW"},"geometry":{"type":"Point","coordinates":[-77.03021416003615,38.894947381854784]}},{"type":"Feature","properties":{"OBJECTID":141,"WEBURL":"http://www.iolp.gsa.gov/iolp/BuildingInfo.asp?bID=DC0515","NUM":516,"BLDG_NAME":"1300 PENNSYLVANIA AVE NW ","GIS_ID":"FED_254","ALIAS":null,"OWNERSHIP":"Owned","X":397379.12,"Y":136343.99,"ADDRID":293198,"ADDRESS":"1300 PENNSYLVANIA AVENUE NW"},"geometry":{"type":"Point","coordinates":[-77.03021416003615,38.894947381854784]}},{"type":"Feature","properties":{"OBJECTID":142,"WEBURL":"http://www.iolp.gsa.gov/iolp/BuildingInfo.asp?bID=DC0516","NUM":516,"BLDG_NAME":"1300 PENNSYLVANIA AVE NW ","GIS_ID":"FED_254","ALIAS":null,"OWNERSHIP":"Owned","X":397379.12,"Y":136343.99,"ADDRID":293198,"ADDRESS":"1300 PENNSYLVANIA AVENUE NW"},"geometry":{"type":"Point","coordinates":[-77.03021416003615,38.894947381854784]}},{"type":"Feature","properties":{"OBJECTID":143,"WEBURL":"http://www.iolp.gsa.gov/iolp/BuildingInfo.asp?bID=DC0522","NUM":522,"BLDG_NAME":"1301 CONSTITUTION AV NW ","GIS_ID":"FED_138","ALIAS":" ","OWNERSHIP":"Owned","X":397395,"Y":136073.11,"ADDRID":293199,"ADDRESS":"1301 CONSTITUTION AVENUE NW"},"geometry":{"type":"Point","coordinates":[-77.03003007801875,38.892507241830884]}},{"type":"Feature","properties":{"OBJECTID":144,"WEBURL":"http://www.iolp.gsa.gov/iolp/BuildingInfo.asp?bID=DC0522","NUM":522,"BLDG_NAME":"1301 CONSTITUTION AVE NW ","GIS_ID":"FED_138","ALIAS":" ","OWNERSHIP":"Owned","X":397395,"Y":136073.11,"ADDRID":293199,"ADDRESS":"1301 CONSTITUTION AVENUE NW"},"geometry":{"type":"Point","coordinates":[-77.03003007801875,38.892507241830884]}},{"type":"Feature","properties":{"OBJECTID":145,"WEBURL":"http://www.iolp.gsa.gov/iolp/BuildingInfo.asp?bID=DC0522","NUM":522,"BLDG_NAME":"1301 Constitution Ave NW ","GIS_ID":"FED_138","ALIAS":" ","OWNERSHIP":"Owned","X":397395,"Y":136073.11,"ADDRID":293199,"ADDRESS":"1301 CONSTITUTION AVENUE NW"},"geometry":{"type":"Point","coordinates":[-77.03003007801875,38.892507241830884]}},{"type":"Feature","properties":{"OBJECTID":146,"WEBURL":"http://www.iolp.gsa.gov/iolp/BuildingInfo.asp?bID=DC0013","NUM":13,"BLDG_NAME":"1401 CONSTITUTION AVE NW ","GIS_ID":"FED_116","ALIAS":"Herbert Hoover Building","OWNERSHIP":"Owned","X":397153.15,"Y":136088.73,"ADDRID":301066,"ADDRESS":"1401 CONSTITUTION AVENUE NW"},"geometry":{"type":"Point","coordinates":[-77.03281794375143,38.89264720258719]}},{"type":"Feature","properties":{"OBJECTID":147,"WEBURL":"http://www.iolp.gsa.gov/iolp/BuildingInfo.asp?bID=DC0111","NUM":111,"BLDG_NAME":"1520 H STREET NW ","GIS_ID":"FED_135","ALIAS":" ","OWNERSHIP":"Owned","X":396987.06,"Y":136908.55,"ADDRID":291706,"ADDRESS":"1520 H STREET NW"},"geometry":{"type":"Point","coordinates":[-77.03473606025679,38.900031887206794]}},{"type":"Feature","properties":{"OBJECTID":148,"WEBURL":"http://www.iolp.gsa.gov/iolp/BuildingInfo.asp?bID=DC0037","NUM":37,"BLDG_NAME":"1600 PENNSYLVANIA AVE NW ","GIS_ID":"FED_190","ALIAS":" ","OWNERSHIP":"Owned","X":396829.87,"Y":136646.99,"ADDRID":293211,"ADDRESS":"1600 PENNSYLVANIA AVENUE NW"},"geometry":{"type":"Point","coordinates":[-77.03654697068303,38.897675107298504]}},{"type":"Feature","properties":{"OBJECTID":149,"WEBURL":"http://www.iolp.gsa.gov/iolp/BuildingInfo.asp?bID=DC0037","NUM":37,"BLDG_NAME":"1600 PENNSYLVANIA AVE NW ","GIS_ID":"FED_190","ALIAS":" ","OWNERSHIP":"Owned","X":396829.87,"Y":136646.99,"ADDRID":293211,"ADDRESS":"1600 PENNSYLVANIA AVENUE NW"},"geometry":{"type":"Point","coordinates":[-77.03654697068303,38.897675107298504]}},{"type":"Feature","properties":{"OBJECTID":150,"WEBURL":"http://www.iolp.gsa.gov/iolp/BuildingInfo.asp?bID=DC0042","NUM":42,"BLDG_NAME":"1651-53 PENNSYLVANIA AVE NW ","GIS_ID":null,"ALIAS":null,"OWNERSHIP":"Owned","X":396652.14,"Y":136795.66,"ADDRID":218402,"ADDRESS":"1651 PENNSYLVANIA AVENUE NW"},"geometry":{"type":"Point","coordinates":[-77.03859653449878,38.8990137215209]}},{"type":"Feature","properties":{"OBJECTID":151,"WEBURL":"http://www.iolp.gsa.gov/iolp/BuildingInfo.asp?bID=DC0078","NUM":78,"BLDG_NAME":"1724 F STREET NW ","GIS_ID":"FED_30","ALIAS":" ","OWNERSHIP":"Owned","X":396468.38,"Y":136579.19,"ADDRID":218460,"ADDRESS":"1724 F STREET NW"},"geometry":{"type":"Point","coordinates":[-77.04071381312944,38.89706296214532]}},{"type":"Feature","properties":{"OBJECTID":152,"WEBURL":"http://www.iolp.gsa.gov/iolp/BuildingInfo.asp?bID=DC0035","NUM":35,"BLDG_NAME":"17TH AND PA AVE. NW ","GIS_ID":null,"ALIAS":null,"OWNERSHIP":"Owned","X":396576.99999478,"Y":136774.32812436,"ADDRID":902251,"ADDRESS":"17TH STREET NW AND PENNSYLVANIA AVENUE NW"},"geometry":{"type":"Point","coordinates":[-77.0394626447762,38.89882126686693]}},{"type":"Feature","properties":{"OBJECTID":153,"WEBURL":"http://www.iolp.gsa.gov/iolp/BuildingInfo.asp?bID=DC0021","NUM":21,"BLDG_NAME":"1800 F ST NW ","GIS_ID":"FED_133","ALIAS":" ","OWNERSHIP":"Owned","X":396307.35,"Y":136585.96,"ADDRID":291709,"ADDRESS":"1800 F STREET NW"},"geometry":{"type":"Point","coordinates":[-77.04257015816158,38.89712328702646]}},{"type":"Feature","properties":{"OBJECTID":154,"WEBURL":"http://www.iolp.gsa.gov/iolp/BuildingInfo.asp?bID=DC0020","NUM":20,"BLDG_NAME":"1849 C ST NW ","GIS_ID":"FED_125","ALIAS":"Main Interior Building","OWNERSHIP":"Owned","X":396304.4,"Y":136289.52,"ADDRID":293214,"ADDRESS":"1849 C STREET NW"},"geometry":{"type":"Point","coordinates":[-77.04260257010688,38.89445283458711]}},{"type":"Feature","properties":{"OBJECTID":155,"WEBURL":"http://www.iolp.gsa.gov/iolp/BuildingInfo.asp?bID=DC0082","NUM":82,"BLDG_NAME":"1900 E ST NW ","GIS_ID":"FED_34","ALIAS":" ","OWNERSHIP":"Owned","X":396166.66,"Y":136324.86,"ADDRID":279775,"ADDRESS":"1900 E STREET NW"},"geometry":{"type":"Point","coordinates":[-77.04419053726384,38.89477060042655]}},{"type":"Feature","properties":{"OBJECTID":156,"WEBURL":"http://www.iolp.gsa.gov/iolp/BuildingInfo.asp?bID=DC0032","NUM":32,"BLDG_NAME":"1951 CONSTITUTION AVE NW ","GIS_ID":"FED_162","ALIAS":"Department of Interior South","OWNERSHIP":"Owned","X":396161.32,"Y":136113.61,"ADDRID":291711,"ADDRESS":"1951 CONSTITUTION AVENUE NW"},"geometry":{"type":"Point","coordinates":[-77.0442509128427,38.89286755913922]}},{"type":"Feature","properties":{"OBJECTID":157,"WEBURL":"http://www.iolp.gsa.gov/iolp/BuildingInfo.asp?bID=DC0086","NUM":86,"BLDG_NAME":"200 C STREET SW ","GIS_ID":"FED_109","ALIAS":" ","OWNERSHIP":"Owned","X":398748.94,"Y":135296.57,"ADDRID":277784,"ADDRESS":"200 C STREET SW"},"geometry":{"type":"Point","coordinates":[-77.01442181854756,38.885514846099085]}},{"type":"Feature","properties":{"OBJECTID":158,"WEBURL":"http://www.iolp.gsa.gov/iolp/BuildingInfo.asp?bID=DC0116","NUM":116,"BLDG_NAME":"200 CONSTITUTION AVE NW ","GIS_ID":"FED_108","ALIAS":"Perkins Building","OWNERSHIP":"Owned","X":398751.12,"Y":136164.69,"ADDRID":291712,"ADDRESS":"200 CONSTITUTION AVENUE NW"},"geometry":{"type":"Point","coordinates":[-77.01439827055684,38.893335201511825]}},{"type":"Feature","properties":{"OBJECTID":159,"WEBURL":"http://www.iolp.gsa.gov/iolp/BuildingInfo.asp?bID=DC0115","NUM":115,"BLDG_NAME":"200 INDEPENDENCE AVE SW ","GIS_ID":"FED_127","ALIAS":"HHH","OWNERSHIP":"Owned","X":398751.14,"Y":135448.48,"ADDRID":291713,"ADDRESS":"200 INDEPENDENCE AVENUE SW"},"geometry":{"type":"Point","coordinates":[-77.01439673783298,38.8868833125656]}},{"type":"Feature","properties":{"OBJECTID":160,"WEBURL":"http://www.iolp.gsa.gov/iolp/BuildingInfo.asp?bID=DC0501","NUM":501,"BLDG_NAME":"201 14th Street SW ","GIS_ID":"FED_38","ALIAS":" Main(Orig. Bur.of Engr.&Prntg","OWNERSHIP":"Owned","X":397163.84,"Y":135494.79,"ADDRID":291704,"ADDRESS":"201 14TH STREET SW"},"geometry":{"type":"Point","coordinates":[-77.03269226808222,38.88729680244911]}},{"type":"Feature","properties":{"OBJECTID":161,"WEBURL":"http://www.iolp.gsa.gov/iolp/BuildingInfo.asp?bID=DC1269","NUM":1269,"BLDG_NAME":"2025 E ST NW ","GIS_ID":"FED_239","ALIAS":" ","OWNERSHIP":"Owned","X":396033.99,"Y":136507.33,"ADDRID":293219,"ADDRESS":"2025 E STREET NW"},"geometry":{"type":"Point","coordinates":[-77.04572092412464,38.89641376843955]}},{"type":"Feature","properties":{"OBJECTID":162,"WEBURL":"http://www.iolp.gsa.gov/iolp/BuildingInfo.asp?bID=DC0046","NUM":46,"BLDG_NAME":"2201 C ST NW ","GIS_ID":"FED_104","ALIAS":" ","OWNERSHIP":"Owned","X":395809.19,"Y":136254.5,"ADDRID":243360,"ADDRESS":"2201 C STREET NW"},"geometry":{"type":"Point","coordinates":[-77.04831078929475,38.89413514007598]}},{"type":"Feature","properties":{"OBJECTID":163,"WEBURL":"http://www.iolp.gsa.gov/iolp/BuildingInfo.asp?bID=DC1257","NUM":1257,"BLDG_NAME":"2401 E ST NW ","GIS_ID":"FED_77","ALIAS":" ","OWNERSHIP":"Owned","X":395496.47,"Y":136520.71,"ADDRID":274047,"ADDRESS":"2401 E STREET NW"},"geometry":{"type":"Point","coordinates":[-77.05191733480643,38.8965317107577]}},{"type":"Feature","properties":{"OBJECTID":164,"WEBURL":"http://www.iolp.gsa.gov/iolp/BuildingInfo.asp?bID=DC0531","NUM":531,"BLDG_NAME":"2430 E ST NW ","GIS_ID":"FED_169","ALIAS":" ","OWNERSHIP":"Owned","X":395536.96,"Y":136267.57,"ADDRID":274048,"ADDRESS":"2430 E STREET NW"},"geometry":{"type":"Point","coordinates":[-77.05144893628227,38.89425153943551]}},{"type":"Feature","properties":{"OBJECTID":165,"WEBURL":"http://www.iolp.gsa.gov/iolp/BuildingInfo.asp?bID=DC0531","NUM":531,"BLDG_NAME":"2430 E ST NW ","GIS_ID":"FED_169","ALIAS":" ","OWNERSHIP":"Owned","X":395536.96,"Y":136267.57,"ADDRID":274048,"ADDRESS":"2430 E STREET NW"},"geometry":{"type":"Point","coordinates":[-77.05144893628227,38.89425153943551]}},{"type":"Feature","properties":{"OBJECTID":166,"WEBURL":"http://www.iolp.gsa.gov/iolp/BuildingInfo.asp?bID=DC0531","NUM":531,"BLDG_NAME":"2430 E ST NW ","GIS_ID":"FED_169","ALIAS":" ","OWNERSHIP":"Owned","X":395536.96,"Y":136267.57,"ADDRID":274048,"ADDRESS":"2430 E STREET NW"},"geometry":{"type":"Point","coordinates":[-77.05144893628227,38.89425153943551]}},{"type":"Feature","properties":{"OBJECTID":167,"WEBURL":"http://www.iolp.gsa.gov/iolp/BuildingInfo.asp?bID=DC0220","NUM":220,"BLDG_NAME":"2701 MARTIN LUTHER KING JR AVE SE ","GIS_ID":null,"ALIAS":null,"OWNERSHIP":"Owned","X":399899.71,"Y":131683.93,"ADDRID":307858,"ADDRESS":"2701 MARTIN LUTHER KING JR AVENUE SE"},"geometry":{"type":"Point","coordinates":[-77.00115768165344,38.85297159408773]}},{"type":"Feature","properties":{"OBJECTID":168,"WEBURL":"http://www.iolp.gsa.gov/iolp/BuildingInfo.asp?bID=DC0227","NUM":227,"BLDG_NAME":"2701 MARTIN LUTHER KING JR AVE SE ","GIS_ID":null,"ALIAS":null,"OWNERSHIP":"Owned","X":399899.71,"Y":131683.93,"ADDRID":307858,"ADDRESS":"2701 MARTIN LUTHER KING JR AVENUE SE"},"geometry":{"type":"Point","coordinates":[-77.00115768165344,38.85297159408773]}},{"type":"Feature","properties":{"OBJECTID":169,"WEBURL":"http://www.iolp.gsa.gov/iolp/BuildingInfo.asp?bID=DC1340","NUM":1340,"BLDG_NAME":"2701 MARTIN LUTHER KING JR AVE SE ","GIS_ID":null,"ALIAS":null,"OWNERSHIP":"Owned","X":399899.71,"Y":131683.93,"ADDRID":307858,"ADDRESS":"2701 MARTIN LUTHER KING JR AVENUE SE"},"geometry":{"type":"Point","coordinates":[-77.00115768165344,38.85297159408773]}},{"type":"Feature","properties":{"OBJECTID":170,"WEBURL":"http://www.iolp.gsa.gov/iolp/BuildingInfo.asp?bID=DC1343","NUM":1343,"BLDG_NAME":"2701 MARTIN LUTHER KING JR AVE SE ","GIS_ID":null,"ALIAS":null,"OWNERSHIP":"Owned","X":399899.71,"Y":131683.93,"ADDRID":307858,"ADDRESS":"2701 MARTIN LUTHER KING JR AVENUE SE"},"geometry":{"type":"Point","coordinates":[-77.00115768165344,38.85297159408773]}},{"type":"Feature","properties":{"OBJECTID":171,"WEBURL":"http://www.iolp.gsa.gov/iolp/BuildingInfo.asp?bID=DC1460","NUM":1460,"BLDG_NAME":"2701 MARTIN LUTHER KING JR AVE SE ","GIS_ID":null,"ALIAS":null,"OWNERSHIP":"Owned","X":399899.71,"Y":131683.93,"ADDRID":307858,"ADDRESS":"2701 MARTIN LUTHER KING JR AVENUE SE"},"geometry":{"type":"Point","coordinates":[-77.00115768165344,38.85297159408773]}},{"type":"Feature","properties":{"OBJECTID":172,"WEBURL":"http://www.iolp.gsa.gov/iolp/BuildingInfo.asp?bID=DC1473","NUM":1473,"BLDG_NAME":"2701 MARTIN LUTHER KING, JR.AVE, SE ","GIS_ID":null,"ALIAS":null,"OWNERSHIP":"Owned","X":399899.71,"Y":131683.93,"ADDRID":307858,"ADDRESS":"2701 MARTIN LUTHER KING JR AVENUE SE"},"geometry":{"type":"Point","coordinates":[-77.00115768165344,38.85297159408773]}},{"type":"Feature","properties":{"OBJECTID":173,"WEBURL":"http://www.iolp.gsa.gov/iolp/BuildingInfo.asp?bID=DC0027","NUM":27,"BLDG_NAME":"2701 S CAPITOL ST SE ANACOSTIA NAVAL STATION ","GIS_ID":"FED_193","ALIAS":" ","OWNERSHIP":"Owned","X":399623.18,"Y":132574.71,"ADDRID":291843,"ADDRESS":"2701 SOUTH CAPITOL STREET SW"},"geometry":{"type":"Point","coordinates":[-77.00434396175409,38.8609960456999]}},{"type":"Feature","properties":{"OBJECTID":174,"WEBURL":"http://www.iolp.gsa.gov/iolp/BuildingInfo.asp?bID=DC0027","NUM":27,"BLDG_NAME":"2701 SOUTH CAPITOL ST. ANACOSTIA NAVAL STATION ","GIS_ID":"FED_193","ALIAS":" ","OWNERSHIP":"Owned","X":399623.18,"Y":132574.71,"ADDRID":291843,"ADDRESS":"2701 SOUTH CAPITOL STREET SW"},"geometry":{"type":"Point","coordinates":[-77.00434396175409,38.8609960456999]}},{"type":"Feature","properties":{"OBJECTID":175,"WEBURL":"http://www.iolp.gsa.gov/iolp/BuildingInfo.asp?bID=DC0027","NUM":27,"BLDG_NAME":"2701 SOUTH CAPITOL STREET SW ANACOSTIA NAVAL STATION ","GIS_ID":"FED_193","ALIAS":" ","OWNERSHIP":"Owned","X":399623.18,"Y":132574.71,"ADDRID":291843,"ADDRESS":"2701 SOUTH CAPITOL STREET SW"},"geometry":{"type":"Point","coordinates":[-77.00434396175409,38.8609960456999]}},{"type":"Feature","properties":{"OBJECTID":176,"WEBURL":"http://www.iolp.gsa.gov/iolp/BuildingInfo.asp?bID=DC0469","NUM":469,"BLDG_NAME":"2702 S CAPITOL ST SE ANACOSTIA NAVAL STATION ","GIS_ID":"FED_95","ALIAS":" ","OWNERSHIP":"Owned","X":399651.01,"Y":132304.44,"ADDRID":302058,"ADDRESS":"2700 SOUTH CAPITOL STREET SE"},"geometry":{"type":"Point","coordinates":[-77.00402317009952,38.85856135072246]}},{"type":"Feature","properties":{"OBJECTID":177,"WEBURL":"http://www.iolp.gsa.gov/iolp/BuildingInfo.asp?bID=DC0274","NUM":274,"BLDG_NAME":"300 12th Street SW ","GIS_ID":"FED_253","ALIAS":"AGRICULTURE ANNEX (COTTON)","OWNERSHIP":"Owned","X":397592.5,"Y":135300.83,"ADDRID":42685,"ADDRESS":"300 12TH STREET SW"},"geometry":{"type":"Point","coordinates":[-77.02775079236383,38.88555081525018]}},{"type":"Feature","properties":{"OBJECTID":178,"WEBURL":"http://www.iolp.gsa.gov/iolp/BuildingInfo.asp?bID=DC0031","NUM":31,"BLDG_NAME":"301 7th St SW ","GIS_ID":"FED_107","ALIAS":" ","OWNERSHIP":"Owned","X":398047.16,"Y":135262.41,"ADDRID":277855,"ADDRESS":"301 7TH STREET SW"},"geometry":{"type":"Point","coordinates":[-77.02251033555808,38.88520584076656]}},{"type":"Feature","properties":{"OBJECTID":179,"WEBURL":"http://www.iolp.gsa.gov/iolp/BuildingInfo.asp?bID=DC0075","NUM":75,"BLDG_NAME":"320 FIRST STREET NW ","GIS_ID":"FED_25","ALIAS":" ","OWNERSHIP":"Owned","X":398919.17,"Y":136275.78,"ADDRID":299646,"ADDRESS":"320 1ST STREET NW"},"geometry":{"type":"Point","coordinates":[-77.0124613131925,38.89433616408842]}},{"type":"Feature","properties":{"OBJECTID":180,"WEBURL":"http://www.iolp.gsa.gov/iolp/BuildingInfo.asp?bID=DC0033","NUM":33,"BLDG_NAME":"330 C ST SW ","GIS_ID":"FED_27","ALIAS":" ","OWNERSHIP":"Owned","X":398579.72,"Y":135287.2,"ADDRID":276582,"ADDRESS":"330 C STREET SW"},"geometry":{"type":"Point","coordinates":[-77.01637220428422,38.88543018040299]}},{"type":"Feature","properties":{"OBJECTID":181,"WEBURL":"http://www.iolp.gsa.gov/iolp/BuildingInfo.asp?bID=DC0034","NUM":34,"BLDG_NAME":"330 INDEP AVE SW ","GIS_ID":"FED_122","ALIAS":"Health & Human Services North","OWNERSHIP":"Owned","X":398584.46,"Y":135444.06,"ADDRID":293236,"ADDRESS":"330 INDEPENDENCE AVENUE SW"},"geometry":{"type":"Point","coordinates":[-77.01631789501093,38.88684324288926]}},{"type":"Feature","properties":{"OBJECTID":182,"WEBURL":"http://www.iolp.gsa.gov/iolp/BuildingInfo.asp?bID=DC0573","NUM":573,"BLDG_NAME":"333 CONSTITUTION AVE NW ","GIS_ID":"FED_194","ALIAS":" ","OWNERSHIP":"Owned","X":398573.34,"Y":136127.33,"ADDRID":238373,"ADDRESS":"333 CONSTITUTION AVENUE NW"},"geometry":{"type":"Point","coordinates":[-77.01644748399495,38.89299837816102]}},{"type":"Feature","properties":{"OBJECTID":183,"WEBURL":"http://www.iolp.gsa.gov/iolp/BuildingInfo.asp?bID=DC0573","NUM":573,"BLDG_NAME":"333 CONSTITUTION AVE. NW, ","GIS_ID":"FED_194","ALIAS":" ","OWNERSHIP":"Owned","X":398573.34,"Y":136127.33,"ADDRID":238373,"ADDRESS":"333 CONSTITUTION AVENUE NW"},"geometry":{"type":"Point","coordinates":[-77.01644748399495,38.89299837816102]}},{"type":"Feature","properties":{"OBJECTID":184,"WEBURL":"http://www.iolp.gsa.gov/iolp/BuildingInfo.asp?bID=DC1429","NUM":1429,"BLDG_NAME":"3801 NEBRASKA AVENUE, NW ","GIS_ID":"FED_227","ALIAS":" ","OWNERSHIP":"Owned","X":392689.87,"Y":141298.42,"ADDRID":291849,"ADDRESS":"3801 NEBRASKA AVENUE NW"},"geometry":{"type":"Point","coordinates":[-77.08432165494946,38.93955202369784]}},{"type":"Feature","properties":{"OBJECTID":185,"WEBURL":"http://www.iolp.gsa.gov/iolp/BuildingInfo.asp?bID=DC0010","NUM":10,"BLDG_NAME":"400 MARYLAND AVE SW ","GIS_ID":"FED_110","ALIAS":" ","OWNERSHIP":"Owned","X":398375.18,"Y":135405.17,"ADDRID":276614,"ADDRESS":"400 MARYLAND AVENUE SW"},"geometry":{"type":"Point","coordinates":[-77.01872997877236,38.88649254499304]}},{"type":"Feature","properties":{"OBJECTID":186,"WEBURL":"http://www.iolp.gsa.gov/iolp/BuildingInfo.asp?bID=DC0114","NUM":114,"BLDG_NAME":"400 SECOND STREET NW ","GIS_ID":"FED_123","ALIAS":" ","OWNERSHIP":"Owned","X":398716.63,"Y":136404.51,"ADDRID":279729,"ADDRESS":"400 2ND STREET NW"},"geometry":{"type":"Point","coordinates":[-77.01479628898743,38.895495538911526]}},{"type":"Feature","properties":{"OBJECTID":187,"WEBURL":"http://www.iolp.gsa.gov/iolp/BuildingInfo.asp?bID=DC0024","NUM":24,"BLDG_NAME":"401 14TH ST SW ","GIS_ID":null,"ALIAS":null,"OWNERSHIP":"Owned","X":397186.94,"Y":135211.21,"ADDRID":306554,"ADDRESS":"401 14TH STREET SW"},"geometry":{"type":"Point","coordinates":[-77.0324248531596,38.884742279702046]}},{"type":"Feature","properties":{"OBJECTID":188,"WEBURL":"http://www.iolp.gsa.gov/iolp/BuildingInfo.asp?bID=DC0016","NUM":16,"BLDG_NAME":"450 E ST NW ","GIS_ID":"FED_161","ALIAS":" ","OWNERSHIP":"Owned","X":398415.53,"Y":136439.68,"ADDRID":293245,"ADDRESS":"450 E STREET NW"},"geometry":{"type":"Point","coordinates":[-77.01826729044734,38.89581187191963]}},{"type":"Feature","properties":{"OBJECTID":189,"WEBURL":"http://www.iolp.gsa.gov/iolp/BuildingInfo.asp?bID=DC0092","NUM":92,"BLDG_NAME":"451 7TH STREET SW ","GIS_ID":"FED_126","ALIAS":"HUD","OWNERSHIP":"Owned","X":398020,"Y":135162.56,"ADDRID":291719,"ADDRESS":"451 7TH STREET SW"},"geometry":{"type":"Point","coordinates":[-77.02282308865618,38.88430629283917]}},{"type":"Feature","properties":{"OBJECTID":190,"WEBURL":"http://www.iolp.gsa.gov/iolp/BuildingInfo.asp?bID=DC0030","NUM":30,"BLDG_NAME":"5TH & F STREETS, NW ","GIS_ID":null,"ALIAS":null,"OWNERSHIP":"Owned","X":398357.99014043,"Y":136609.81999621,"ADDRID":902521,"ADDRESS":"5TH STREET NW AND F STREET NW"},"geometry":{"type":"Point","coordinates":[-77.01893098898952,38.89734444959199]}},{"type":"Feature","properties":{"OBJECTID":191,"WEBURL":"http://www.iolp.gsa.gov/iolp/BuildingInfo.asp?bID=DC0084","NUM":84,"BLDG_NAME":"600 INDEPENDENCE AVE SW ","GIS_ID":"FED_196","ALIAS":" ","OWNERSHIP":"Owned","X":398177.16,"Y":135486.44,"ADDRID":277762,"ADDRESS":"600 INDEPENDENCE AVENUE SW"},"geometry":{"type":"Point","coordinates":[-77.02101257537662,38.88722426778192]}},{"type":"Feature","properties":{"OBJECTID":192,"WEBURL":"http://www.iolp.gsa.gov/iolp/BuildingInfo.asp?bID=DC0019","NUM":19,"BLDG_NAME":"600 Pennsylvania Avenue NW ","GIS_ID":"FED_105","ALIAS":" ","OWNERSHIP":"Owned","X":398163.91,"Y":136099.38,"ADDRID":238718,"ADDRESS":"600 PENNSYLVANIA AVENUE NW"},"geometry":{"type":"Point","coordinates":[-77.02116693487788,38.892745834232024]}},{"type":"Feature","properties":{"OBJECTID":193,"WEBURL":"http://www.iolp.gsa.gov/iolp/BuildingInfo.asp?bID=DC0048","NUM":48,"BLDG_NAME":"600 SEVENTEENTH STREET ","GIS_ID":"FED_129","ALIAS":" ","OWNERSHIP":"Owned","X":396551.48,"Y":136634.72,"ADDRID":295829,"ADDRESS":"600 17TH STREET NW"},"geometry":{"type":"Point","coordinates":[-77.03975613843625,38.897563526540566]}},{"type":"Feature","properties":{"OBJECTID":194,"WEBURL":"http://www.iolp.gsa.gov/iolp/BuildingInfo.asp?bID=DC0463","NUM":463,"BLDG_NAME":"601 - 4TH ST, NW ","GIS_ID":"FED_170","ALIAS":" ","OWNERSHIP":"Owned","X":398629.24,"Y":136658.57,"ADDRID":218684,"ADDRESS":"601 4TH STREET NW"},"geometry":{"type":"Point","coordinates":[-77.01580418142387,38.897784072306756]}},{"type":"Feature","properties":{"OBJECTID":195,"WEBURL":"http://www.iolp.gsa.gov/iolp/BuildingInfo.asp?bID=DC0313","NUM":313,"BLDG_NAME":"633 Third Street, NW ","GIS_ID":"FED_106","ALIAS":" ","OWNERSHIP":"Owned","X":398711.88,"Y":136690.27,"ADDRID":238367,"ADDRESS":"633 3RD STREET NW"},"geometry":{"type":"Point","coordinates":[-77.01485158044083,38.8980697624445]}},{"type":"Feature","properties":{"OBJECTID":196,"WEBURL":"http://www.iolp.gsa.gov/iolp/BuildingInfo.asp?bID=DC0117","NUM":117,"BLDG_NAME":"708 JACKSON PLACE NW ","GIS_ID":"FED_100","ALIAS":" ","OWNERSHIP":"Owned","X":396683.78,"Y":136810.94,"ADDRID":218720,"ADDRESS":"708 JACKSON PLACE NW"},"geometry":{"type":"Point","coordinates":[-77.03823186125427,38.89915148922136]}},{"type":"Feature","properties":{"OBJECTID":197,"WEBURL":"http://www.iolp.gsa.gov/iolp/BuildingInfo.asp?bID=DC0118","NUM":118,"BLDG_NAME":"712 JACKSON PL NW ","GIS_ID":"FED_99","ALIAS":" ","OWNERSHIP":"Owned","X":396682.7,"Y":136819.44,"ADDRID":218724,"ADDRESS":"712 JACKSON PLACE NW"},"geometry":{"type":"Point","coordinates":[-77.03824435260931,38.89922805621282]}},{"type":"Feature","properties":{"OBJECTID":198,"WEBURL":"http://www.iolp.gsa.gov/iolp/BuildingInfo.asp?bID=DC0119","NUM":119,"BLDG_NAME":"716 JACKSON PLACE NW ","GIS_ID":"FED_32","ALIAS":" ","OWNERSHIP":"Owned","X":396683.7,"Y":136826.67,"ADDRID":218727,"ADDRESS":"716 JACKSON PLACE NW"},"geometry":{"type":"Point","coordinates":[-77.03823285944904,38.899293190434236]}},{"type":"Feature","properties":{"OBJECTID":199,"WEBURL":"http://www.iolp.gsa.gov/iolp/BuildingInfo.asp?bID=DC0094","NUM":94,"BLDG_NAME":"717 MADISON PL NW ","GIS_ID":"FED_114","ALIAS":"Madison Place Complex","OWNERSHIP":"Owned","X":396987.99,"Y":136852.91,"ADDRID":279906,"ADDRESS":"717 MADISON PLACE NW"},"geometry":{"type":"Point","coordinates":[-77.03472509502456,38.899530665244306]}},{"type":"Feature","properties":{"OBJECTID":200,"WEBURL":"http://www.iolp.gsa.gov/iolp/BuildingInfo.asp?bID=DC0094","NUM":94,"BLDG_NAME":"717 MADISON PL NW ","GIS_ID":"FED_114","ALIAS":"Madison Place Complex","OWNERSHIP":"Owned","X":396987.99,"Y":136852.91,"ADDRID":279906,"ADDRESS":"717 MADISON PLACE NW"},"geometry":{"type":"Point","coordinates":[-77.03472509502456,38.899530665244306]}},{"type":"Feature","properties":{"OBJECTID":201,"WEBURL":"http://www.iolp.gsa.gov/iolp/BuildingInfo.asp?bID=DC0094","NUM":94,"BLDG_NAME":"717 MADISON PL NW ","GIS_ID":"FED_114","ALIAS":"Madison Place Complex","OWNERSHIP":"Owned","X":396987.99,"Y":136852.91,"ADDRID":279906,"ADDRESS":"717 MADISON PLACE NW"},"geometry":{"type":"Point","coordinates":[-77.03472509502456,38.899530665244306]}},{"type":"Feature","properties":{"OBJECTID":202,"WEBURL":"http://www.iolp.gsa.gov/iolp/BuildingInfo.asp?bID=DC0120","NUM":120,"BLDG_NAME":"718 JACKSON PL NW ","GIS_ID":"FED_102","ALIAS":" ","OWNERSHIP":"Owned","X":396682.86,"Y":136833.16,"ADDRID":218728,"ADDRESS":"718 JACKSON PLACE NW"},"geometry":{"type":"Point","coordinates":[-77.03824257438035,38.89935165152472]}},{"type":"Feature","properties":{"OBJECTID":203,"WEBURL":"http://www.iolp.gsa.gov/iolp/BuildingInfo.asp?bID=DC0121","NUM":121,"BLDG_NAME":"722 JACKSON PL NW ","GIS_ID":"FED_96","ALIAS":" ","OWNERSHIP":"Owned","X":396684.15,"Y":136843.23,"ADDRID":218734,"ADDRESS":"722 JACKSON PLACE NW"},"geometry":{"type":"Point","coordinates":[-77.03822775176035,38.899442370582214]}},{"type":"Feature","properties":{"OBJECTID":204,"WEBURL":"http://www.iolp.gsa.gov/iolp/BuildingInfo.asp?bID=DC0105","NUM":105,"BLDG_NAME":"725 17TH ST NW ","GIS_ID":"FED_113","ALIAS":" ","OWNERSHIP":"Owned","X":396610.34,"Y":136844.16,"ADDRID":291723,"ADDRESS":"725 17TH STREET NW"},"geometry":{"type":"Point","coordinates":[-77.03907864570598,38.89945046680869]}},{"type":"Feature","properties":{"OBJECTID":205,"WEBURL":"http://www.iolp.gsa.gov/iolp/BuildingInfo.asp?bID=DC0122","NUM":122,"BLDG_NAME":"726 JACKSON PL NW ","GIS_ID":"FED_31","ALIAS":" ","OWNERSHIP":"Owned","X":396683.11,"Y":136856.28,"ADDRID":218738,"ADDRESS":"726 JACKSON PLACE NW"},"geometry":{"type":"Point","coordinates":[-77.03823980401043,38.89955992576025]}},{"type":"Feature","properties":{"OBJECTID":206,"WEBURL":"http://www.iolp.gsa.gov/iolp/BuildingInfo.asp?bID=DC0123","NUM":123,"BLDG_NAME":"730 JACKSON PL NW ","GIS_ID":"FED_98","ALIAS":" ","OWNERSHIP":"Owned","X":396684.2,"Y":136864.52,"ADDRID":218742,"ADDRESS":"730 JACKSON PLACE NW"},"geometry":{"type":"Point","coordinates":[-77.03822727813645,38.89963415876048]}},{"type":"Feature","properties":{"OBJECTID":207,"WEBURL":"http://www.iolp.gsa.gov/iolp/BuildingInfo.asp?bID=DC0124","NUM":124,"BLDG_NAME":"734 JACKSON PLACE NW ","GIS_ID":"FED_97","ALIAS":" ","OWNERSHIP":"Owned","X":396685.19,"Y":136873.42,"ADDRID":218744,"ADDRESS":"734 JACKSON PLACE NW"},"geometry":{"type":"Point","coordinates":[-77.03821590823652,38.899714336898974]}},{"type":"Feature","properties":{"OBJECTID":208,"WEBURL":"http://www.iolp.gsa.gov/iolp/BuildingInfo.asp?bID=DC0125","NUM":125,"BLDG_NAME":"736 JACKSON PLACE NW ","GIS_ID":"FED_103","ALIAS":" ","OWNERSHIP":"Owned","X":396683.93,"Y":136880.41,"ADDRID":218745,"ADDRESS":"736 JACKSON PLACE NW"},"geometry":{"type":"Point","coordinates":[-77.03823046745143,38.89977730058195]}},{"type":"Feature","properties":{"OBJECTID":209,"WEBURL":"http://www.iolp.gsa.gov/iolp/BuildingInfo.asp?bID=DC0126","NUM":126,"BLDG_NAME":"740 JACKSON PLACE NW ","GIS_ID":"FED_101","ALIAS":" ","OWNERSHIP":"Owned","X":396686.03,"Y":136887.65,"ADDRID":218748,"ADDRESS":"740 JACKSON PLACE NW"},"geometry":{"type":"Point","coordinates":[-77.03820629325264,38.89984252902734]}},{"type":"Feature","properties":{"OBJECTID":210,"WEBURL":"http://www.iolp.gsa.gov/iolp/BuildingInfo.asp?bID=DC0127","NUM":127,"BLDG_NAME":"744 JACKSON PLACE NW ","GIS_ID":null,"ALIAS":null,"OWNERSHIP":"Owned","X":396686.12,"Y":136895.32,"ADDRID":309615,"ADDRESS":"744 JACKSON PLACE NW"},"geometry":{"type":"Point","coordinates":[-77.03820529272474,38.89991162348554]}},{"type":"Feature","properties":{"OBJECTID":211,"WEBURL":"http://www.iolp.gsa.gov/iolp/BuildingInfo.asp?bID=DC0083","NUM":83,"BLDG_NAME":"800 INDEPENDENCE AVE SW ","GIS_ID":"FED_164","ALIAS":" ","OWNERSHIP":"Owned","X":398008.92,"Y":135447.42,"ADDRID":79569,"ADDRESS":"800 INDEPENDENCE AVENUE SW"},"geometry":{"type":"Point","coordinates":[-77.02295161849082,38.886872395786476]}},{"type":"Feature","properties":{"OBJECTID":212,"WEBURL":"http://www.iolp.gsa.gov/iolp/BuildingInfo.asp?bID=DC0007","NUM":7,"BLDG_NAME":"810 VERMONT AVE NW ","GIS_ID":"FED_163","ALIAS":" ","OWNERSHIP":"Owned","X":396944.25,"Y":136997.21,"ADDRID":279954,"ADDRESS":"810 VERMONT AVENUE NW"},"geometry":{"type":"Point","coordinates":[-77.03522997694311,38.90083042051569]}},{"type":"Feature","properties":{"OBJECTID":213,"WEBURL":"http://www.iolp.gsa.gov/iolp/BuildingInfo.asp?bID=DC0026","NUM":26,"BLDG_NAME":"811 VERMONT AVE NW ","GIS_ID":"FED_124","ALIAS":" ","OWNERSHIP":"Owned","X":397020.85,"Y":136989.79,"ADDRID":279956,"ADDRESS":"811 VERMONT AVENUE NW"},"geometry":{"type":"Point","coordinates":[-77.03434687478962,38.90076384147442]}},{"type":"Feature","properties":{"OBJECTID":214,"WEBURL":"http://www.iolp.gsa.gov/iolp/BuildingInfo.asp?bID=DC0090","NUM":90,"BLDG_NAME":"935 PENNSYLVANIA AVE NW ","GIS_ID":"FED_111","ALIAS":"FBI Building","OWNERSHIP":"Owned","X":397825.35,"Y":136316.44,"ADDRID":291725,"ADDRESS":"935 PENNSYLVANIA AVENUE NW"},"geometry":{"type":"Point","coordinates":[-77.02507021081257,38.89470041859979]}},{"type":"Feature","properties":{"OBJECTID":215,"WEBURL":"http://www.iolp.gsa.gov/iolp/BuildingInfo.asp?bID=DC0720","NUM":720,"BLDG_NAME":"940 H STREET, NW ","GIS_ID":"FED_197","ALIAS":" ","OWNERSHIP":"Owned","X":397766.06,"Y":136855.54,"ADDRID":278830,"ADDRESS":"940 H STREET NW"},"geometry":{"type":"Point","coordinates":[-77.02575542012123,38.89955667923938]}},{"type":"Feature","properties":{"OBJECTID":216,"WEBURL":"http://www.iolp.gsa.gov/iolp/BuildingInfo.asp?bID=DC0505","NUM":505,"BLDG_NAME":"950 H ST NW ","GIS_ID":"FED_112","ALIAS":" ","OWNERSHIP":"Owned","X":397813.84,"Y":136837.63,"ADDRID":278833,"ADDRESS":"950 H STREET NW"},"geometry":{"type":"Point","coordinates":[-77.02520454938994,38.899395459643955]}},{"type":"Feature","properties":{"OBJECTID":217,"WEBURL":"http://www.iolp.gsa.gov/iolp/BuildingInfo.asp?bID=DC0023","NUM":23,"BLDG_NAME":"950 Pennsylvania Avenue NW ","GIS_ID":null,"ALIAS":null,"OWNERSHIP":"Owned","X":397827.08,"Y":136200.27,"ADDRID":297440,"ADDRESS":"950 PENNSYLVANIA AVENUE NW"},"geometry":{"type":"Point","coordinates":[-77.02504990102479,38.89365392061666]}},{"type":"Feature","properties":{"OBJECTID":218,"WEBURL":"http://www.iolp.gsa.gov/iolp/BuildingInfo.asp?bID=DC0566","NUM":566,"BLDG_NAME":"99 NEW YORK AVE NE ","GIS_ID":null,"ALIAS":null,"OWNERSHIP":"Owned","X":399594.8,"Y":137759.97,"ADDRID":301063,"ADDRESS":"99 NEW YORK AVENUE NE"},"geometry":{"type":"Point","coordinates":[-77.00467401341685,38.90770685118066]}},{"type":"Feature","properties":{"OBJECTID":219,"WEBURL":"http://www.iolp.gsa.gov/iolp/BuildingInfo.asp?bID=DC1400","NUM":1400,"BLDG_NAME":"Nebraska Ave Complex Nebraska Avenue Complex ","GIS_ID":"FED_227","ALIAS":" ","OWNERSHIP":"Owned","X":392689.87,"Y":141298.42,"ADDRID":291849,"ADDRESS":"NEBRASKA AVENUE COMPLEX"},"geometry":{"type":"Point","coordinates":[-77.08432165494946,38.93955202369784]}},{"type":"Feature","properties":{"OBJECTID":220,"WEBURL":"http://www.iolp.gsa.gov/iolp/BuildingInfo.asp?bID=DC1405","NUM":1405,"BLDG_NAME":"NEBRASKA AVE. COMPLEX NEBRASKA AVENUE COMPLEX ","GIS_ID":"FED_227","ALIAS":" ","OWNERSHIP":"Owned","X":392689.87,"Y":141298.42,"ADDRID":291849,"ADDRESS":"NEBRASKA AVENUE COMPLEX"},"geometry":{"type":"Point","coordinates":[-77.08432165494946,38.93955202369784]}},{"type":"Feature","properties":{"OBJECTID":221,"WEBURL":"http://www.iolp.gsa.gov/iolp/BuildingInfo.asp?bID=DC1401","NUM":1401,"BLDG_NAME":"NEBRASKA AVENUE COMPLEX 3801 NEBRASKA AVENUE ","GIS_ID":"FED_227","ALIAS":" ","OWNERSHIP":"Owned","X":392689.87,"Y":141298.42,"ADDRID":291849,"ADDRESS":"3801 NEBRASKA AVENUE NW"},"geometry":{"type":"Point","coordinates":[-77.08432165494946,38.93955202369784]}},{"type":"Feature","properties":{"OBJECTID":222,"WEBURL":"http://www.iolp.gsa.gov/iolp/BuildingInfo.asp?bID=DC1402","NUM":1402,"BLDG_NAME":"NEBRASKA AVENUE COMPLEX 3801 NEBRASKA AVENUE ","GIS_ID":"FED_227","ALIAS":" ","OWNERSHIP":"Owned","X":392689.87,"Y":141298.42,"ADDRID":291849,"ADDRESS":"3801 NEBRASKA AVENUE NW"},"geometry":{"type":"Point","coordinates":[-77.08432165494946,38.93955202369784]}},{"type":"Feature","properties":{"OBJECTID":223,"WEBURL":"http://www.iolp.gsa.gov/iolp/BuildingInfo.asp?bID=DC1403","NUM":1403,"BLDG_NAME":"NEBRASKA AVENUE COMPLEX 3801 NEBRASKA AVENUE ","GIS_ID":"FED_227","ALIAS":" ","OWNERSHIP":"Owned","X":392689.87,"Y":141298.42,"ADDRID":291849,"ADDRESS":"3801 NEBRASKA AVENUE NW"},"geometry":{"type":"Point","coordinates":[-77.08432165494946,38.93955202369784]}},{"type":"Feature","properties":{"OBJECTID":224,"WEBURL":"http://www.iolp.gsa.gov/iolp/BuildingInfo.asp?bID=DC1404","NUM":1404,"BLDG_NAME":"NEBRASKA AVENUE COMPLEX 3801 NEBRASKA AVENUE ","GIS_ID":"FED_227","ALIAS":" ","OWNERSHIP":"Owned","X":392689.87,"Y":141298.42,"ADDRID":291849,"ADDRESS":"3801 NEBRASKA AVENUE NW"},"geometry":{"type":"Point","coordinates":[-77.08432165494946,38.93955202369784]}},{"type":"Feature","properties":{"OBJECTID":225,"WEBURL":"http://www.iolp.gsa.gov/iolp/BuildingInfo.asp?bID=DC1406","NUM":1406,"BLDG_NAME":"NEBRASKA AVENUE COMPLEX 3801 NEBRASKA AVENUE ","GIS_ID":"FED_227","ALIAS":" ","OWNERSHIP":"Owned","X":392689.87,"Y":141298.42,"ADDRID":291849,"ADDRESS":"3801 NEBRASKA AVENUE NW"},"geometry":{"type":"Point","coordinates":[-77.08432165494946,38.93955202369784]}},{"type":"Feature","properties":{"OBJECTID":226,"WEBURL":"http://www.iolp.gsa.gov/iolp/BuildingInfo.asp?bID=DC1407","NUM":1407,"BLDG_NAME":"NEBRASKA AVENUE COMPLEX 3801 NEBRASKA AVENUE ","GIS_ID":"FED_227","ALIAS":" ","OWNERSHIP":"Owned","X":392689.87,"Y":141298.42,"ADDRID":291849,"ADDRESS":"3801 NEBRASKA AVENUE NW"},"geometry":{"type":"Point","coordinates":[-77.08432165494946,38.93955202369784]}},{"type":"Feature","properties":{"OBJECTID":227,"WEBURL":"http://www.iolp.gsa.gov/iolp/BuildingInfo.asp?bID=DC1409","NUM":1409,"BLDG_NAME":"NEBRASKA AVENUE COMPLEX 3801 NEBRASKA AVENUE ","GIS_ID":"FED_227","ALIAS":" ","OWNERSHIP":"Owned","X":392689.87,"Y":141298.42,"ADDRID":291849,"ADDRESS":"3801 NEBRASKA AVENUE NW"},"geometry":{"type":"Point","coordinates":[-77.08432165494946,38.93955202369784]}},{"type":"Feature","properties":{"OBJECTID":228,"WEBURL":"http://www.iolp.gsa.gov/iolp/BuildingInfo.asp?bID=DC1410","NUM":1410,"BLDG_NAME":"NEBRASKA AVENUE COMPLEX 3801 NEBRASKA AVENUE ","GIS_ID":"FED_227","ALIAS":" ","OWNERSHIP":"Owned","X":392689.87,"Y":141298.42,"ADDRID":291849,"ADDRESS":"3801 NEBRASKA AVENUE NW"},"geometry":{"type":"Point","coordinates":[-77.08432165494946,38.93955202369784]}},{"type":"Feature","properties":{"OBJECTID":229,"WEBURL":"http://www.iolp.gsa.gov/iolp/BuildingInfo.asp?bID=DC1411","NUM":1411,"BLDG_NAME":"NEBRASKA AVENUE COMPLEX 3801 NEBRASKA AVENUE ","GIS_ID":"FED_227","ALIAS":" ","OWNERSHIP":"Owned","X":392689.87,"Y":141298.42,"ADDRID":291849,"ADDRESS":"3801 NEBRASKA AVENUE NW"},"geometry":{"type":"Point","coordinates":[-77.08432165494946,38.93955202369784]}},{"type":"Feature","properties":{"OBJECTID":230,"WEBURL":"http://www.iolp.gsa.gov/iolp/BuildingInfo.asp?bID=DC1412","NUM":1412,"BLDG_NAME":"NEBRASKA AVENUE COMPLEX 3801 NEBRASKA AVENUE ","GIS_ID":"FED_227","ALIAS":" ","OWNERSHIP":"Owned","X":392689.87,"Y":141298.42,"ADDRID":291849,"ADDRESS":"3801 NEBRASKA AVENUE NW"},"geometry":{"type":"Point","coordinates":[-77.08432165494946,38.93955202369784]}},{"type":"Feature","properties":{"OBJECTID":231,"WEBURL":"http://www.iolp.gsa.gov/iolp/BuildingInfo.asp?bID=DC1413","NUM":1413,"BLDG_NAME":"NEBRASKA AVENUE COMPLEX 3801 NEBRASKA AVENUE ","GIS_ID":"FED_227","ALIAS":" ","OWNERSHIP":"Owned","X":392689.87,"Y":141298.42,"ADDRID":291849,"ADDRESS":"3801 NEBRASKA AVENUE NW"},"geometry":{"type":"Point","coordinates":[-77.08432165494946,38.93955202369784]}},{"type":"Feature","properties":{"OBJECTID":232,"WEBURL":"http://www.iolp.gsa.gov/iolp/BuildingInfo.asp?bID=DC1414","NUM":1414,"BLDG_NAME":"NEBRASKA AVENUE COMPLEX 3801 NEBRASKA AVENUE ","GIS_ID":"FED_227","ALIAS":" ","OWNERSHIP":"Owned","X":392689.87,"Y":141298.42,"ADDRID":291849,"ADDRESS":"3801 NEBRASKA AVENUE NW"},"geometry":{"type":"Point","coordinates":[-77.08432165494946,38.93955202369784]}},{"type":"Feature","properties":{"OBJECTID":233,"WEBURL":"http://www.iolp.gsa.gov/iolp/BuildingInfo.asp?bID=DC1415","NUM":1415,"BLDG_NAME":"NEBRASKA AVENUE COMPLEX 3801 NEBRASKA AVENUE ","GIS_ID":"FED_227","ALIAS":" ","OWNERSHIP":"Owned","X":392689.87,"Y":141298.42,"ADDRID":291849,"ADDRESS":"3801 NEBRASKA AVENUE NW"},"geometry":{"type":"Point","coordinates":[-77.08432165494946,38.93955202369784]}},{"type":"Feature","properties":{"OBJECTID":234,"WEBURL":"http://www.iolp.gsa.gov/iolp/BuildingInfo.asp?bID=DC1416","NUM":1416,"BLDG_NAME":"NEBRASKA AVENUE COMPLEX 3801 NEBRASKA AVENUE ","GIS_ID":"FED_227","ALIAS":" ","OWNERSHIP":"Owned","X":392689.87,"Y":141298.42,"ADDRID":291849,"ADDRESS":"3801 NEBRASKA AVENUE NW"},"geometry":{"type":"Point","coordinates":[-77.08432165494946,38.93955202369784]}},{"type":"Feature","properties":{"OBJECTID":235,"WEBURL":"http://www.iolp.gsa.gov/iolp/BuildingInfo.asp?bID=DC1417","NUM":1417,"BLDG_NAME":"NEBRASKA AVENUE COMPLEX 3801 NEBRASKA AVENUE ","GIS_ID":"FED_227","ALIAS":" ","OWNERSHIP":"Owned","X":392689.87,"Y":141298.42,"ADDRID":291849,"ADDRESS":"3801 NEBRASKA AVENUE NW"},"geometry":{"type":"Point","coordinates":[-77.08432165494946,38.93955202369784]}},{"type":"Feature","properties":{"OBJECTID":236,"WEBURL":"http://www.iolp.gsa.gov/iolp/BuildingInfo.asp?bID=DC1418","NUM":1418,"BLDG_NAME":"NEBRASKA AVENUE COMPLEX 3801 NEBRASKA AVENUE ","GIS_ID":"FED_227","ALIAS":" ","OWNERSHIP":"Owned","X":392689.87,"Y":141298.42,"ADDRID":291849,"ADDRESS":"3801 NEBRASKA AVENUE NW"},"geometry":{"type":"Point","coordinates":[-77.08432165494946,38.93955202369784]}},{"type":"Feature","properties":{"OBJECTID":237,"WEBURL":"http://www.iolp.gsa.gov/iolp/BuildingInfo.asp?bID=DC1419","NUM":1419,"BLDG_NAME":"NEBRASKA AVENUE COMPLEX 3801 NEBRASKA AVENUE ","GIS_ID":"FED_227","ALIAS":" ","OWNERSHIP":"Owned","X":392689.87,"Y":141298.42,"ADDRID":291849,"ADDRESS":"3801 NEBRASKA AVENUE NW"},"geometry":{"type":"Point","coordinates":[-77.08432165494946,38.93955202369784]}},{"type":"Feature","properties":{"OBJECTID":238,"WEBURL":"http://www.iolp.gsa.gov/iolp/BuildingInfo.asp?bID=DC1420","NUM":1420,"BLDG_NAME":"NEBRASKA AVENUE COMPLEX 3801 NEBRASKA AVENUE ","GIS_ID":"FED_227","ALIAS":" ","OWNERSHIP":"Owned","X":392689.87,"Y":141298.42,"ADDRID":291849,"ADDRESS":"3801 NEBRASKA AVENUE NW"},"geometry":{"type":"Point","coordinates":[-77.08432165494946,38.93955202369784]}},{"type":"Feature","properties":{"OBJECTID":239,"WEBURL":"http://www.iolp.gsa.gov/iolp/BuildingInfo.asp?bID=DC1421","NUM":1421,"BLDG_NAME":"NEBRASKA AVENUE COMPLEX 3801 NEBRASKA AVENUE ","GIS_ID":"FED_227","ALIAS":" ","OWNERSHIP":"Owned","X":392689.87,"Y":141298.42,"ADDRID":291849,"ADDRESS":"3801 NEBRASKA AVENUE NW"},"geometry":{"type":"Point","coordinates":[-77.08432165494946,38.93955202369784]}},{"type":"Feature","properties":{"OBJECTID":240,"WEBURL":"http://www.iolp.gsa.gov/iolp/BuildingInfo.asp?bID=DC1422","NUM":1422,"BLDG_NAME":"NEBRASKA AVENUE COMPLEX 3801 NEBRASKA AVENUE ","GIS_ID":"FED_227","ALIAS":" ","OWNERSHIP":"Owned","X":392689.87,"Y":141298.42,"ADDRID":291849,"ADDRESS":"3801 NEBRASKA AVENUE NW"},"geometry":{"type":"Point","coordinates":[-77.08432165494946,38.93955202369784]}},{"type":"Feature","properties":{"OBJECTID":241,"WEBURL":"http://www.iolp.gsa.gov/iolp/BuildingInfo.asp?bID=DC1423","NUM":1423,"BLDG_NAME":"NEBRASKA AVENUE COMPLEX 3801 NEBRASKA AVENUE ","GIS_ID":"FED_227","ALIAS":" ","OWNERSHIP":"Owned","X":392689.87,"Y":141298.42,"ADDRID":291849,"ADDRESS":"3801 NEBRASKA AVENUE NW"},"geometry":{"type":"Point","coordinates":[-77.08432165494946,38.93955202369784]}},{"type":"Feature","properties":{"OBJECTID":242,"WEBURL":"http://www.iolp.gsa.gov/iolp/BuildingInfo.asp?bID=DC1424","NUM":1424,"BLDG_NAME":"NEBRASKA AVENUE COMPLEX 3801 NEBRASKA AVENUE ","GIS_ID":"FED_227","ALIAS":" ","OWNERSHIP":"Owned","X":392689.87,"Y":141298.42,"ADDRID":291849,"ADDRESS":"3801 NEBRASKA AVENUE NW"},"geometry":{"type":"Point","coordinates":[-77.08432165494946,38.93955202369784]}},{"type":"Feature","properties":{"OBJECTID":243,"WEBURL":"http://www.iolp.gsa.gov/iolp/BuildingInfo.asp?bID=DC1426","NUM":1426,"BLDG_NAME":"NEBRASKA AVENUE COMPLEX 3801 NEBRASKA AVENUE ","GIS_ID":"FED_227","ALIAS":" ","OWNERSHIP":"Owned","X":392689.87,"Y":141298.42,"ADDRID":291849,"ADDRESS":"3801 NEBRASKA AVENUE NW"},"geometry":{"type":"Point","coordinates":[-77.08432165494946,38.93955202369784]}},{"type":"Feature","properties":{"OBJECTID":244,"WEBURL":"http://www.iolp.gsa.gov/iolp/BuildingInfo.asp?bID=DC1427","NUM":1427,"BLDG_NAME":"NEBRASKA AVENUE COMPLEX 3801 NEBRASKA AVENUE ","GIS_ID":"FED_227","ALIAS":" ","OWNERSHIP":"Owned","X":392689.87,"Y":141298.42,"ADDRID":291849,"ADDRESS":"3801 NEBRASKA AVENUE NW"},"geometry":{"type":"Point","coordinates":[-77.08432165494946,38.93955202369784]}},{"type":"Feature","properties":{"OBJECTID":245,"WEBURL":"http://www.iolp.gsa.gov/iolp/BuildingInfo.asp?bID=DC1428","NUM":1428,"BLDG_NAME":"NEBRASKA AVENUE COMPLEX 3801 NEBRASKA AVENUE ","GIS_ID":"FED_227","ALIAS":" ","OWNERSHIP":"Owned","X":392689.87,"Y":141298.42,"ADDRID":291849,"ADDRESS":"3801 NEBRASKA AVENUE NW"},"geometry":{"type":"Point","coordinates":[-77.08432165494946,38.93955202369784]}},{"type":"Feature","properties":{"OBJECTID":246,"WEBURL":"http://www.iolp.gsa.gov/iolp/BuildingInfo.asp?bID=DC1429","NUM":1429,"BLDG_NAME":"NEBRASKA AVENUE COMPLEX 3801 NEBRASKA AVENUE ","GIS_ID":"FED_227","ALIAS":" ","OWNERSHIP":"Owned","X":392689.87,"Y":141298.42,"ADDRID":291849,"ADDRESS":"3801 NEBRASKA AVENUE NW"},"geometry":{"type":"Point","coordinates":[-77.08432165494946,38.93955202369784]}},{"type":"Feature","properties":{"OBJECTID":247,"WEBURL":"http://www.iolp.gsa.gov/iolp/BuildingInfo.asp?bID=DC1432","NUM":1432,"BLDG_NAME":"NEBRASKA AVENUE COMPLEX 3801 NEBRASKA AVENUE ","GIS_ID":"FED_227","ALIAS":" ","OWNERSHIP":"Owned","X":392689.87,"Y":141298.42,"ADDRID":291849,"ADDRESS":"3801 NEBRASKA AVENUE NW"},"geometry":{"type":"Point","coordinates":[-77.08432165494946,38.93955202369784]}}]}