{"type":"FeatureCollection","features":[{"type":"Feature","properties":{"OBJECTID":1,"GIS_ID":"mstn_013","NAME":"Farragut West","WEB_URL":"http://www.wmata.com/rail/station_detail.cfm?station_id=38","EXIT_TO_ST":"SE CORNER OF 17TH STREET NW AND I STREET NW","FEATURECOD":1370,"DESCRIPTIO":"Metro Station Entrance","CAPTUREYEA":"2016-01-08T00:00:00.000Z","LINE":"blue, orange","ADDRESS_ID":294819},"geometry":{"type":"Point","coordinates":[-77.03934468810083,38.90125241896188]}},{"type":"Feature","properties":{"OBJECTID":2,"GIS_ID":"mstn_016","NAME":"Foggy Bottom | GWU","WEB_URL":"http://www.wmata.com/rail/station_detail.cfm?station_id=40","EXIT_TO_ST":"NW CORNER OF 23RD STREET NW AND I STREET NW","FEATURECOD":1370,"DESCRIPTIO":"Metro Station Entrance","CAPTUREYEA":"2016-01-08T00:00:00.000Z","LINE":"blue, orange","ADDRESS_ID":294821},"geometry":{"type":"Point","coordinates":[-77.05046474599574,38.90090289011515]}},{"type":"Feature","properties":{"OBJECTID":3,"GIS_ID":"mstn_025","NAME":"Minnesota Ave","WEB_URL":"http://www.wmata.com/rail/station_detail.cfm?station_id=64","EXIT_TO_ST":"NW SIDE OF MINNESOTA AVENUE NE","FEATURECOD":1370,"DESCRIPTIO":"Metro Station Entrance","CAPTUREYEA":"2016-01-08T00:00:00.000Z","LINE":"orange","ADDRESS_ID":294856},"geometry":{"type":"Point","coordinates":[-76.94675067210171,38.89876264736358]}},{"type":"Feature","properties":{"OBJECTID":4,"GIS_ID":"mstn_024","NAME":"Metro Center","WEB_URL":"http://www.wmata.com/rail/station_detail.cfm?station_id=1","EXIT_TO_ST":"SE CORNER OF G STREET NW AND 11TH STREET NW","FEATURECOD":1370,"DESCRIPTIO":"Metro Station Entrance","CAPTUREYEA":"2016-01-08T00:00:00.000Z","LINE":"red, blue, orange","ADDRESS_ID":294812},"geometry":{"type":"Point","coordinates":[-77.02681716120378,38.898163801523836]}},{"type":"Feature","properties":{"OBJECTID":5,"GIS_ID":"mstn_037","NAME":"Union Station","WEB_URL":"http://www.wmata.com/rail/station_detail.cfm?station_id=25","EXIT_TO_ST":"NE CORNER OF 1ST STREET NE AND MASSACHUSETTS AVENUE NE","FEATURECOD":1370,"DESCRIPTIO":"Metro Station Entrance","CAPTUREYEA":"2016-01-08T00:00:00.000Z","LINE":"red","ADDRESS_ID":294849},"geometry":{"type":"Point","coordinates":[-77.00720207409026,38.89749219270462]}},{"type":"Feature","properties":{"OBJECTID":6,"GIS_ID":"mstn_021","NAME":"Judiciary Sq","WEB_URL":"http://www.wmata.com/rail/station_detail.cfm?station_id=23","EXIT_TO_ST":"NE CORNER OF 4TH STREET NW AND INDIANA AVENUE NW","FEATURECOD":1370,"DESCRIPTIO":"Metro Station Entrance","CAPTUREYEA":"2016-01-08T00:00:00.000Z","LINE":"red","ADDRESS_ID":294829},"geometry":{"type":"Point","coordinates":[-77.0159870316731,38.8953218177763]}},{"type":"Feature","properties":{"OBJECTID":7,"GIS_ID":"mstn_015","NAME":"Federal Triangle","WEB_URL":"http://www.wmata.com/rail/station_detail.cfm?station_id=53","EXIT_TO_ST":"RONALD REAGAN BUILDING - WEST SIDE OF 12TH STREET NW BETWEEN PENNSYLVANIA AVENUE NW AND CONSTITUTION AVENUE NW","FEATURECOD":1370,"DESCRIPTIO":"Metro Station Entrance","CAPTUREYEA":"2016-01-08T00:00:00.000Z","LINE":"blue, orange","ADDRESS_ID":294809},"geometry":{"type":"Point","coordinates":[-77.02865800846727,38.89381031418882]}},{"type":"Feature","properties":{"OBJECTID":8,"GIS_ID":"mstn_027","NAME":"Archives | Navy Mem","WEB_URL":"http://www.wmata.com/rail/station_detail.cfm?station_id=81","EXIT_TO_ST":"NW CORNER OF 7TH STREET NW AND PENNSYLVANIA AVENUE NW","FEATURECOD":1370,"DESCRIPTIO":"Metro Station Entrance","CAPTUREYEA":"2016-01-08T00:00:00.000Z","LINE":"green,yellow","ADDRESS_ID":294835},"geometry":{"type":"Point","coordinates":[-77.02243965890018,38.89394416945368]}},{"type":"Feature","properties":{"OBJECTID":9,"GIS_ID":"mstn_022","NAME":"L'Enfant Plaza","WEB_URL":"http://www.wmata.com/rail/station_detail.cfm?station_id=82","EXIT_TO_ST":"SE CORNER OF 7TH STREET SW AND MARYLAND AVENUE SW","FEATURECOD":1370,"DESCRIPTIO":"Metro Station Entrance","CAPTUREYEA":"2016-01-08T00:00:00.000Z","LINE":"green, yellow, orange, blue","ADDRESS_ID":294875},"geometry":{"type":"Point","coordinates":[-77.02157749484334,38.88625489894075]}},{"type":"Feature","properties":{"OBJECTID":10,"GIS_ID":"mstn_033","NAME":"Smithsonian","WEB_URL":"http://www.wmata.com/rail/station_detail.cfm?station_id=54","EXIT_TO_ST":"SW CORNER OF INDEPENDENCE AVENUE SW AND 12TH STREET SW","FEATURECOD":1370,"DESCRIPTIO":"Metro Station Entrance","CAPTUREYEA":"2016-01-08T00:00:00.000Z","LINE":"blue, orange","ADDRESS_ID":294876},"geometry":{"type":"Point","coordinates":[-77.02845662999552,38.8872548692051]}},{"type":"Feature","properties":{"OBJECTID":11,"GIS_ID":"mstn_034","NAME":"Stadium | Armory","WEB_URL":"http://www.wmata.com/rail/station_detail.cfm?station_id=63","EXIT_TO_ST":"NE CORNER OF 19TH STREET SE AND C STREET SE","FEATURECOD":1370,"DESCRIPTIO":"Metro Station Entrance","CAPTUREYEA":"2016-01-08T00:00:00.000Z","LINE":"blue, orange","ADDRESS_ID":294863},"geometry":{"type":"Point","coordinates":[-76.97704578066457,38.885663092807725]}},{"type":"Feature","properties":{"OBJECTID":12,"GIS_ID":"mstn_004","NAME":"Capitol South","WEB_URL":"http://www.wmata.com/rail/station_detail.cfm?station_id=59","EXIT_TO_ST":"WEST SIDE OF 1ST STREET SE BETWEEN C STREET SE AND D STREET SE","FEATURECOD":1370,"DESCRIPTIO":"Metro Station Entrance","CAPTUREYEA":"2016-01-08T00:00:00.000Z","LINE":"blue, orange","ADDRESS_ID":294860},"geometry":{"type":"Point","coordinates":[-77.00605462314321,38.88556979213379]}},{"type":"Feature","properties":{"OBJECTID":13,"GIS_ID":"mstn_011","NAME":"Eastern Market","WEB_URL":"http://www.wmata.com/rail/station_detail.cfm?station_id=60","EXIT_TO_ST":"SOUTH SIDE OF PENNSYLVANIA AVENUE SE BETWEEN 7TH STREET SE AND 8TH STREET SE","FEATURECOD":1370,"DESCRIPTIO":"Metro Station Entrance","CAPTUREYEA":"2016-01-08T00:00:00.000Z","LINE":"blue, orange","ADDRESS_ID":294870},"geometry":{"type":"Point","coordinates":[-76.99581529598758,38.88425286650585]}},{"type":"Feature","properties":{"OBJECTID":14,"GIS_ID":"mstn_030","NAME":"Potomac Ave","WEB_URL":"http://www.wmata.com/rail/station_detail.cfm?station_id=61","EXIT_TO_ST":"NE CORNER OF 14TH STREET SE AND POTOMAC AVENUE SE","FEATURECOD":1370,"DESCRIPTIO":"Metro Station Entrance","CAPTUREYEA":"2016-01-08T00:00:00.000Z","LINE":"blue, orange","ADDRESS_ID":294861},"geometry":{"type":"Point","coordinates":[-76.9851736901697,38.88084653263785]}},{"type":"Feature","properties":{"OBJECTID":15,"GIS_ID":"mstn_028","NAME":"Navy Yard-Ballpark","WEB_URL":"http://www.wmata.com/rail/station_detail.cfm?station_id=84","EXIT_TO_ST":"NW CORNER OF NEW JERSEY AVENUE SE AND M STREET SE","FEATURECOD":1370,"DESCRIPTIO":"Metro Station Entrance","CAPTUREYEA":"2016-01-08T00:00:00.000Z","LINE":"green","ADDRESS_ID":294869},"geometry":{"type":"Point","coordinates":[-77.00449748290545,38.876676752608475]}},{"type":"Feature","properties":{"OBJECTID":16,"GIS_ID":"mstn_039","NAME":"Waterfront","WEB_URL":"http://www.wmata.com/rail/station_detail.cfm?station_id=83","EXIT_TO_ST":"NE CORNER OF M STREET SW AND 4TH STREET SW","FEATURECOD":1370,"DESCRIPTIO":"Metro Station Entrance","CAPTUREYEA":"2016-01-08T00:00:00.000Z","LINE":"green","ADDRESS_ID":294877},"geometry":{"type":"Point","coordinates":[-77.01755756424134,38.876962022232696]}},{"type":"Feature","properties":{"OBJECTID":17,"GIS_ID":"mstn_018","NAME":"Friendship Heights Elevator","WEB_URL":"http://www.wmata.com/rail/station_detail.cfm?station_id=11","EXIT_TO_ST":"WEST SIDE OF WISCONSIN AVENUE NW BETWEEN JENIFER STREET NW AND INGOMAR STREET NW","FEATURECOD":1370,"DESCRIPTIO":"Metro Station Entrance","CAPTUREYEA":"2016-01-08T00:00:00.000Z","LINE":"red","ADDRESS_ID":294847},"geometry":{"type":"Point","coordinates":[-77.08500575749754,38.95890221296607]}},{"type":"Feature","properties":{"OBJECTID":18,"GIS_ID":"mstn_019","NAME":"Gallery Pl | Chinatown Elevator","WEB_URL":"http://www.wmata.com/rail/station_detail.cfm?station_id=21","EXIT_TO_ST":"NE CORNER OF 7TH STREET NW AND F STREET NW","FEATURECOD":1370,"DESCRIPTIO":"Metro Station Entrance","CAPTUREYEA":"2016-01-08T00:00:00.000Z","LINE":"red, green, yellow","ADDRESS_ID":294833},"geometry":{"type":"Point","coordinates":[-77.02174915556338,38.897845473117094]}},{"type":"Feature","properties":{"OBJECTID":19,"GIS_ID":"mstn_021","NAME":"Judiciary Sq NE Elevator","WEB_URL":"http://www.wmata.com/rail/station_detail.cfm?station_id=23","EXIT_TO_ST":"SOUTH SIDE OF F STREET NW BETWEEN 4TH STREET NW AND 5TH STREET NW","FEATURECOD":1370,"DESCRIPTIO":"Metro Station Entrance","CAPTUREYEA":"2016-01-08T00:00:00.000Z","LINE":"red","ADDRESS_ID":294829},"geometry":{"type":"Point","coordinates":[-77.01745250069084,38.896829713881566]}},{"type":"Feature","properties":{"OBJECTID":20,"GIS_ID":"mstn_021","NAME":"Judiciary Sq SW Elevator","WEB_URL":"http://www.wmata.com/rail/station_detail.cfm?station_id=23","EXIT_TO_ST":"SOUTH SIDE OF F STREET NW BETWEEN 4TH STREET NW AND 5TH STREET NW","FEATURECOD":1370,"DESCRIPTIO":"Metro Station Entrance","CAPTUREYEA":"2016-01-08T00:00:00.000Z","LINE":"red","ADDRESS_ID":294829},"geometry":{"type":"Point","coordinates":[-77.01765654106146,38.89665370254038]}},{"type":"Feature","properties":{"OBJECTID":21,"GIS_ID":"mstn_022","NAME":"L'Enfant Plaza Elevator","WEB_URL":"http://www.wmata.com/rail/station_detail.cfm?station_id=82","EXIT_TO_ST":"SW CORNER OF 7TH STREET SW AND MARYLAND AVENUE SW","FEATURECOD":1370,"DESCRIPTIO":"Metro Station Entrance","CAPTUREYEA":"2016-01-08T00:00:00.000Z","LINE":"green, yellow, orange, blue","ADDRESS_ID":294875},"geometry":{"type":"Point","coordinates":[-77.0221000120146,38.88598539823089]}},{"type":"Feature","properties":{"OBJECTID":22,"GIS_ID":"mstn_030","NAME":"Potomac Ave Elevator","WEB_URL":"http://www.wmata.com/rail/station_detail.cfm?station_id=61","EXIT_TO_ST":"SE CORNER OF 14TH STREET SE ANDG STREET SE","FEATURECOD":1370,"DESCRIPTIO":"Metro Station Entrance","CAPTUREYEA":"2016-01-08T00:00:00.000Z","LINE":"blue, orange","ADDRESS_ID":294861},"geometry":{"type":"Point","coordinates":[-76.98510797544753,38.88107108375098]}},{"type":"Feature","properties":{"OBJECTID":23,"GIS_ID":"mstn_033","NAME":"Smithsonian Elevator","WEB_URL":"http://www.wmata.com/rail/station_detail.cfm?station_id=54","EXIT_TO_ST":"NW CORNER OF INDEPENDENCE AVENUE SW AND 12TH STREET SW","FEATURECOD":1370,"DESCRIPTIO":"Metro Station Entrance","CAPTUREYEA":"2016-01-08T00:00:00.000Z","LINE":"blue, orange","ADDRESS_ID":294876},"geometry":{"type":"Point","coordinates":[-77.02853590156222,38.88775696349028]}},{"type":"Feature","properties":{"OBJECTID":24,"GIS_ID":"mstn_034","NAME":"Stadium | Armory Elevator","WEB_URL":"http://www.wmata.com/rail/station_detail.cfm?station_id=63","EXIT_TO_ST":"SE CORNER OF 19TH STREET SE AND BURKE STREET SE","FEATURECOD":1370,"DESCRIPTIO":"Metro Station Entrance","CAPTUREYEA":"2016-01-08T00:00:00.000Z","LINE":"blue, orange","ADDRESS_ID":294863},"geometry":{"type":"Point","coordinates":[-76.9771541065979,38.88592871552604]}},{"type":"Feature","properties":{"OBJECTID":25,"GIS_ID":"mstn_035","NAME":"Takoma Elevator","WEB_URL":"http://www.wmata.com/rail/station_detail.cfm?station_id=29","EXIT_TO_ST":"NE SIDE OF CEDAR STREET NW AND BLAIR ROAD NW","FEATURECOD":1370,"DESCRIPTIO":"Metro Station Entrance","CAPTUREYEA":"2016-01-08T00:00:00.000Z","LINE":"red","ADDRESS_ID":294822},"geometry":{"type":"Point","coordinates":[-77.01782397456219,38.97588890922871]}},{"type":"Feature","properties":{"OBJECTID":26,"GIS_ID":"mstn_038","NAME":"Van Ness | UDC Elevator","WEB_URL":"http://www.wmata.com/rail/station_detail.cfm?station_id=9","EXIT_TO_ST":"SW CORNER OF CONNECTICUT AVENUE AND VEAZEY STREET NW","FEATURECOD":1370,"DESCRIPTIO":"Metro Station Entrance","CAPTUREYEA":"2016-01-08T00:00:00.000Z","LINE":"red","ADDRESS_ID":294824},"geometry":{"type":"Point","coordinates":[-77.06358098758871,38.94397019140653]}},{"type":"Feature","properties":{"OBJECTID":27,"GIS_ID":"mstn_040","NAME":"Woodley Park Zoo | Adams Morgan Elevator","WEB_URL":"http://www.wmata.com/rail/station_detail.cfm?station_id=7","EXIT_TO_ST":"SW CORNER OF CONNECTICUT AVENUE NW AND WOODLEY STREET NW","FEATURECOD":1370,"DESCRIPTIO":"Metro Station Entrance","CAPTUREYEA":"2016-01-08T00:00:00.000Z","LINE":"red","ADDRESS_ID":294827},"geometry":{"type":"Point","coordinates":[-77.0528762221929,38.92545707091269]}},{"type":"Feature","properties":{"OBJECTID":28,"GIS_ID":"mstn_001","NAME":"Anacostia","WEB_URL":"http://www.wmata.com/rail/station_detail.cfm?station_id=85","EXIT_TO_ST":"INTERSECTION OF HOWARD ROAD SE AND SHANNON PLACE SE","FEATURECOD":1370,"DESCRIPTIO":"Metro Station Entrance","CAPTUREYEA":"2016-01-08T00:00:00.000Z","LINE":"green","ADDRESS_ID":294867},"geometry":{"type":"Point","coordinates":[-76.99507006608322,38.86229836032468]}},{"type":"Feature","properties":{"OBJECTID":29,"GIS_ID":"mstn_037","NAME":"Union Station","WEB_URL":"http://www.wmata.com/rail/station_detail.cfm?station_id=25","EXIT_TO_ST":"EAST OF 1ST STREET NE AND MASSACHUSETTS AVENUE NE AND G STREET NE","FEATURECOD":1370,"DESCRIPTIO":"Metro Station Entrance","CAPTUREYEA":"2016-01-08T00:00:00.000Z","LINE":"red","ADDRESS_ID":294849},"geometry":{"type":"Point","coordinates":[-77.00722876066969,38.89839952244897]}},{"type":"Feature","properties":{"OBJECTID":30,"GIS_ID":"mstn_021","NAME":"Judiciary Sq","WEB_URL":"http://www.wmata.com/rail/station_detail.cfm?station_id=23","EXIT_TO_ST":"SOUTH SIDE OF F STREET NW BETWEEN 4TH STREET NW AND 5TH STREET NW","FEATURECOD":1370,"DESCRIPTIO":"Metro Station Entrance","CAPTUREYEA":"2016-01-08T00:00:00.000Z","LINE":"red","ADDRESS_ID":294829},"geometry":{"type":"Point","coordinates":[-77.01752527671904,38.89705976143505]}},{"type":"Feature","properties":{"OBJECTID":31,"GIS_ID":"mstn_007","NAME":"Columbia Heights","WEB_URL":"http://www.wmata.com/rail/station_detail.cfm?station_id=75","EXIT_TO_ST":"NE CORNER OF IRVING STREET NW AND 14TH STREET NW","FEATURECOD":1370,"DESCRIPTIO":"Metro Station Entrance","CAPTUREYEA":"2016-01-08T00:00:00.000Z","LINE":"green,yellow","ADDRESS_ID":294815},"geometry":{"type":"Point","coordinates":[-77.03242969434685,38.92887625491144]}},{"type":"Feature","properties":{"OBJECTID":32,"GIS_ID":"mstn_022","NAME":"L'Enfant Plaza","WEB_URL":"http://www.wmata.com/rail/station_detail.cfm?station_id=82","EXIT_TO_ST":"SE CORNER OF 9TH STREET SW AND D STREET SW","FEATURECOD":1370,"DESCRIPTIO":"Metro Station Entrance","CAPTUREYEA":"2016-01-08T00:00:00.000Z","LINE":"green, yellow, orange, blue","ADDRESS_ID":294875},"geometry":{"type":"Point","coordinates":[-77.02348544507522,38.88425315617953]}},{"type":"Feature","properties":{"OBJECTID":33,"GIS_ID":"mstn_034","NAME":"Stadium | Armory","WEB_URL":"http://www.wmata.com/rail/station_detail.cfm?station_id=63","EXIT_TO_ST":"NE CORNER OF 19TH STREET SE AND INDEPENDENCE AVENUE SE","FEATURECOD":1370,"DESCRIPTIO":"Metro Station Entrance","CAPTUREYEA":"2016-01-08T00:00:00.000Z","LINE":"blue, orange","ADDRESS_ID":294863},"geometry":{"type":"Point","coordinates":[-76.97706518705444,38.88829077840236]}},{"type":"Feature","properties":{"OBJECTID":34,"GIS_ID":"mstn_018","NAME":"Friendship Heights","WEB_URL":"http://www.wmata.com/rail/station_detail.cfm?station_id=11","EXIT_TO_ST":"NE CORNER OF WISCONSIN AVENUE NW AND WESTERN AVENUE NW","FEATURECOD":1370,"DESCRIPTIO":"Metro Station Entrance","CAPTUREYEA":"2016-01-08T00:00:00.000Z","LINE":"red","ADDRESS_ID":294847},"geometry":{"type":"Point","coordinates":[-77.08540212252136,38.96074804878105]}},{"type":"Feature","properties":{"OBJECTID":35,"GIS_ID":"mstn_025","NAME":"Minnesota Ave","WEB_URL":"http://www.wmata.com/rail/station_detail.cfm?station_id=64","EXIT_TO_ST":"SW SIDE OF KENILWORTH AVENUE NE","FEATURECOD":1370,"DESCRIPTIO":"Metro Station Entrance","CAPTUREYEA":"2016-01-08T00:00:00.000Z","LINE":"orange","ADDRESS_ID":294856},"geometry":{"type":"Point","coordinates":[-76.9471248450939,38.899310714979734]}},{"type":"Feature","properties":{"OBJECTID":36,"GIS_ID":"mstn_036","NAME":"Tenleytown | AU","WEB_URL":"http://www.wmata.com/rail/station_detail.cfm?station_id=10","EXIT_TO_ST":"NW CORNER OF ABLEMARLE STREET NW AND WISCONSIN AVENUE NW","FEATURECOD":1370,"DESCRIPTIO":"Metro Station Entrance","CAPTUREYEA":"2016-01-08T00:00:00.000Z","LINE":"red","ADDRESS_ID":294846},"geometry":{"type":"Point","coordinates":[-77.08008785794932,38.94828420567076]}},{"type":"Feature","properties":{"OBJECTID":37,"GIS_ID":"mstn_019","NAME":"Gallery Pl | Chinatown","WEB_URL":"http://www.wmata.com/rail/station_detail.cfm?station_id=21","EXIT_TO_ST":"NE CORNER OF 7TH STREET NW AND F STREET NW","FEATURECOD":1370,"DESCRIPTIO":"Metro Station Entrance","CAPTUREYEA":"2016-01-08T00:00:00.000Z","LINE":"red, green, yellow","ADDRESS_ID":294833},"geometry":{"type":"Point","coordinates":[-77.02156742235327,38.89754423952447]}},{"type":"Feature","properties":{"OBJECTID":38,"GIS_ID":"mstn_002","NAME":"Benning Road","WEB_URL":"http://www.wmata.com/rail/station_detail.cfm?station_id=90","EXIT_TO_ST":"NE CORNER OF BENNING ROAD NE AND CENTRAL AVENUE NE","FEATURECOD":1370,"DESCRIPTIO":"Metro Station Entrance","CAPTUREYEA":"2016-01-08T00:00:00.000Z","LINE":"blue, orange","ADDRESS_ID":294851},"geometry":{"type":"Point","coordinates":[-76.93744925730927,38.89040523258587]}},{"type":"Feature","properties":{"OBJECTID":39,"GIS_ID":"mstn_008","NAME":"Congress Heights","WEB_URL":"http://www.wmata.com/rail/station_detail.cfm?station_id=86","EXIT_TO_ST":"SOUTH SIDE OF ALABAMA AVENUE SE AT 13TH STREET SE","FEATURECOD":1370,"DESCRIPTIO":"Metro Station Entrance","CAPTUREYEA":"2016-01-08T00:00:00.000Z","LINE":"green","ADDRESS_ID":294865},"geometry":{"type":"Point","coordinates":[-76.98762043135348,38.84465466779094]}},{"type":"Feature","properties":{"OBJECTID":40,"GIS_ID":"mstn_014","NAME":"Federal Center SW","WEB_URL":"http://www.wmata.com/rail/station_detail.cfm?station_id=58","EXIT_TO_ST":"SOUTH SIDE OF D STREET SW BETWEEN 3RD STREET SW AND 4TH STREET SW","FEATURECOD":1370,"DESCRIPTIO":"Metro Station Entrance","CAPTUREYEA":"2016-01-08T00:00:00.000Z","LINE":"blue, orange","ADDRESS_ID":294808},"geometry":{"type":"Point","coordinates":[-77.01596219124598,38.88500213454659]}},{"type":"Feature","properties":{"OBJECTID":41,"GIS_ID":"mstn_005","NAME":"U St | African Amer Civil | War Mem | Cardozo","WEB_URL":"http://www.wmata.com/rail/station_detail.cfm?station_id=73","EXIT_TO_ST":"SE CORNER  OF U STREET NW AND 13TH STREET NW","FEATURECOD":1370,"DESCRIPTIO":"Metro Station Entrance","CAPTUREYEA":"2016-01-08T00:00:00.000Z","LINE":"green,yellow","ADDRESS_ID":294840},"geometry":{"type":"Point","coordinates":[-77.02912399918566,38.9168308084202]}},{"type":"Feature","properties":{"OBJECTID":42,"GIS_ID":"mstn_022","NAME":"L'Enfant Plaza","WEB_URL":"http://www.wmata.com/rail/station_detail.cfm?station_id=82","EXIT_TO_ST":"SOUTH SIDE OF D STREET SW BETWEEN 6TH STREET SW AND 7TH STREET SW","FEATURECOD":1370,"DESCRIPTIO":"Metro Station Entrance","CAPTUREYEA":"2016-01-08T00:00:00.000Z","LINE":"green, yellow, orange, blue","ADDRESS_ID":294875},"geometry":{"type":"Point","coordinates":[-77.02082804537372,38.88468934188415]}},{"type":"Feature","properties":{"OBJECTID":43,"GIS_ID":"mstn_028","NAME":"Navy Yard-Ballpark","WEB_URL":"http://www.wmata.com/rail/station_detail.cfm?station_id=84","EXIT_TO_ST":"NW CORNER OF HALF STREET SE AND M STREET SE","FEATURECOD":1370,"DESCRIPTIO":"Metro Station Entrance","CAPTUREYEA":"2016-01-08T00:00:00.000Z","LINE":"green","ADDRESS_ID":294869},"geometry":{"type":"Point","coordinates":[-77.00713328701106,38.87627831501453]}},{"type":"Feature","properties":{"OBJECTID":44,"GIS_ID":"mstn_001","NAME":"Anacostia","WEB_URL":"http://www.wmata.com/rail/station_detail.cfm?station_id=85","EXIT_TO_ST":"NE CORNER OF HOWARD ROAD SE AND I - 295 SE","FEATURECOD":1370,"DESCRIPTIO":"Metro Station Entrance","CAPTUREYEA":"2016-01-08T00:00:00.000Z","LINE":"green","ADDRESS_ID":294867},"geometry":{"type":"Point","coordinates":[-76.99602289429323,38.86443598209623]}},{"type":"Feature","properties":{"OBJECTID":45,"GIS_ID":"mstn_008","NAME":"Congress Heights","WEB_URL":"http://www.wmata.com/rail/station_detail.cfm?station_id=86","EXIT_TO_ST":"NORTH SIDE OF ALABAMA AVENUE SE AT 13TH STREET SE","FEATURECOD":1370,"DESCRIPTIO":"Metro Station Entrance","CAPTUREYEA":"2016-01-08T00:00:00.000Z","LINE":"green","ADDRESS_ID":294865},"geometry":{"type":"Point","coordinates":[-76.98777759963761,38.84539767386204]}},{"type":"Feature","properties":{"OBJECTID":46,"GIS_ID":"mstn_033","NAME":"Smithsonian","WEB_URL":"http://www.wmata.com/rail/station_detail.cfm?station_id=54","EXIT_TO_ST":"NW CORNER OF JEFFERSON DRIVE SW AND 12TH STREET SW","FEATURECOD":1370,"DESCRIPTIO":"Metro Station Entrance","CAPTUREYEA":"2016-01-08T00:00:00.000Z","LINE":"blue, orange","ADDRESS_ID":294876},"geometry":{"type":"Point","coordinates":[-77.02843743965214,38.8890782780168]}},{"type":"Feature","properties":{"OBJECTID":47,"GIS_ID":"mstn_023","NAME":"McPherson Sq","WEB_URL":"http://www.wmata.com/rail/station_detail.cfm?station_id=36","EXIT_TO_ST":"SW CORNER OF VERMONT AVENUE NW AND I STREET NW","FEATURECOD":1370,"DESCRIPTIO":"Metro Station Entrance","CAPTUREYEA":"2016-01-08T00:00:00.000Z","LINE":"blue, orange","ADDRESS_ID":294841},"geometry":{"type":"Point","coordinates":[-77.03485715721465,38.90116213907105]}},{"type":"Feature","properties":{"OBJECTID":48,"GIS_ID":"mstn_001","NAME":"Anacostia","WEB_URL":"http://www.wmata.com/rail/station_detail.cfm?station_id=85","EXIT_TO_ST":"INTERSECTION OF HOWARD ROAD SE AND SHANNON PLACE SE","FEATURECOD":1370,"DESCRIPTIO":"Metro Station Entrance","CAPTUREYEA":"2016-01-08T00:00:00.000Z","LINE":"green","ADDRESS_ID":294867},"geometry":{"type":"Point","coordinates":[-76.9954664534225,38.86216945295175]}},{"type":"Feature","properties":{"OBJECTID":49,"GIS_ID":"mstn_029","NAME":"NoMa-Gallaudet U","WEB_URL":"http://www.wmata.com/rail/station_detail.cfm?station_id=108","EXIT_TO_ST":"NORTH SIDE OF M STREET NE AT INTERSECTION WITH DELAWARE AVENUE NE","FEATURECOD":1370,"DESCRIPTIO":"Metro Station Entrance","CAPTUREYEA":"2016-01-08T00:00:00.000Z","LINE":"red","ADDRESS_ID":294857},"geometry":{"type":"Point","coordinates":[-77.00382852691354,38.90571764135273]}},{"type":"Feature","properties":{"OBJECTID":50,"GIS_ID":"mstn_027","NAME":"Archives | Navy Mem Elevator","WEB_URL":"http://www.wmata.com/rail/station_detail.cfm?station_id=81","EXIT_TO_ST":"NE CORNER OF 7TH STREET NW AND PENNSYLVANIA AVENUE NW","FEATURECOD":1370,"DESCRIPTIO":"Metro Station Entrance","CAPTUREYEA":"2016-01-08T00:00:00.000Z","LINE":"green,yellow","ADDRESS_ID":294835},"geometry":{"type":"Point","coordinates":[-77.0220810041255,38.89387722566533]}},{"type":"Feature","properties":{"OBJECTID":51,"GIS_ID":"mstn_004","NAME":"Capitol South Elevator","WEB_URL":"http://www.wmata.com/rail/station_detail.cfm?station_id=59","EXIT_TO_ST":"WEST SIDE OF 1ST STREET SE BETWEEN C STREET SE AND D STREET SE","FEATURECOD":1370,"DESCRIPTIO":"Metro Station Entrance","CAPTUREYEA":"2016-01-08T00:00:00.000Z","LINE":"blue, orange","ADDRESS_ID":294860},"geometry":{"type":"Point","coordinates":[-77.006075775255,38.885180683476186]}},{"type":"Feature","properties":{"OBJECTID":52,"GIS_ID":"mstn_006","NAME":"Cleveland Park Elevator","WEB_URL":"http://www.wmata.com/rail/station_detail.cfm?station_id=8","EXIT_TO_ST":"EAST SIDE OF CONNECTICUT AVENUE NW BETWEEN PORTER STREET NW AND ORDWAY STREET NW","FEATURECOD":1370,"DESCRIPTIO":"Metro Station Entrance","CAPTUREYEA":"2016-01-08T00:00:00.000Z","LINE":"red","ADDRESS_ID":294817},"geometry":{"type":"Point","coordinates":[-77.05843711342735,38.93577698125142]}},{"type":"Feature","properties":{"OBJECTID":53,"GIS_ID":"mstn_011","NAME":"Eastern Market Elevator","WEB_URL":"http://www.wmata.com/rail/station_detail.cfm?station_id=60","EXIT_TO_ST":"SOUTH SIDE OF PENNSYLVANIA AVENUE SE BETWEEN 7TH STREET SE AND 8TH STREET SE","FEATURECOD":1370,"DESCRIPTIO":"Metro Station Entrance","CAPTUREYEA":"2016-01-08T00:00:00.000Z","LINE":"blue, orange","ADDRESS_ID":294870},"geometry":{"type":"Point","coordinates":[-76.99604045200125,38.884261123217705]}},{"type":"Feature","properties":{"OBJECTID":54,"GIS_ID":"mstn_015","NAME":"Federal Triangle Elevator","WEB_URL":"http://www.wmata.com/rail/station_detail.cfm?station_id=53","EXIT_TO_ST":"RONALD REAGAN BUILDING - WEST SIDE OF 12TH STREET NW BETWEEN PENNSYLVANIA AVENUE NW AND CONSTITUTION AVENUE NW","FEATURECOD":1370,"DESCRIPTIO":"Metro Station Entrance","CAPTUREYEA":"2016-01-08T00:00:00.000Z","LINE":"blue, orange","ADDRESS_ID":294809},"geometry":{"type":"Point","coordinates":[-77.02831581708782,38.89377740110806]}},{"type":"Feature","properties":{"OBJECTID":55,"GIS_ID":"mstn_019","NAME":"Gallery Pl | Chinatown","WEB_URL":"http://www.wmata.com/rail/station_detail.cfm?station_id=21","EXIT_TO_ST":"SE CORNER OF 9TH STREET NW AND G STREET NW","FEATURECOD":1370,"DESCRIPTIO":"Metro Station Entrance","CAPTUREYEA":"2016-01-08T00:00:00.000Z","LINE":"red, green, yellow","ADDRESS_ID":294833},"geometry":{"type":"Point","coordinates":[-77.02378099001487,38.89816591845484]}},{"type":"Feature","properties":{"OBJECTID":56,"GIS_ID":"mstn_019","NAME":"Gallery Pl | Chinatown","WEB_URL":"http://www.wmata.com/rail/station_detail.cfm?station_id=21","EXIT_TO_ST":"SE CORNER OF 7TH STREET NW AND H STREET NW","FEATURECOD":1370,"DESCRIPTIO":"Metro Station Entrance","CAPTUREYEA":"2016-01-08T00:00:00.000Z","LINE":"red, green, yellow","ADDRESS_ID":294833},"geometry":{"type":"Point","coordinates":[-77.02165568143434,38.899640054837334]}},{"type":"Feature","properties":{"OBJECTID":57,"GIS_ID":"mstn_024","NAME":"Metro Center","WEB_URL":"http://www.wmata.com/rail/station_detail.cfm?station_id=1","EXIT_TO_ST":"NE CORNER OF G STREET NW AND 12TH STREET NW ","FEATURECOD":1370,"DESCRIPTIO":"Metro Station Entrance","CAPTUREYEA":"2016-01-08T00:00:00.000Z","LINE":"red, blue, orange","ADDRESS_ID":294812},"geometry":{"type":"Point","coordinates":[-77.02789388201091,38.89852655038363]}},{"type":"Feature","properties":{"OBJECTID":58,"GIS_ID":"mstn_024","NAME":"Metro Center","WEB_URL":"http://www.wmata.com/rail/station_detail.cfm?station_id=1","EXIT_TO_ST":"SE CORNER OF G STREET NW AND 13TH STREET NW ","FEATURECOD":1370,"DESCRIPTIO":"Metro Station Entrance","CAPTUREYEA":"2016-01-08T00:00:00.000Z","LINE":"red, blue, orange","ADDRESS_ID":294812},"geometry":{"type":"Point","coordinates":[-77.02945222204885,38.8981411324014]}},{"type":"Feature","properties":{"OBJECTID":59,"GIS_ID":"mstn_024","NAME":"Metro Center","WEB_URL":"http://www.wmata.com/rail/station_detail.cfm?station_id=1","EXIT_TO_ST":"SW CORNER OF F STREET NW AND 12TH STREET NW","FEATURECOD":1370,"DESCRIPTIO":"Metro Station Entrance","CAPTUREYEA":"2016-01-08T00:00:00.000Z","LINE":"red, blue, orange","ADDRESS_ID":294812},"geometry":{"type":"Point","coordinates":[-77.02837555152149,38.89712765160842]}},{"type":"Feature","properties":{"OBJECTID":60,"GIS_ID":"mstn_012","NAME":"Farragut North","WEB_URL":"http://www.wmata.com/rail/station_detail.cfm?station_id=4","EXIT_TO_ST":"SW CORNER OF L STREET NW AND CONNECTICUT AVENUE NW","FEATURECOD":1370,"DESCRIPTIO":"Metro Station Entrance","CAPTUREYEA":"2016-01-08T00:00:00.000Z","LINE":"red","ADDRESS_ID":294828},"geometry":{"type":"Point","coordinates":[-77.04013022246181,38.90358984748549]}},{"type":"Feature","properties":{"OBJECTID":61,"GIS_ID":"mstn_012","NAME":"Farragut North","WEB_URL":"http://www.wmata.com/rail/station_detail.cfm?station_id=4","EXIT_TO_ST":"NE CORNER OF 17TH STREET NW AND K STREET NW","FEATURECOD":1370,"DESCRIPTIO":"Metro Station Entrance","CAPTUREYEA":"2016-01-08T00:00:00.000Z","LINE":"red","ADDRESS_ID":294828},"geometry":{"type":"Point","coordinates":[-77.03917955362085,38.9027814810588]}},{"type":"Feature","properties":{"OBJECTID":62,"GIS_ID":"mstn_006","NAME":"Cleveland Park","WEB_URL":"http://www.wmata.com/rail/station_detail.cfm?station_id=8","EXIT_TO_ST":"WEST SIDE OF CONNECTICUT AVENUE NW BETWEEN PORTER STREET NW AND ORDWAY STREET NW","FEATURECOD":1370,"DESCRIPTIO":"Metro Station Entrance","CAPTUREYEA":"2016-01-08T00:00:00.000Z","LINE":"red","ADDRESS_ID":294817},"geometry":{"type":"Point","coordinates":[-77.05900688935203,38.93614551684381]}},{"type":"Feature","properties":{"OBJECTID":63,"GIS_ID":"mstn_038","NAME":"Van Ness | UDC","WEB_URL":"http://www.wmata.com/rail/station_detail.cfm?station_id=9","EXIT_TO_ST":"NW CORNER OF CONNECTICUT AVENUE NW AND VEAZEY TERRACE NW","FEATURECOD":1370,"DESCRIPTIO":"Metro Station Entrance","CAPTUREYEA":"2016-01-08T00:00:00.000Z","LINE":"red","ADDRESS_ID":294824},"geometry":{"type":"Point","coordinates":[-77.06352577346529,38.94455552651728]}},{"type":"Feature","properties":{"OBJECTID":64,"GIS_ID":"mstn_038","NAME":"Van Ness | UDC","WEB_URL":"http://www.wmata.com/rail/station_detail.cfm?station_id=9","EXIT_TO_ST":"NE CORNER OF CONNECTICUT AVENUE AND VEAZEY TERRACE NW","FEATURECOD":1370,"DESCRIPTIO":"Metro Station Entrance","CAPTUREYEA":"2016-01-08T00:00:00.000Z","LINE":"red","ADDRESS_ID":294824},"geometry":{"type":"Point","coordinates":[-77.06399596600627,38.94447617727842]}},{"type":"Feature","properties":{"OBJECTID":65,"GIS_ID":"mstn_020","NAME":"Georgia Ave | Petworth","WEB_URL":"http://www.wmata.com/rail/station_detail.cfm?station_id=76","EXIT_TO_ST":"WEST SIDE OF GEORGIA AVENUE NW BETWEEN QUINCY STREET NW AND NEW HAMPSHIRE AVENUE NW","FEATURECOD":1370,"DESCRIPTIO":"Metro Station Entrance","CAPTUREYEA":"2016-01-08T00:00:00.000Z","LINE":"green,yellow","ADDRESS_ID":294832},"geometry":{"type":"Point","coordinates":[-77.02471477373291,38.9371287944505]}},{"type":"Feature","properties":{"OBJECTID":66,"GIS_ID":"mstn_020","NAME":"Georgia Ave | Petworth","WEB_URL":"http://www.wmata.com/rail/station_detail.cfm?station_id=76","EXIT_TO_ST":"NE CORNER OF GEORGIA AVENUE NW AND NEW HAMPSHIRE AVE NW","FEATURECOD":1370,"DESCRIPTIO":"Metro Station Entrance","CAPTUREYEA":"2016-01-08T00:00:00.000Z","LINE":"green,yellow","ADDRESS_ID":294832},"geometry":{"type":"Point","coordinates":[-77.0241608067839,38.93695142877452]}},{"type":"Feature","properties":{"OBJECTID":67,"GIS_ID":"mstn_007","NAME":"Columbia Heights","WEB_URL":"http://www.wmata.com/rail/station_detail.cfm?station_id=75","EXIT_TO_ST":"SW CORNER OF IRVING STREET NW AND 14TH STREET NW","FEATURECOD":1370,"DESCRIPTIO":"Metro Station Entrance","CAPTUREYEA":"2016-01-08T00:00:00.000Z","LINE":"green,yellow","ADDRESS_ID":294815},"geometry":{"type":"Point","coordinates":[-77.03303204043281,38.92861891687905]}},{"type":"Feature","properties":{"OBJECTID":68,"GIS_ID":"mstn_010","NAME":"Dupont Circle","WEB_URL":"http://www.wmata.com/rail/station_detail.cfm?station_id=6","EXIT_TO_ST":"SE CORNER OF 19TH STREET NW AND DUPONT CIRCLE NW","FEATURECOD":1370,"DESCRIPTIO":"Metro Station Entrance","CAPTUREYEA":"2016-01-08T00:00:00.000Z","LINE":"red","ADDRESS_ID":294836},"geometry":{"type":"Point","coordinates":[-77.0433192930102,38.90868288612852]}},{"type":"Feature","properties":{"OBJECTID":69,"GIS_ID":"mstn_018","NAME":"Friendship Heights","WEB_URL":"http://www.wmata.com/rail/station_detail.cfm?station_id=11","EXIT_TO_ST":"SW CORNER OF WISCONSIN AVENUE NW AND WESTERN AVENUE NW","FEATURECOD":1370,"DESCRIPTIO":"Metro Station Entrance","CAPTUREYEA":"2016-01-08T00:00:00.000Z","LINE":"red","ADDRESS_ID":294847},"geometry":{"type":"Point","coordinates":[-77.08576532932788,38.960453083843184]}},{"type":"Feature","properties":{"OBJECTID":70,"GIS_ID":"mstn_003","NAME":"Brookland | CUA","WEB_URL":"http://www.wmata.com/rail/station_detail.cfm?station_id=27","EXIT_TO_ST":"NE CORNER OF JOHN MCCORMICK ROAD NE AND MICHIGAN AVENUE NE","FEATURECOD":1370,"DESCRIPTIO":"Metro Station Entrance","CAPTUREYEA":"2016-01-08T00:00:00.000Z","LINE":"red","ADDRESS_ID":294853},"geometry":{"type":"Point","coordinates":[-76.9950446605249,38.93383431859873]}},{"type":"Feature","properties":{"OBJECTID":71,"GIS_ID":"mstn_009","NAME":"Deanwood","WEB_URL":"http://www.wmata.com/rail/station_detail.cfm?station_id=65","EXIT_TO_ST":"SOUTH SIDE OF POLK STREET NE AT OLIVE STREET NE","FEATURECOD":1370,"DESCRIPTIO":"Metro Station Entrance","CAPTUREYEA":"2016-01-08T00:00:00.000Z","LINE":"orange","ADDRESS_ID":294858},"geometry":{"type":"Point","coordinates":[-76.93472261926458,38.908267505942156]}},{"type":"Feature","properties":{"OBJECTID":72,"GIS_ID":"mstn_009","NAME":"Deanwood","WEB_URL":"http://www.wmata.com/rail/station_detail.cfm?station_id=65","EXIT_TO_ST":"NORTH SIDE OF MINNESOTA AVENUE NE AT 48TH STREET NE","FEATURECOD":1370,"DESCRIPTIO":"Metro Station Entrance","CAPTUREYEA":"2016-01-08T00:00:00.000Z","LINE":"orange","ADDRESS_ID":294858},"geometry":{"type":"Point","coordinates":[-76.93517247722126,38.90856083402742]}},{"type":"Feature","properties":{"OBJECTID":73,"GIS_ID":"mstn_032","NAME":"Shaw | Howard Univ","WEB_URL":"http://www.wmata.com/rail/station_detail.cfm?station_id=72","EXIT_TO_ST":"NE CORNER OF R STREET NW AND 8TH STREET NW","FEATURECOD":1370,"DESCRIPTIO":"Metro Station Entrance","CAPTUREYEA":"2016-01-08T00:00:00.000Z","LINE":"green,yellow","ADDRESS_ID":294838},"geometry":{"type":"Point","coordinates":[-77.02259808533381,38.912781330065634]}},{"type":"Feature","properties":{"OBJECTID":74,"GIS_ID":"mstn_029","NAME":"NoMa-Gallaudet U","WEB_URL":"http://www.wmata.com/rail/station_detail.cfm?station_id=108","EXIT_TO_ST":"EAST SIDE OF 2ND STREET NE AT INTERSECTION WITH N STREET NE ","FEATURECOD":1370,"DESCRIPTIO":"Metro Station Entrance","CAPTUREYEA":"2016-01-08T00:00:00.000Z","LINE":"red","ADDRESS_ID":294857},"geometry":{"type":"Point","coordinates":[-77.00343046951988,38.90728696624336]}},{"type":"Feature","properties":{"OBJECTID":75,"GIS_ID":"mstn_035","NAME":"Takoma","WEB_URL":"http://www.wmata.com/rail/station_detail.cfm?station_id=29","EXIT_TO_ST":"NE SIDE OF CEDAR STREET NW AND BLAIR ROAD NW","FEATURECOD":1370,"DESCRIPTIO":"Metro Station Entrance","CAPTUREYEA":"2016-01-08T00:00:00.000Z","LINE":"red","ADDRESS_ID":294822},"geometry":{"type":"Point","coordinates":[-77.01741556732136,38.97510394849189]}},{"type":"Feature","properties":{"OBJECTID":76,"GIS_ID":"mstn_017","NAME":"Fort Totten","WEB_URL":"http://www.wmata.com/rail/station_detail.cfm?station_id=28","EXIT_TO_ST":"NORTH SIDE OF GALLOWAY STREET NE","FEATURECOD":1370,"DESCRIPTIO":"Metro Station Entrance","CAPTUREYEA":"2016-01-08T00:00:00.000Z","LINE":"red, green, yellow","ADDRESS_ID":294852},"geometry":{"type":"Point","coordinates":[-77.00249101483854,38.952653872494786]}},{"type":"Feature","properties":{"OBJECTID":77,"GIS_ID":"mstn_036","NAME":"Tenleytown | AU","WEB_URL":"http://www.wmata.com/rail/station_detail.cfm?station_id=10","EXIT_TO_ST":"NE CORNER OF ABLEMARLE STREET NW AND WISCONSIN AVENUE NW","FEATURECOD":1370,"DESCRIPTIO":"Metro Station Entrance","CAPTUREYEA":"2016-01-08T00:00:00.000Z","LINE":"red","ADDRESS_ID":294846},"geometry":{"type":"Point","coordinates":[-77.07946249333997,38.94807936969848]}},{"type":"Feature","properties":{"OBJECTID":78,"GIS_ID":"mstn_006","NAME":"Cleveland Park ","WEB_URL":"http://www.wmata.com/rail/station_detail.cfm?station_id=8","EXIT_TO_ST":"EAST SIDE OF CONNECTICUT AVENUE NW BETWEEN PORTER STREET NW AND ORDWAY STREET NW","FEATURECOD":1370,"DESCRIPTIO":"Metro Station Entrance","CAPTUREYEA":"2016-01-08T00:00:00.000Z","LINE":"red","ADDRESS_ID":294817},"geometry":{"type":"Point","coordinates":[-77.05853742560036,38.93598468446747]}},{"type":"Feature","properties":{"OBJECTID":79,"GIS_ID":"mstn_003","NAME":"Brookland | CUA","WEB_URL":"http://www.wmata.com/rail/station_detail.cfm?station_id=27","EXIT_TO_ST":"SW CORNER OF MICHIGAN AVENUE NE AND 9TH STREET NE","FEATURECOD":1370,"DESCRIPTIO":"Metro Station Entrance","CAPTUREYEA":"2016-01-08T00:00:00.000Z","LINE":"red","ADDRESS_ID":294853},"geometry":{"type":"Point","coordinates":[-76.99436828480718,38.933630339967614]}},{"type":"Feature","properties":{"OBJECTID":80,"GIS_ID":"mstn_040","NAME":"Woodley Park Zoo | Adams Morgan","WEB_URL":"http://www.wmata.com/rail/station_detail.cfm?station_id=7","EXIT_TO_ST":"SE CORNER OF CONNECTICUT AVENUE NW AND 24TH STREET NW","FEATURECOD":1370,"DESCRIPTIO":"Metro Station Entrance","CAPTUREYEA":"2016-01-08T00:00:00.000Z","LINE":"red","ADDRESS_ID":294827},"geometry":{"type":"Point","coordinates":[-77.05238323295886,38.924510042687224]}},{"type":"Feature","properties":{"OBJECTID":81,"GIS_ID":"mstn_031","NAME":"Rhode Island Ave","WEB_URL":"http://www.wmata.com/rail/station_detail.cfm?station_id=26","EXIT_TO_ST":"SOUTH SIDE OF RHODE ISLAND AVENUE NE AT RHODE ISLAND PLACE SHOPPING CENTER","FEATURECOD":1370,"DESCRIPTIO":"Metro Station Entrance","CAPTUREYEA":"2016-01-08T00:00:00.000Z","LINE":"red","ADDRESS_ID":294859},"geometry":{"type":"Point","coordinates":[-76.99607468280838,38.920478494095256]}},{"type":"Feature","properties":{"OBJECTID":82,"GIS_ID":"mstn_005","NAME":"U St | African Amer Civil | War Mem | Cardozo","WEB_URL":"http://www.wmata.com/rail/station_detail.cfm?station_id=73","EXIT_TO_ST":"SW CORNER OF U STREET NW AND VERMONT AVENUE NW","FEATURECOD":1370,"DESCRIPTIO":"Metro Station Entrance","CAPTUREYEA":"2016-01-08T00:00:00.000Z","LINE":"green,yellow","ADDRESS_ID":294840},"geometry":{"type":"Point","coordinates":[-77.02596435330453,38.916794069590004]}},{"type":"Feature","properties":{"OBJECTID":83,"GIS_ID":"mstn_032","NAME":"Shaw | Howard Univ","WEB_URL":"http://www.wmata.com/rail/station_detail.cfm?station_id=72","EXIT_TO_ST":"NE CORNER OF S STREET NW AND 7TH STREET NW","FEATURECOD":1370,"DESCRIPTIO":"Metro Station Entrance","CAPTUREYEA":"2016-01-08T00:00:00.000Z","LINE":"green,yellow","ADDRESS_ID":294838},"geometry":{"type":"Point","coordinates":[-77.02168415621341,38.914505924418215]}},{"type":"Feature","properties":{"OBJECTID":84,"GIS_ID":"mstn_010","NAME":"Dupont Circle","WEB_URL":"http://www.wmata.com/rail/station_detail.cfm?station_id=6","EXIT_TO_ST":"SE CORNER OF 20TH STREET NW AND Q STREET NW","FEATURECOD":1370,"DESCRIPTIO":"Metro Station Entrance","CAPTUREYEA":"2016-01-08T00:00:00.000Z","LINE":"red","ADDRESS_ID":294836},"geometry":{"type":"Point","coordinates":[-77.04461769637491,38.91094578030688]}},{"type":"Feature","properties":{"OBJECTID":85,"GIS_ID":"mstn_012","NAME":"Farragut North","WEB_URL":"http://www.wmata.com/rail/station_detail.cfm?station_id=4","EXIT_TO_ST":"NE CORNER OF L STREET NW AND CONNECTICUT AVENUE NW","FEATURECOD":1370,"DESCRIPTIO":"Metro Station Entrance","CAPTUREYEA":"2016-01-08T00:00:00.000Z","LINE":"red","ADDRESS_ID":294828},"geometry":{"type":"Point","coordinates":[-77.03983384643442,38.90393045573093]}},{"type":"Feature","properties":{"OBJECTID":86,"GIS_ID":"mstn_026","NAME":"Mt Vernon Sq | 7th St | Convention Cen","WEB_URL":"http://www.wmata.com/rail/station_detail.cfm?station_id=70","EXIT_TO_ST":"SW CORNER OF 7TH STREET NW AND M STREET NW","FEATURECOD":1370,"DESCRIPTIO":"Metro Station Entrance","CAPTUREYEA":"2016-01-08T00:00:00.000Z","LINE":"green, yellow","ADDRESS_ID":294834},"geometry":{"type":"Point","coordinates":[-77.02214996332985,38.905436073822734]}},{"type":"Feature","properties":{"OBJECTID":87,"GIS_ID":"mstn_023","NAME":"McPherson Sq","WEB_URL":"http://www.wmata.com/rail/station_detail.cfm?station_id=36","EXIT_TO_ST":"SW CORNER OF 14TH STREET NW AND I STREET NW","FEATURECOD":1370,"DESCRIPTIO":"Metro Station Entrance","CAPTUREYEA":"2016-01-08T00:00:00.000Z","LINE":"blue, orange","ADDRESS_ID":294841},"geometry":{"type":"Point","coordinates":[-77.03213428065943,38.9008825976873]}},{"type":"Feature","properties":{"OBJECTID":88,"GIS_ID":"mstn_013","NAME":"Farragut West","WEB_URL":"http://www.wmata.com/rail/station_detail.cfm?station_id=38","EXIT_TO_ST":"NW CORNER OF 18TH STREET NW AND I STREET NW","FEATURECOD":1370,"DESCRIPTIO":"Metro Station Entrance","CAPTUREYEA":"2016-01-08T00:00:00.000Z","LINE":"blue, orange","ADDRESS_ID":294819},"geometry":{"type":"Point","coordinates":[-77.04194688589004,38.90148103754586]}},{"type":"Feature","properties":{"OBJECTID":89,"GIS_ID":"mstn_069","NAME":"NEW CARROLLTON","WEB_URL":"http://www.wmata.com/rail/station_detail.cfm?station_id=68","EXIT_TO_ST":"WEST SIDE OF GARDEN CITY DR ","FEATURECOD":null,"DESCRIPTIO":"Metro Station Entrance","CAPTUREYEA":"2016-01-08T00:00:00.000Z","LINE":"orange","ADDRESS_ID":null},"geometry":{"type":"Point","coordinates":[-76.87240224717654,38.94840780001702]}},{"type":"Feature","properties":{"OBJECTID":90,"GIS_ID":"mstn_076","NAME":"SILVER SPRING","WEB_URL":"http://www.wmata.com/rail/station_detail.cfm?station_id=31","EXIT_TO_ST":"NE CORNER OF EAST-WEST HWY AND COLESVILE RD","FEATURECOD":null,"DESCRIPTIO":"Metro Station Entrance","CAPTUREYEA":"2016-01-08T00:00:00.000Z","LINE":"red","ADDRESS_ID":null},"geometry":{"type":"Point","coordinates":[-77.03150229621006,38.99420780368062]}},{"type":"Feature","properties":{"OBJECTID":91,"GIS_ID":"mstn_085","NAME":"W FALLS CHURCH","WEB_URL":"http://www.wmata.com/rail/station_detail.cfm?station_id=101","EXIT_TO_ST":"WEST SIDE OF DULLES TOO RD BETWEEN I - 66 W AND I -66 E ","FEATURECOD":null,"DESCRIPTIO":"Metro Station Entrance","CAPTUREYEA":"2016-01-08T00:00:00.000Z","LINE":"orange","ADDRESS_ID":null},"geometry":{"type":"Point","coordinates":[-77.18890234385836,38.90070777949653]}},{"type":"Feature","properties":{"OBJECTID":92,"GIS_ID":"mstn_075","NAME":"SHADY GROVE","WEB_URL":"http://www.wmata.com/rail/station_detail.cfm?station_id=18","EXIT_TO_ST":"NE CORNER OF REDLAND RD AND SOMERVILLE DR ","FEATURECOD":null,"DESCRIPTIO":"Metro Station Entrance","CAPTUREYEA":"2016-01-08T00:00:00.000Z","LINE":"red","ADDRESS_ID":null},"geometry":{"type":"Point","coordinates":[-77.16430235041001,39.12030782394348]}},{"type":"Feature","properties":{"OBJECTID":93,"GIS_ID":"mstn_075","NAME":"SHADY GROVE","WEB_URL":"http://www.wmata.com/rail/station_detail.cfm?station_id=18","EXIT_TO_ST":"NE CORNER OF REDLAND RD AND SOMERVILLE DR ","FEATURECOD":null,"DESCRIPTIO":"Metro Station Entrance","CAPTUREYEA":"2016-01-08T00:00:00.000Z","LINE":"red","ADDRESS_ID":null},"geometry":{"type":"Point","coordinates":[-77.16500234737455,39.119907824705926]}},{"type":"Feature","properties":{"OBJECTID":94,"GIS_ID":"mstn_077","NAME":"SOUTHERN AVE","WEB_URL":"http://www.wmata.com/rail/station_detail.cfm?station_id=107","EXIT_TO_ST":"SW CORNER OF SOUTHERN AVE SE AND VALLEY TERRACE SE","FEATURECOD":null,"DESCRIPTIO":"Metro Station Entrance","CAPTUREYEA":"2016-01-08T00:00:00.000Z","LINE":"green","ADDRESS_ID":null},"geometry":{"type":"Point","coordinates":[-76.97580227234674,38.84040777523507]}},{"type":"Feature","properties":{"OBJECTID":95,"GIS_ID":"mstn_078","NAME":"SPRING HILL","WEB_URL":"http://www.wmata.com/rail/station_detail.cfm?station_id=114","EXIT_TO_ST":"NORTH SIDE OF SPRING HILL RD ","FEATURECOD":null,"DESCRIPTIO":"Metro Station Entrance","CAPTUREYEA":"2016-01-08T00:00:00.000Z","LINE":"silver","ADDRESS_ID":null},"geometry":{"type":"Point","coordinates":[-77.24080236092566,38.92930778340226]}},{"type":"Feature","properties":{"OBJECTID":96,"GIS_ID":"mstn_058","NAME":"GREENBELT","WEB_URL":"http://www.wmata.com/rail/station_detail.cfm?station_id=80","EXIT_TO_ST":"NE CORNER OF 53RD AVE AND LACKAWANNA ST","FEATURECOD":null,"DESCRIPTIO":"Metro Station Entrance","CAPTUREYEA":"2016-01-08T00:00:00.000Z","LINE":"green","ADDRESS_ID":null},"geometry":{"type":"Point","coordinates":[-76.9120022634744,39.010807813082465]}},{"type":"Feature","properties":{"OBJECTID":97,"GIS_ID":"mstn_079","NAME":"SUITLAND","WEB_URL":"http://www.wmata.com/rail/station_detail.cfm?station_id=88","EXIT_TO_ST":"NORTH SIDE OF SILVER HILL RD","FEATURECOD":null,"DESCRIPTIO":"Metro Station Entrance","CAPTUREYEA":"2016-01-08T00:00:00.000Z","LINE":"green","ADDRESS_ID":null},"geometry":{"type":"Point","coordinates":[-76.93210225717016,38.84440777814389]}},{"type":"Feature","properties":{"OBJECTID":98,"GIS_ID":"mstn_049","NAME":"COURT HOUSE","WEB_URL":"http://www.wmata.com/rail/station_detail.cfm?station_id=96","EXIT_TO_ST":"SW OF N UHLE ST AND CLARENDON BLVD","FEATURECOD":null,"DESCRIPTIO":"Metro Station Entrance","CAPTUREYEA":"2016-01-08T00:00:00.000Z","LINE":"orange, silver","ADDRESS_ID":null},"geometry":{"type":"Point","coordinates":[-77.08500231031421,38.891307782613296]}},{"type":"Feature","properties":{"OBJECTID":99,"GIS_ID":"mstn_049","NAME":"COURT HOUSE","WEB_URL":"http://www.wmata.com/rail/station_detail.cfm?station_id=96","EXIT_TO_ST":"NORTHEN SIDE OF ARLINGTON COUNTY DMV SELECT BUILDING ","FEATURECOD":null,"DESCRIPTIO":"Metro Station Entrance","CAPTUREYEA":"2016-01-08T00:00:00.000Z","LINE":"orange, silver","ADDRESS_ID":null},"geometry":{"type":"Point","coordinates":[-77.08530230835404,38.8903077802378]}},{"type":"Feature","properties":{"OBJECTID":100,"GIS_ID":"mstn_081","NAME":"TYSONS CORNER","WEB_URL":"http://www.wmata.com/rail/station_detail.cfm?station_id=112","EXIT_TO_ST":"NE CORNER OF TYSONS BLVD AND CHAIN BRIDGE RD ","FEATURECOD":null,"DESCRIPTIO":"Metro Station Entrance","CAPTUREYEA":"2016-01-08T00:00:00.000Z","LINE":"silver","ADDRESS_ID":null},"geometry":{"type":"Point","coordinates":[-77.22240235612382,38.91980778110742]}},{"type":"Feature","properties":{"OBJECTID":101,"GIS_ID":"mstn_059","NAME":"GREENSBORO","WEB_URL":"http://www.wmata.com/rail/station_detail.cfm?station_id=113","EXIT_TO_ST":"EAST SIDE OF VA-7 W AND LEESBURG PIKE","FEATURECOD":null,"DESCRIPTIO":"Metro Station Entrance","CAPTUREYEA":"2016-01-08T00:00:00.000Z","LINE":"silver","ADDRESS_ID":null},"geometry":{"type":"Point","coordinates":[-77.23300235981017,38.92120778272522]}},{"type":"Feature","properties":{"OBJECTID":102,"GIS_ID":"mstn_074","NAME":"ROSSLYN","WEB_URL":"http://www.wmata.com/rail/station_detail.cfm?station_id=41","EXIT_TO_ST":"NORTH SIDE OF WILSON BLVD BETWEEN FORT MYER DR AND N MOORE ST ","FEATURECOD":null,"DESCRIPTIO":"Metro Station Entrance","CAPTUREYEA":"2016-01-08T00:00:00.000Z","LINE":"orange, silver, blue","ADDRESS_ID":null},"geometry":{"type":"Point","coordinates":[-77.07220230612465,38.895907783829024]}},{"type":"Feature","properties":{"OBJECTID":103,"GIS_ID":"mstn_070","NAME":"PENTAGON","WEB_URL":"http://www.wmata.com/rail/station_detail.cfm?station_id=43","EXIT_TO_ST":"NW CORNER OF N ROTARY RD AND S EADS ST","FEATURECOD":null,"DESCRIPTIO":"Metro Station Entrance","CAPTUREYEA":"2016-01-08T00:00:00.000Z","LINE":"blue, yellow","ADDRESS_ID":null},"geometry":{"type":"Point","coordinates":[-77.05350229535114,38.86990777833594]}},{"type":"Feature","properties":{"OBJECTID":104,"GIS_ID":"mstn_051","NAME":"DUNN LORING","WEB_URL":"http://www.wmata.com/rail/station_detail.cfm?station_id=102","EXIT_TO_ST":"BY GALLOWS ROAD AND I 66 HWY ","FEATURECOD":null,"DESCRIPTIO":"Metro Station Entrance","CAPTUREYEA":"2016-01-08T00:00:00.000Z","LINE":"orange","ADDRESS_ID":null},"geometry":{"type":"Point","coordinates":[-77.22840235310069,38.882807776685574]}},{"type":"Feature","properties":{"OBJECTID":105,"GIS_ID":"mstn_065","NAME":"MCLEAN","WEB_URL":"http://www.wmata.com/rail/station_detail.cfm?station_id=111","EXIT_TO_ST":"NE CORNER OF COLSHIRE MEADOW DR AND COLSHIRE DR","FEATURECOD":null,"DESCRIPTIO":"Metro Station Entrance","CAPTUREYEA":"2016-01-08T00:00:00.000Z","LINE":"silver","ADDRESS_ID":null},"geometry":{"type":"Point","coordinates":[-77.20830235189116,38.92460778570907]}},{"type":"Feature","properties":{"OBJECTID":106,"GIS_ID":"mstn_042","NAME":"BRADDOCK ROAD","WEB_URL":"http://www.wmata.com/rail/station_detail.cfm?station_id=47","EXIT_TO_ST":"NW CORNER OF MT VERNON AVE AND E BRADDOCK RD ","FEATURECOD":null,"DESCRIPTIO":"Metro Station Entrance","CAPTUREYEA":"2016-01-08T00:00:00.000Z","LINE":"blue, yellow","ADDRESS_ID":null},"geometry":{"type":"Point","coordinates":[-77.05380229662934,38.813707769708266]}},{"type":"Feature","properties":{"OBJECTID":107,"GIS_ID":"mstn_061","NAME":"HUNTINGTON","WEB_URL":"http://www.wmata.com/rail/station_detail.cfm?station_id=50","EXIT_TO_ST":"THE CLOSEST EXIT TO N KINGS HWY","FEATURECOD":null,"DESCRIPTIO":"Metro Station Entrance","CAPTUREYEA":"2016-01-08T00:00:00.000Z","LINE":"yellow","ADDRESS_ID":null},"geometry":{"type":"Point","coordinates":[-77.07550229699623,38.79270776273918]}},{"type":"Feature","properties":{"OBJECTID":108,"GIS_ID":"mstn_048","NAME":"COLLEGE PARK","WEB_URL":"http://www.wmata.com/rail/station_detail.cfm?station_id=79","EXIT_TO_ST":"NORTH SIDE OF CALVERT RD BETWEEN COLUMBIA AVE AND PAINT BRANCH PKY","FEATURECOD":null,"DESCRIPTIO":"Metro Station Entrance","CAPTUREYEA":"2016-01-08T00:00:00.000Z","LINE":"green","ADDRESS_ID":null},"geometry":{"type":"Point","coordinates":[-76.92890226941185,38.978307807297746]}},{"type":"Feature","properties":{"OBJECTID":109,"GIS_ID":"mstn_082","NAME":"VAN DORN ST","WEB_URL":"http://www.wmata.com/rail/station_detail.cfm?station_id=94","EXIT_TO_ST":"SW CORNER OF METRO RD AND EISENHOWER AVE ","FEATURECOD":null,"DESCRIPTIO":"Metro Station Entrance","CAPTUREYEA":"2016-01-08T00:00:00.000Z","LINE":"blue","ADDRESS_ID":null},"geometry":{"type":"Point","coordinates":[-77.12940231762117,38.799407763742025]}},{"type":"Feature","properties":{"OBJECTID":110,"GIS_ID":"mstn_055","NAME":"FRANCONIA-SPRINGF'LD","WEB_URL":"http://www.wmata.com/rail/station_detail.cfm?station_id=95","EXIT_TO_ST":"SOUTH SIDE OF FRANCONIA-SPRINGFIELD PKWY","FEATURECOD":null,"DESCRIPTIO":"Metro Station Entrance","CAPTUREYEA":"2016-01-08T00:00:00.000Z","LINE":"blue","ADDRESS_ID":null},"geometry":{"type":"Point","coordinates":[-77.16950232862216,38.767207754769515]}},{"type":"Feature","properties":{"OBJECTID":111,"GIS_ID":"mstn_047","NAME":"CLARENDON","WEB_URL":"http://www.wmata.com/rail/station_detail.cfm?station_id=97","EXIT_TO_ST":"WEST SIDE OF N HIGHLAND ST BETWEEN WILSON BLVD AND CLARENDON BLVD","FEATURECOD":null,"DESCRIPTIO":"Metro Station Entrance","CAPTUREYEA":"2016-01-08T00:00:00.000Z","LINE":"orange, silver","ADDRESS_ID":null},"geometry":{"type":"Point","coordinates":[-77.09520231487647,38.887107781005206]}},{"type":"Feature","properties":{"OBJECTID":112,"GIS_ID":"mstn_052","NAME":"E FALLS CHURCH","WEB_URL":"http://www.wmata.com/rail/station_detail.cfm?station_id=100","EXIT_TO_ST":"BY N SYCAMORE ST AND I 66 HWY","FEATURECOD":null,"DESCRIPTIO":"Metro Station Entrance","CAPTUREYEA":"2016-01-08T00:00:00.000Z","LINE":"orange, silver","ADDRESS_ID":null},"geometry":{"type":"Point","coordinates":[-77.1566023297945,38.88590777661296]}},{"type":"Feature","properties":{"OBJECTID":113,"GIS_ID":"mstn_083","NAME":"VIENNA","WEB_URL":"http://www.wmata.com/rail/station_detail.cfm?station_id=103","EXIT_TO_ST":"WEST SIDE OF VADEN DR BETWEEN I - 66 W AND I - 66 E","FEATURECOD":null,"DESCRIPTIO":"Metro Station Entrance","CAPTUREYEA":"2016-01-08T00:00:00.000Z","LINE":"orange","ADDRESS_ID":null},"geometry":{"type":"Point","coordinates":[-77.27140236360569,38.877607771675116]}},{"type":"Feature","properties":{"OBJECTID":114,"GIS_ID":"mstn_066","NAME":"MEDICAL CENTER","WEB_URL":"http://www.wmata.com/rail/station_detail.cfm?station_id=13","EXIT_TO_ST":"SW SIDE OF SOUTH DR AND ROCKVILLE PIKE ","FEATURECOD":null,"DESCRIPTIO":"Metro Station Entrance","CAPTUREYEA":"2016-01-08T00:00:00.000Z","LINE":"red","ADDRESS_ID":null},"geometry":{"type":"Point","coordinates":[-77.09780232178737,38.99910780331108]}},{"type":"Feature","properties":{"OBJECTID":115,"GIS_ID":"mstn_046","NAME":"BALLSTON","WEB_URL":"http://www.wmata.com/rail/station_detail.cfm?station_id=99","EXIT_TO_ST":"NW CORNER OF N FAIRFAX DR AND N STUART ST ","FEATURECOD":null,"DESCRIPTIO":"Metro Station Entrance","CAPTUREYEA":"2016-01-08T00:00:00.000Z","LINE":"orange, silver","ADDRESS_ID":null},"geometry":{"type":"Point","coordinates":[-77.11210231525601,38.882407778025794]}},{"type":"Feature","properties":{"OBJECTID":116,"GIS_ID":"mstn_069","NAME":"NEW CARROLLTON","WEB_URL":"http://www.wmata.com/rail/station_detail.cfm?station_id=68","EXIT_TO_ST":"WEST SIDE OF GARDEN CITY DR ","FEATURECOD":null,"DESCRIPTIO":"Metro Station Entrance","CAPTUREYEA":"2016-01-08T00:00:00.000Z","LINE":"orange","ADDRESS_ID":null},"geometry":{"type":"Point","coordinates":[-76.87180224437796,38.94790780292081]}},{"type":"Feature","properties":{"OBJECTID":117,"GIS_ID":"mstn_056","NAME":"FRIENDSHIP HEIGHTS","WEB_URL":"http://www.wmata.com/rail/station_detail.cfm?station_id=11","EXIT_TO_ST":"NE SIDE OF WESTERN AVE AND MD-355 S","FEATURECOD":null,"DESCRIPTIO":"Metro Station Entrance","CAPTUREYEA":"2016-01-08T00:00:00.000Z","LINE":"red","ADDRESS_ID":null},"geometry":{"type":"Point","coordinates":[-77.08610231096397,38.9609077972846]}},{"type":"Feature","properties":{"OBJECTID":118,"GIS_ID":"mstn_089","NAME":"WIEHLE-RESTON EAST","WEB_URL":"http://www.wmata.com/rail/station_detail.cfm?station_id=115","EXIT_TO_ST":"EAST SIDE OF WIEHIE AVE ","FEATURECOD":null,"DESCRIPTIO":"Metro Station Entrance","CAPTUREYEA":"2016-01-08T00:00:00.000Z","LINE":"silver","ADDRESS_ID":null},"geometry":{"type":"Point","coordinates":[-77.3399023937718,38.946907783026234]}},{"type":"Feature","properties":{"OBJECTID":119,"GIS_ID":"mstn_072","NAME":"PRINCE GEORGES PLAZA","WEB_URL":"http://www.wmata.com/rail/station_detail.cfm?station_id=78","EXIT_TO_ST":"SW CORNER OF EAST-WEST HWY AND BELCREST CENTER DR ","FEATURECOD":null,"DESCRIPTIO":"Metro Station Entrance","CAPTUREYEA":"2016-01-08T00:00:00.000Z","LINE":"green","ADDRESS_ID":null},"geometry":{"type":"Point","coordinates":[-76.9556022743016,38.964807802185945]}},{"type":"Feature","properties":{"OBJECTID":120,"GIS_ID":"mstn_068","NAME":"NAYLOR ROAD","WEB_URL":"http://www.wmata.com/rail/station_detail.cfm?station_id=87","EXIT_TO_ST":"NORTH SIDE OF NAYLOR RD BETWEEN SUITLAND PKY AND BRANCH AVE MD-5 N ","FEATURECOD":null,"DESCRIPTIO":"Metro Station Entrance","CAPTUREYEA":"2016-01-08T00:00:00.000Z","LINE":"green","ADDRESS_ID":null},"geometry":{"type":"Point","coordinates":[-76.9568022662273,38.85100777881293]}},{"type":"Feature","properties":{"OBJECTID":121,"GIS_ID":"mstn_084","NAME":"VIRGINIA SQUARE","WEB_URL":"http://www.wmata.com/rail/station_detail.cfm?station_id=98","EXIT_TO_ST":"SOUTH SIDE OF N FAIRFAX DR BETWEEN N NELSON ST AND N MONROE ST ","FEATURECOD":null,"DESCRIPTIO":"Metro Station Entrance","CAPTUREYEA":"2016-01-08T00:00:00.000Z","LINE":"orange, silver","ADDRESS_ID":null},"geometry":{"type":"Point","coordinates":[-77.10340231397403,38.88310777929467]}},{"type":"Feature","properties":{"OBJECTID":122,"GIS_ID":"mstn_074","NAME":"ROSSLYN","WEB_URL":"http://www.wmata.com/rail/station_detail.cfm?station_id=41","EXIT_TO_ST":"NORTH SIDE OF WILSON BLVD BETWEEN N MOORE ST AND N LYNN ST ","FEATURECOD":null,"DESCRIPTIO":"Metro Station Entrance","CAPTUREYEA":"2016-01-08T00:00:00.000Z","LINE":"orange, silver, blue","ADDRESS_ID":null},"geometry":{"type":"Point","coordinates":[-77.0714023071667,38.89610778336277]}},{"type":"Feature","properties":{"OBJECTID":123,"GIS_ID":"mstn_045","NAME":"ARLINGTON CEMETERY","WEB_URL":"http://www.wmata.com/rail/station_detail.cfm?station_id=42","EXIT_TO_ST":"NW CORNER OF MEMORIAL AVE AND JEFFERSON DAVIS HWY","FEATURECOD":null,"DESCRIPTIO":"Metro Station Entrance","CAPTUREYEA":"2016-01-08T00:00:00.000Z","LINE":"blue","ADDRESS_ID":null},"geometry":{"type":"Point","coordinates":[-77.06370230035836,38.88460778036054]}},{"type":"Feature","properties":{"OBJECTID":124,"GIS_ID":"mstn_071","NAME":"PENTAGON CITY","WEB_URL":"http://www.wmata.com/rail/station_detail.cfm?station_id=44","EXIT_TO_ST":"NE CORNER OF S HAYES ST AND 12TH ST S ","FEATURECOD":null,"DESCRIPTIO":"Metro Station Entrance","CAPTUREYEA":"2016-01-08T00:00:00.000Z","LINE":"blue, yellow","ADDRESS_ID":null},"geometry":{"type":"Point","coordinates":[-77.05900230025306,38.862907777820666]}},{"type":"Feature","properties":{"OBJECTID":125,"GIS_ID":"mstn_049","NAME":"COURT HOUSE","WEB_URL":"http://www.wmata.com/rail/station_detail.cfm?station_id=96","EXIT_TO_ST":"SE CORNER OF CLARENDON BLVD AND 15TH ST N","FEATURECOD":null,"DESCRIPTIO":"Metro Station Entrance","CAPTUREYEA":"2016-01-08T00:00:00.000Z","LINE":"orange, silver","ADDRESS_ID":null},"geometry":{"type":"Point","coordinates":[-77.0861023072338,38.89050778397724]}},{"type":"Feature","properties":{"OBJECTID":126,"GIS_ID":"mstn_047","NAME":"CLARENDON","WEB_URL":"http://www.wmata.com/rail/station_detail.cfm?station_id=97","EXIT_TO_ST":"WEST SIDE OF N HIGHLAND ST BETWEEN WILSON BLVD AND CLARENDON BLVD","FEATURECOD":null,"DESCRIPTIO":"Metro Station Entrance","CAPTUREYEA":"2016-01-08T00:00:00.000Z","LINE":"orange, silver","ADDRESS_ID":null},"geometry":{"type":"Point","coordinates":[-77.09570231586407,38.88670778177604]}},{"type":"Feature","properties":{"OBJECTID":127,"GIS_ID":"mstn_063","NAME":"LANDOVER","WEB_URL":"http://www.wmata.com/rail/station_detail.cfm?station_id=67","EXIT_TO_ST":"EAST SIDE OF US-50 E","FEATURECOD":null,"DESCRIPTIO":"Metro Station Entrance","CAPTUREYEA":"2016-01-08T00:00:00.000Z","LINE":"orange","ADDRESS_ID":null},"geometry":{"type":"Point","coordinates":[-76.89120225055774,38.933407799412144]}},{"type":"Feature","properties":{"OBJECTID":128,"GIS_ID":"mstn_057","NAME":"GLENMONT","WEB_URL":"http://www.wmata.com/rail/station_detail.cfm?station_id=34","EXIT_TO_ST":"EAST SIDE OF GEORGIA AVE ","FEATURECOD":null,"DESCRIPTIO":"Metro Station Entrance","CAPTUREYEA":"2016-01-08T00:00:00.000Z","LINE":"red","ADDRESS_ID":null},"geometry":{"type":"Point","coordinates":[-77.05350230695566,39.06190781869148]}},{"type":"Feature","properties":{"OBJECTID":129,"GIS_ID":"mstn_048","NAME":"COLLEGE PARK","WEB_URL":"http://www.wmata.com/rail/station_detail.cfm?station_id=79","EXIT_TO_ST":"WEST SIDE OF RIVER RD BETWEEN COLUMBIA AVE AND PAINT BRANCH PKY","FEATURECOD":null,"DESCRIPTIO":"Metro Station Entrance","CAPTUREYEA":"2016-01-08T00:00:00.000Z","LINE":"green","ADDRESS_ID":null},"geometry":{"type":"Point","coordinates":[-76.92790226711789,38.978207805653796]}},{"type":"Feature","properties":{"OBJECTID":130,"GIS_ID":"mstn_078","NAME":"SPRING HILL","WEB_URL":"http://www.wmata.com/rail/station_detail.cfm?station_id=114","EXIT_TO_ST":"NORTH SIDE OF SPRING HILL RD ","FEATURECOD":null,"DESCRIPTIO":"Metro Station Entrance","CAPTUREYEA":"2016-01-08T00:00:00.000Z","LINE":"silver","ADDRESS_ID":null},"geometry":{"type":"Point","coordinates":[-77.24170236146674,38.928407782396086]}},{"type":"Feature","properties":{"OBJECTID":131,"GIS_ID":"mstn_076","NAME":"SILVER SPRING","WEB_URL":"http://www.wmata.com/rail/station_detail.cfm?station_id=31","EXIT_TO_ST":"NE CORNER OF EAST-WEST HWY AND COLESVILE RD","FEATURECOD":null,"DESCRIPTIO":"Metro Station Entrance","CAPTUREYEA":"2016-01-08T00:00:00.000Z","LINE":"red","ADDRESS_ID":null},"geometry":{"type":"Point","coordinates":[-77.03190230307467,38.99410780562793]}},{"type":"Feature","properties":{"OBJECTID":132,"GIS_ID":"mstn_070","NAME":"PENTAGON","WEB_URL":"http://www.wmata.com/rail/station_detail.cfm?station_id=43","EXIT_TO_ST":"NW CORNER OF N ROTARY RD AND S EADS ST","FEATURECOD":null,"DESCRIPTIO":"Metro Station Entrance","CAPTUREYEA":"2016-01-08T00:00:00.000Z","LINE":"blue, yellow","ADDRESS_ID":null},"geometry":{"type":"Point","coordinates":[-77.0544022954874,38.869707778937844]}},{"type":"Feature","properties":{"OBJECTID":133,"GIS_ID":"mstn_067","NAME":"NATIONAL ARPT","WEB_URL":"http://www.wmata.com/rail/station_detail.cfm?station_id=93","EXIT_TO_ST":"WEST SIDE OF S SMITH BLVD ","FEATURECOD":null,"DESCRIPTIO":"Metro Station Entrance","CAPTUREYEA":"2016-01-08T00:00:00.000Z","LINE":"blue, yellow","ADDRESS_ID":null},"geometry":{"type":"Point","coordinates":[-77.04370229637132,38.852207777246385]}},{"type":"Feature","properties":{"OBJECTID":134,"GIS_ID":"mstn_062","NAME":"KING STREET","WEB_URL":"http://www.wmata.com/rail/station_detail.cfm?station_id=48","EXIT_TO_ST":"NE CORNER OF CALLAHAN DR AND KING ST ","FEATURECOD":null,"DESCRIPTIO":"Metro Station Entrance","CAPTUREYEA":"2016-01-08T00:00:00.000Z","LINE":"blue, yellow","ADDRESS_ID":null},"geometry":{"type":"Point","coordinates":[-77.06120229720575,38.806307765463075]}},{"type":"Feature","properties":{"OBJECTID":135,"GIS_ID":"mstn_044","NAME":"ADDISON ROAD","WEB_URL":"http://www.wmata.com/rail/station_detail.cfm?station_id=92","EXIT_TO_ST":"SW CORNER OF CENTRAL AVENUE AND ADDISON RD S ","FEATURECOD":null,"DESCRIPTIO":"Metro Station Entrance","CAPTUREYEA":"2016-01-08T00:00:00.000Z","LINE":"silver, blue","ADDRESS_ID":null},"geometry":{"type":"Point","coordinates":[-76.89580225200191,38.88670778928521]}},{"type":"Feature","properties":{"OBJECTID":136,"GIS_ID":"mstn_046","NAME":"BALLSTON","WEB_URL":"http://www.wmata.com/rail/station_detail.cfm?station_id=99","EXIT_TO_ST":"SE CORNER OF N STUART ST AND N FAIRFAX DR","FEATURECOD":null,"DESCRIPTIO":"Metro Station Entrance","CAPTUREYEA":"2016-01-08T00:00:00.000Z","LINE":"orange, silver","ADDRESS_ID":null},"geometry":{"type":"Point","coordinates":[-77.1114023175692,38.88190778090728]}},{"type":"Feature","properties":{"OBJECTID":137,"GIS_ID":"mstn_061","NAME":"HUNTINGTON","WEB_URL":"http://www.wmata.com/rail/station_detail.cfm?station_id=50","EXIT_TO_ST":"THE CLOSEST EXIT TO HUNTINGTON AVE","FEATURECOD":null,"DESCRIPTIO":"Metro Station Entrance","CAPTUREYEA":"2016-01-08T00:00:00.000Z","LINE":"yellow","ADDRESS_ID":null},"geometry":{"type":"Point","coordinates":[-77.07520229930941,38.79480776186898]}},{"type":"Feature","properties":{"OBJECTID":138,"GIS_ID":"mstn_086","NAME":"WEST HYATTSVILLE","WEB_URL":"http://www.wmata.com/rail/station_detail.cfm?station_id=77","EXIT_TO_ST":"WEST SIDE OF JAMESTOWN RD ","FEATURECOD":null,"DESCRIPTIO":"Metro Station Entrance","CAPTUREYEA":"2016-01-08T00:00:00.000Z","LINE":"green","ADDRESS_ID":null},"geometry":{"type":"Point","coordinates":[-76.96890227989729,38.95590779852037]}},{"type":"Feature","properties":{"OBJECTID":139,"GIS_ID":"mstn_072","NAME":"PRINCE GEORGES PLAZA","WEB_URL":"http://www.wmata.com/rail/station_detail.cfm?station_id=78","EXIT_TO_ST":"SW CORNER OF EAST-WEST HWY AND BELCREST CENTER DR ","FEATURECOD":null,"DESCRIPTIO":"Metro Station Entrance","CAPTUREYEA":"2016-01-08T00:00:00.000Z","LINE":"green","ADDRESS_ID":null},"geometry":{"type":"Point","coordinates":[-76.95560227446018,38.96580780071405]}},{"type":"Feature","properties":{"OBJECTID":140,"GIS_ID":"mstn_056","NAME":"FRIENDSHIP HEIGHTS","WEB_URL":"http://www.wmata.com/rail/station_detail.cfm?station_id=11","EXIT_TO_ST":"NW SIDE OF WESTERN AVE AND MD-355 N ","FEATURECOD":null,"DESCRIPTIO":"Metro Station Entrance","CAPTUREYEA":"2016-01-08T00:00:00.000Z","LINE":"red","ADDRESS_ID":null},"geometry":{"type":"Point","coordinates":[-77.0856023178968,38.96120779548958]}},{"type":"Feature","properties":{"OBJECTID":141,"GIS_ID":"mstn_042","NAME":"BRANCH AVENUE","WEB_URL":"http://www.wmata.com/rail/station_detail.cfm?station_id=89","EXIT_TO_ST":"WEST SIDE OF OLD SOPER RD BETWEEN AUTH WAY AND CAPITAL GATEWAY DR","FEATURECOD":null,"DESCRIPTIO":"Metro Station Entrance","CAPTUREYEA":"2016-01-08T00:00:00.000Z","LINE":"green","ADDRESS_ID":null},"geometry":{"type":"Point","coordinates":[-76.91260225519903,38.82700777564174]}},{"type":"Feature","properties":{"OBJECTID":142,"GIS_ID":"mstn_055","NAME":"FRANCONIA-SPRINGF'LD","WEB_URL":"http://www.wmata.com/rail/station_detail.cfm?station_id=95","EXIT_TO_ST":"SOUTH SIDE OF FRANCONIA-SPRINGFIELD PKWY","FEATURECOD":null,"DESCRIPTIO":"Metro Station Entrance","CAPTUREYEA":"2016-01-08T00:00:00.000Z","LINE":"blue","ADDRESS_ID":null},"geometry":{"type":"Point","coordinates":[-77.16910232939527,38.76670775374273]}},{"type":"Feature","properties":{"OBJECTID":143,"GIS_ID":"mstn_049","NAME":"COURT HOUSE","WEB_URL":"http://www.wmata.com/rail/station_detail.cfm?station_id=96","EXIT_TO_ST":"SE CORNER OF 15TH ST N AND N UHLE ST","FEATURECOD":null,"DESCRIPTIO":"Metro Station Entrance","CAPTUREYEA":"2016-01-08T00:00:00.000Z","LINE":"orange, silver","ADDRESS_ID":null},"geometry":{"type":"Point","coordinates":[-77.08490230863252,38.89060778158211]}},{"type":"Feature","properties":{"OBJECTID":144,"GIS_ID":"mstn_049","NAME":"COURT HOUSE","WEB_URL":"http://www.wmata.com/rail/station_detail.cfm?station_id=96","EXIT_TO_ST":"NW CORNER OF N UHLE ST AND WILSON BLVD","FEATURECOD":null,"DESCRIPTIO":"Metro Station Entrance","CAPTUREYEA":"2016-01-08T00:00:00.000Z","LINE":"orange, silver","ADDRESS_ID":null},"geometry":{"type":"Point","coordinates":[-77.0850023107055,38.89170778217549]}},{"type":"Feature","properties":{"OBJECTID":145,"GIS_ID":"mstn_085","NAME":"W FALLS CHURCH","WEB_URL":"http://www.wmata.com/rail/station_detail.cfm?station_id=101","EXIT_TO_ST":"WEST SIDE OF DULLES TOO RD BETWEEN I - 66 W AND I -66 E ","FEATURECOD":null,"DESCRIPTIO":"Metro Station Entrance","CAPTUREYEA":"2016-01-08T00:00:00.000Z","LINE":"orange","ADDRESS_ID":null},"geometry":{"type":"Point","coordinates":[-77.18900234561588,38.90110777891719]}},{"type":"Feature","properties":{"OBJECTID":146,"GIS_ID":"mstn_060","NAME":"GROSVENOR","WEB_URL":"http://www.wmata.com/rail/station_detail.cfm?station_id=14","EXIT_TO_ST":"SW OF TUCKERMAN LN AND ROCKVILLE PIKE ","FEATURECOD":null,"DESCRIPTIO":"Metro Station Entrance","CAPTUREYEA":"2016-01-08T00:00:00.000Z","LINE":"red","ADDRESS_ID":null},"geometry":{"type":"Point","coordinates":[-77.1045023274888,39.02880780881379]}},{"type":"Feature","properties":{"OBJECTID":147,"GIS_ID":"mstn_080","NAME":"TWINBROOK","WEB_URL":"http://www.wmata.com/rail/station_detail.cfm?station_id=16","EXIT_TO_ST":"WEST SIDE OF CHAPMAN AVE ","FEATURECOD":null,"DESCRIPTIO":"Metro Station Entrance","CAPTUREYEA":"2016-01-08T00:00:00.000Z","LINE":"red","ADDRESS_ID":null},"geometry":{"type":"Point","coordinates":[-77.12070233259325,39.062107816312135]}},{"type":"Feature","properties":{"OBJECTID":148,"GIS_ID":"mstn_070","NAME":"PENTAGON","WEB_URL":"http://www.wmata.com/rail/station_detail.cfm?station_id=43","EXIT_TO_ST":"NW CORNER OF N ROTARY RD AND S EADS ST","FEATURECOD":null,"DESCRIPTIO":"Metro Station Entrance","CAPTUREYEA":"2016-01-08T00:00:00.000Z","LINE":"blue, yellow","ADDRESS_ID":null},"geometry":{"type":"Point","coordinates":[-77.054702300671,38.86910777945804]}},{"type":"Feature","properties":{"OBJECTID":149,"GIS_ID":"mstn_053","NAME":"EISENHOWER AVENUE","WEB_URL":"http://www.wmata.com/rail/station_detail.cfm?station_id=49","EXIT_TO_ST":"SOUTH SIDE OF EISENHOWER AVE","FEATURECOD":null,"DESCRIPTIO":"Metro Station Entrance","CAPTUREYEA":"2016-01-08T00:00:00.000Z","LINE":"yellow","ADDRESS_ID":null},"geometry":{"type":"Point","coordinates":[-77.0709023003114,38.80060776445144]}},{"type":"Feature","properties":{"OBJECTID":150,"GIS_ID":"mstn_044","NAME":"CHEVERLY","WEB_URL":"http://www.wmata.com/rail/station_detail.cfm?station_id=66","EXIT_TO_ST":"SW CORNER OF JOHN HANSON HWY AND COLUMBIA PARK RD","FEATURECOD":null,"DESCRIPTIO":"Metro Station Entrance","CAPTUREYEA":"2016-01-08T00:00:00.000Z","LINE":"orange","ADDRESS_ID":null},"geometry":{"type":"Point","coordinates":[-76.91670225678116,38.91610779286147]}},{"type":"Feature","properties":{"OBJECTID":151,"GIS_ID":"mstn_041","NAME":"BETHESDA","WEB_URL":"http://www.wmata.com/rail/station_detail.cfm?station_id=12","EXIT_TO_ST":"SW CORNER OF EAST-WEST HWY AND WISCONSIN AVE","FEATURECOD":null,"DESCRIPTIO":"Metro Station Entrance","CAPTUREYEA":"2016-01-08T00:00:00.000Z","LINE":"red","ADDRESS_ID":null},"geometry":{"type":"Point","coordinates":[-77.09460231767534,38.98470780270261]}},{"type":"Feature","properties":{"OBJECTID":152,"GIS_ID":"mstn_088","NAME":"WHITE FLINT","WEB_URL":"http://www.wmata.com/rail/station_detail.cfm?station_id=15","EXIT_TO_ST":"NE CORNER OF ROCKVILLE PIKE AND MARINELLI RD ","FEATURECOD":null,"DESCRIPTIO":"Metro Station Entrance","CAPTUREYEA":"2016-01-08T00:00:00.000Z","LINE":"red","ADDRESS_ID":null},"geometry":{"type":"Point","coordinates":[-77.1126023260556,39.047307812581415]}},{"type":"Feature","properties":{"OBJECTID":153,"GIS_ID":"mstn_088","NAME":"WHITE FLINT","WEB_URL":"http://www.wmata.com/rail/station_detail.cfm?station_id=15","EXIT_TO_ST":" NW CORNER OF ROCKVILLE PIKE AND MARINELLI RD ","FEATURECOD":null,"DESCRIPTIO":"Metro Station Entrance","CAPTUREYEA":"2016-01-08T00:00:00.000Z","LINE":"red","ADDRESS_ID":null},"geometry":{"type":"Point","coordinates":[-77.11320232901735,39.047207814340204]}},{"type":"Feature","properties":{"OBJECTID":154,"GIS_ID":"mstn_073","NAME":"ROCKVILLE","WEB_URL":"http://www.wmata.com/rail/station_detail.cfm?station_id=17","EXIT_TO_ST":"SOUTH SIDE OF PARK RD BETWEEN MD-355 N AND S STONESTREET AVE","FEATURECOD":null,"DESCRIPTIO":"Metro Station Entrance","CAPTUREYEA":"2016-01-08T00:00:00.000Z","LINE":"red","ADDRESS_ID":null},"geometry":{"type":"Point","coordinates":[-77.14660234143071,39.08440781681041]}},{"type":"Feature","properties":{"OBJECTID":155,"GIS_ID":"mstn_064","NAME":"LARGO TOWN CENTER","WEB_URL":"http://www.wmata.com/rail/station_detail.cfm?station_id=109","EXIT_TO_ST":"WEST SIDE OF LOTTSFORD RD BETWEEN GRAND BLVD AND N HARRY S TRUMAN DR","FEATURECOD":null,"DESCRIPTIO":"Metro Station Entrance","CAPTUREYEA":"2016-01-08T00:00:00.000Z","LINE":"silver, blue","ADDRESS_ID":null},"geometry":{"type":"Point","coordinates":[-76.84490223226986,38.89950779423484]}},{"type":"Feature","properties":{"OBJECTID":156,"GIS_ID":"mstn_083","NAME":"VIENNA","WEB_URL":"http://www.wmata.com/rail/station_detail.cfm?station_id=103","EXIT_TO_ST":"WEST SIDE OF VADEN DR BETWEEN I - 66 W AND I - 66 E","FEATURECOD":null,"DESCRIPTIO":"Metro Station Entrance","CAPTUREYEA":"2016-01-08T00:00:00.000Z","LINE":"orange","ADDRESS_ID":null},"geometry":{"type":"Point","coordinates":[-77.2714023636744,38.87780777189019]}},{"type":"Feature","properties":{"OBJECTID":157,"GIS_ID":"mstn_059","NAME":"GREENSBORO","WEB_URL":"http://www.wmata.com/rail/station_detail.cfm?station_id=113","EXIT_TO_ST":"WEST SIDE OF VA-7 ELEESBURG PIKE","FEATURECOD":null,"DESCRIPTIO":"Metro Station Entrance","CAPTUREYEA":"2016-01-08T00:00:00.000Z","LINE":"silver","ADDRESS_ID":null},"geometry":{"type":"Point","coordinates":[-77.23420235862623,38.92070778147428]}},{"type":"Feature","properties":{"OBJECTID":158,"GIS_ID":"mstn_089","NAME":"WIEHLE-RESTON EAST","WEB_URL":"http://www.wmata.com/rail/station_detail.cfm?station_id=115","EXIT_TO_ST":"EAST SIDE OF WIEHIE AVE ","FEATURECOD":null,"DESCRIPTIO":"Metro Station Entrance","CAPTUREYEA":"2016-01-08T00:00:00.000Z","LINE":"silver","ADDRESS_ID":null},"geometry":{"type":"Point","coordinates":[-77.33920238949592,38.948307784361226]}},{"type":"Feature","properties":{"OBJECTID":159,"GIS_ID":"mstn_087","NAME":"WHEATON","WEB_URL":"http://www.wmata.com/rail/station_detail.cfm?station_id=33","EXIT_TO_ST":"SW CORNER OF REEDIE DR AND GEORGIA AVE ","FEATURECOD":null,"DESCRIPTIO":"Metro Station Entrance","CAPTUREYEA":"2016-01-08T00:00:00.000Z","LINE":"red","ADDRESS_ID":null},"geometry":{"type":"Point","coordinates":[-77.05110230887749,39.03830781316297]}},{"type":"Feature","properties":{"OBJECTID":160,"GIS_ID":"mstn_071","NAME":"PENTAGON CITY","WEB_URL":"http://www.wmata.com/rail/station_detail.cfm?station_id=44","EXIT_TO_ST":"NW CORNER OF S HAYES ST AND 12TH ST S ","FEATURECOD":null,"DESCRIPTIO":"Metro Station Entrance","CAPTUREYEA":"2016-01-08T00:00:00.000Z","LINE":"blue, yellow","ADDRESS_ID":null},"geometry":{"type":"Point","coordinates":[-77.05990230076294,38.862607776057125]}},{"type":"Feature","properties":{"OBJECTID":161,"GIS_ID":"mstn_071","NAME":"PENTAGON CITY","WEB_URL":"http://www.wmata.com/rail/station_detail.cfm?station_id=44","EXIT_TO_ST":"NE CORNER OF S HAYES ST AND 12TH ST S ","FEATURECOD":null,"DESCRIPTIO":"Metro Station Entrance","CAPTUREYEA":"2016-01-08T00:00:00.000Z","LINE":"blue, yellow","ADDRESS_ID":null},"geometry":{"type":"Point","coordinates":[-77.05910230149367,38.86260777612276]}},{"type":"Feature","properties":{"OBJECTID":162,"GIS_ID":"mstn_050","NAME":"CRYSTAL CITY","WEB_URL":"http://www.wmata.com/rail/station_detail.cfm?station_id=45","EXIT_TO_ST":"NW CORNER OF 18TH ST AND S BELL ST","FEATURECOD":null,"DESCRIPTIO":"Metro Station Entrance","CAPTUREYEA":"2016-01-08T00:00:00.000Z","LINE":"blue, yellow","ADDRESS_ID":null},"geometry":{"type":"Point","coordinates":[-77.05140229518675,38.85800777597703]}},{"type":"Feature","properties":{"OBJECTID":163,"GIS_ID":"mstn_067","NAME":"NATIONAL ARPT","WEB_URL":"http://www.wmata.com/rail/station_detail.cfm?station_id=93","EXIT_TO_ST":"WEST SIDE OF S SMITH BLVD","FEATURECOD":null,"DESCRIPTIO":"Metro Station Entrance","CAPTUREYEA":"2016-01-08T00:00:00.000Z","LINE":"blue, yellow","ADDRESS_ID":null},"geometry":{"type":"Point","coordinates":[-77.04470229147849,38.85460777736962]}},{"type":"Feature","properties":{"OBJECTID":164,"GIS_ID":"mstn_045","NAME":"ARLINGTON CEMETERY","WEB_URL":"http://www.wmata.com/rail/station_detail.cfm?station_id=42","EXIT_TO_ST":"SW CORNER OF MEMORIAL AVE AND JEFFERSON DAVIS HWY","FEATURECOD":null,"DESCRIPTIO":"Metro Station Entrance","CAPTUREYEA":"2016-01-08T00:00:00.000Z","LINE":"blue","ADDRESS_ID":null},"geometry":{"type":"Point","coordinates":[-77.06350230462229,38.88420778118662]}},{"type":"Feature","properties":{"OBJECTID":165,"GIS_ID":"mstn_041","NAME":"BETHESDA","WEB_URL":"http://www.wmata.com/rail/station_detail.cfm?station_id=12","EXIT_TO_ST":"NW CORNER OF MONTGOMERY LN AND MD-355 S ","FEATURECOD":null,"DESCRIPTIO":"Metro Station Entrance","CAPTUREYEA":"2016-01-08T00:00:00.000Z","LINE":"red","ADDRESS_ID":null},"geometry":{"type":"Point","coordinates":[-77.09420231832814,38.9836078024938]}},{"type":"Feature","properties":{"OBJECTID":166,"GIS_ID":"mstn_066","NAME":"MEDICAL CENTER","WEB_URL":"http://www.wmata.com/rail/station_detail.cfm?station_id=13","EXIT_TO_ST":"SW SIDE OF SOUTH DR AND ROCKVILLE PIKE ","FEATURECOD":null,"DESCRIPTIO":"Metro Station Entrance","CAPTUREYEA":"2016-01-08T00:00:00.000Z","LINE":"red","ADDRESS_ID":null},"geometry":{"type":"Point","coordinates":[-77.09710231660114,38.999007805463705]}},{"type":"Feature","properties":{"OBJECTID":167,"GIS_ID":"mstn_073","NAME":"ROCKVILLE","WEB_URL":"http://www.wmata.com/rail/station_detail.cfm?station_id=17","EXIT_TO_ST":"SOUTH SIDE OF PARK RD BETWEEN MD-355 N AND S STONESTREET AVE","FEATURECOD":null,"DESCRIPTIO":"Metro Station Entrance","CAPTUREYEA":"2016-01-08T00:00:00.000Z","LINE":"red","ADDRESS_ID":null},"geometry":{"type":"Point","coordinates":[-77.14620234153575,39.08470781848414]}},{"type":"Feature","properties":{"OBJECTID":168,"GIS_ID":"mstn_076","NAME":"SILVER SPRING","WEB_URL":"http://www.wmata.com/rail/station_detail.cfm?station_id=31","EXIT_TO_ST":"NE CORNER OF EAST-WEST HWY AND COLESVILE RD","FEATURECOD":null,"DESCRIPTIO":"Metro Station Entrance","CAPTUREYEA":"2016-01-08T00:00:00.000Z","LINE":"red","ADDRESS_ID":null},"geometry":{"type":"Point","coordinates":[-77.03120229795722,38.993907805848835]}},{"type":"Feature","properties":{"OBJECTID":169,"GIS_ID":"mstn_054","NAME":"FOREST GLEN","WEB_URL":"http://www.wmata.com/rail/station_detail.cfm?station_id=32","EXIT_TO_ST":"SW CORNER OF FOREST GLEN RD AND GEORGIA AVE","FEATURECOD":null,"DESCRIPTIO":"Metro Station Entrance","CAPTUREYEA":"2016-01-08T00:00:00.000Z","LINE":"red","ADDRESS_ID":null},"geometry":{"type":"Point","coordinates":[-77.04320230513099,39.01510780722146]}},{"type":"Feature","properties":{"OBJECTID":170,"GIS_ID":"mstn_054","NAME":"FOREST GLEN","WEB_URL":"http://www.wmata.com/rail/station_detail.cfm?station_id=32","EXIT_TO_ST":"SW CORNER OF FOREST GLEN RD AND GEORGIA AVE","FEATURECOD":null,"DESCRIPTIO":"Metro Station Entrance","CAPTUREYEA":"2016-01-08T00:00:00.000Z","LINE":"red","ADDRESS_ID":null},"geometry":{"type":"Point","coordinates":[-77.04340230118916,39.01530780719457]}},{"type":"Feature","properties":{"OBJECTID":171,"GIS_ID":"mstn_087","NAME":"WHEATON","WEB_URL":"http://www.wmata.com/rail/station_detail.cfm?station_id=33","EXIT_TO_ST":"SE CORNER OF REEDIE DR AND GEORGIA AVE ","FEATURECOD":null,"DESCRIPTIO":"Metro Station Entrance","CAPTUREYEA":"2016-01-08T00:00:00.000Z","LINE":"red","ADDRESS_ID":null},"geometry":{"type":"Point","coordinates":[-77.0503023098078,39.03830781344981]}},{"type":"Feature","properties":{"OBJECTID":172,"GIS_ID":"mstn_057","NAME":"GLENMONT","WEB_URL":"http://www.wmata.com/rail/station_detail.cfm?station_id=34","EXIT_TO_ST":"EAST SIDE OF GEORGIA AVE ","FEATURECOD":null,"DESCRIPTIO":"Metro Station Entrance","CAPTUREYEA":"2016-01-08T00:00:00.000Z","LINE":"red","ADDRESS_ID":null},"geometry":{"type":"Point","coordinates":[-77.0536023086098,39.061707819250564]}},{"type":"Feature","properties":{"OBJECTID":173,"GIS_ID":"mstn_058","NAME":"GREENBELT","WEB_URL":"http://www.wmata.com/rail/station_detail.cfm?station_id=80","EXIT_TO_ST":"NE CORNER OF 53RD AVE AND LACKAWANNA ST","FEATURECOD":null,"DESCRIPTIO":"Metro Station Entrance","CAPTUREYEA":"2016-01-08T00:00:00.000Z","LINE":"green","ADDRESS_ID":null},"geometry":{"type":"Point","coordinates":[-76.91090225923978,39.01090781134276]}},{"type":"Feature","properties":{"OBJECTID":174,"GIS_ID":"mstn_077","NAME":"SOUTHERN AVE","WEB_URL":"http://www.wmata.com/rail/station_detail.cfm?station_id=107","EXIT_TO_ST":"SW CORNER OF SOUTHERN AVE SE AND VALLEY TERRACE SE","FEATURECOD":null,"DESCRIPTIO":"Metro Station Entrance","CAPTUREYEA":"2016-01-08T00:00:00.000Z","LINE":"green","ADDRESS_ID":null},"geometry":{"type":"Point","coordinates":[-76.97590227452436,38.84050777678681]}},{"type":"Feature","properties":{"OBJECTID":175,"GIS_ID":"mstn_043","NAME":"CAPITOL HEIGHTS","WEB_URL":"http://www.wmata.com/rail/station_detail.cfm?station_id=91","EXIT_TO_ST":"NORTH SIDE OF DAVEY ST BETWEEN SOUTHERN AVE AND EAST CAPITOL ST ","FEATURECOD":null,"DESCRIPTIO":"Metro Station Entrance","CAPTUREYEA":"2016-01-08T00:00:00.000Z","LINE":"silver, blue","ADDRESS_ID":null},"geometry":{"type":"Point","coordinates":[-76.91290225623185,38.889407790154124]}},{"type":"Feature","properties":{"OBJECTID":176,"GIS_ID":"mstn_060","NAME":"GROSVENOR","WEB_URL":"http://www.wmata.com/rail/station_detail.cfm?station_id=14","EXIT_TO_ST":"SE OF TUCKERMAN LN AND ROCKVILLE PIKE ","FEATURECOD":null,"DESCRIPTIO":"Metro Station Entrance","CAPTUREYEA":"2016-01-08T00:00:00.000Z","LINE":"red","ADDRESS_ID":null},"geometry":{"type":"Point","coordinates":[-77.10360232651091,39.02890781050001]}},{"type":"Feature","properties":{"OBJECTID":177,"GIS_ID":"mstn_080","NAME":"TWINBROOK","WEB_URL":"http://www.wmata.com/rail/station_detail.cfm?station_id=16","EXIT_TO_ST":"WEST SIDE OF CHAPMAN AVE ","FEATURECOD":null,"DESCRIPTIO":"Metro Station Entrance","CAPTUREYEA":"2016-01-08T00:00:00.000Z","LINE":"red","ADDRESS_ID":null},"geometry":{"type":"Point","coordinates":[-77.1203023330743,39.06230781583426]}},{"type":"Feature","properties":{"OBJECTID":178,"GIS_ID":"mstn_074","NAME":"ROSSLYN","WEB_URL":"http://www.wmata.com/rail/station_detail.cfm?station_id=41","EXIT_TO_ST":"NORTH SIDE OF WILSON BLVD BETWEEN FORT MYER DR AND N MOORE ST ","FEATURECOD":null,"DESCRIPTIO":"Metro Station Entrance","CAPTUREYEA":"2016-01-08T00:00:00.000Z","LINE":"orange, silver, blue","ADDRESS_ID":null},"geometry":{"type":"Point","coordinates":[-77.07180230684702,38.896007785126336]}},{"type":"Feature","properties":{"OBJECTID":179,"GIS_ID":"mstn_050","NAME":"CRYSTAL CITY","WEB_URL":"http://www.wmata.com/rail/station_detail.cfm?station_id=45","EXIT_TO_ST":"NW CORNER OF 18TH ST AND S BELL ST","FEATURECOD":null,"DESCRIPTIO":"Metro Station Entrance","CAPTUREYEA":"2016-01-08T00:00:00.000Z","LINE":"blue, yellow","ADDRESS_ID":null},"geometry":{"type":"Point","coordinates":[-77.05080230023198,38.85800777622951]}},{"type":"Feature","properties":{"OBJECTID":180,"GIS_ID":"mstn_043","NAME":"CAPITOL HEIGHTS","WEB_URL":"http://www.wmata.com/rail/station_detail.cfm?station_id=91","EXIT_TO_ST":"NORTH SIDE OF DAVEY ST BETWEEN SOUTHERN AVE AND EAST CAPITOL ST ","FEATURECOD":null,"DESCRIPTIO":"Metro Station Entrance","CAPTUREYEA":"2016-01-08T00:00:00.000Z","LINE":"silver, blue","ADDRESS_ID":null},"geometry":{"type":"Point","coordinates":[-76.9133022559116,38.88920778636421]}}]}