{
"type": "FeatureCollection",
"crs": { "type": "name", "properties": { "name": "urn:ogc:def:crs:OGC:1.3:CRS84" } },
                                                                                
"features": [
{ "type": "Feature", "properties": { "OBJECTID": 1, "GIS_ID": "nhood_132", "NAME": "Stronghold", "WEB_URL": "http:\/\/op.dc.gov", "LABEL_NAME": "Stronghold", "DATELASTMODIFIED": "2003-04-10T00:00:00.000Z" }, "geometry": { "type": "Point", "coordinates": [ -77.007767410200003, 38.925775582500002 ] } },
{ "type": "Feature", "properties": { "OBJECTID": 2, "GIS_ID": "nhood_134", "NAME": "Langston", "WEB_URL": "http:\/\/op.dc.gov", "LABEL_NAME": "Langston", "DATELASTMODIFIED": "2003-04-10T00:00:00.000Z" }, "geometry": { "type": "Point", "coordinates": [ -76.972367090800006, 38.901336258100002 ] } },
{ "type": "Feature", "properties": { "OBJECTID": 3, "GIS_ID": "nhood_137", "NAME": "Downtown East", "WEB_URL": "http:\/\/op.dc.gov", "LABEL_NAME": "Downtown \r\nEast", "DATELASTMODIFIED": "2003-04-10T00:00:00.000Z" }, "geometry": { "type": "Point", "coordinates": [ -77.0142336933, 38.895428165399998 ] } },
{ "type": "Feature", "properties": { "OBJECTID": 4, "GIS_ID": "nhood_029", "NAME": "Colonial Village", "WEB_URL": "http:\/\/op.dc.gov", "LABEL_NAME": "Colonial \r\nVillage", "DATELASTMODIFIED": "2003-04-10T00:00:00.000Z" }, "geometry": { "type": "Point", "coordinates": [ -77.041093811699994, 38.986789561 ] } },
{ "type": "Feature", "properties": { "OBJECTID": 5, "GIS_ID": "nhood_109", "NAME": "Shepherd Park", "WEB_URL": "http:\/\/op.dc.gov", "LABEL_NAME": "Shepherd \r\nPark", "DATELASTMODIFIED": "2003-04-10T00:00:00.000Z" }, "geometry": { "type": "Point", "coordinates": [ -77.032125711, 38.9829800519 ] } },
{ "type": "Feature", "properties": { "OBJECTID": 6, "GIS_ID": "nhood_074", "NAME": "Lamond Riggs", "WEB_URL": "http:\/\/op.dc.gov", "LABEL_NAME": "Lamond \r\nRiggs", "DATELASTMODIFIED": "2003-04-10T00:00:00.000Z" }, "geometry": { "type": "Point", "coordinates": [ -77.006445051900002, 38.965069729200003 ] } },
{ "type": "Feature", "properties": { "OBJECTID": 7, "GIS_ID": "nhood_102", "NAME": "Petworth", "WEB_URL": "http:\/\/op.dc.gov", "LABEL_NAME": "Petworth", "DATELASTMODIFIED": "2003-04-10T00:00:00.000Z" }, "geometry": { "type": "Point", "coordinates": [ -77.024017328200003, 38.943039128199999 ] } },
{ "type": "Feature", "properties": { "OBJECTID": 8, "GIS_ID": "nhood_015", "NAME": "Brightwood Park", "WEB_URL": "http:\/\/op.dc.gov", "LABEL_NAME": "Brightwood \r\nPark", "DATELASTMODIFIED": "2003-04-10T00:00:00.000Z" }, "geometry": { "type": "Point", "coordinates": [ -77.024871387600001, 38.955747648 ] } },
{ "type": "Feature", "properties": { "OBJECTID": 9, "GIS_ID": "nhood_014", "NAME": "Brightwood", "WEB_URL": "http:\/\/op.dc.gov", "LABEL_NAME": "Brightwood", "DATELASTMODIFIED": "2003-04-10T00:00:00.000Z" }, "geometry": { "type": "Point", "coordinates": [ -77.026874312900006, 38.966379339699998 ] } },
{ "type": "Feature", "properties": { "OBJECTID": 10, "GIS_ID": "nhood_006", "NAME": "Barnaby Woods", "WEB_URL": "http:\/\/op.dc.gov", "LABEL_NAME": "Barnaby \r\nWoods", "DATELASTMODIFIED": "2003-04-10T00:00:00.000Z" }, "geometry": { "type": "Point", "coordinates": [ -77.060174478299999, 38.975433434899998 ] } },
{ "type": "Feature", "properties": { "OBJECTID": 11, "GIS_ID": "nhood_106", "NAME": "Queens Chapel", "WEB_URL": "http:\/\/op.dc.gov", "LABEL_NAME": "Queens \r\nChapel", "DATELASTMODIFIED": "2003-04-10T00:00:00.000Z" }, "geometry": { "type": "Point", "coordinates": [ -76.9965905703, 38.956070016799998 ] } },
{ "type": "Feature", "properties": { "OBJECTID": 12, "GIS_ID": "nhood_097", "NAME": "North Michigan Park", "WEB_URL": "http:\/\/op.dc.gov", "LABEL_NAME": "North \r\nMichigan \r\nPark", "DATELASTMODIFIED": "2003-04-10T00:00:00.000Z" }, "geometry": { "type": "Point", "coordinates": [ -76.993666292399993, 38.945644159300002 ] } },
{ "type": "Feature", "properties": { "OBJECTID": 13, "GIS_ID": "nhood_121", "NAME": "University Heights", "WEB_URL": "http:\/\/op.dc.gov", "LABEL_NAME": "University \r\nHeights", "DATELASTMODIFIED": "2003-04-10T00:00:00.000Z" }, "geometry": { "type": "Point", "coordinates": [ -76.995761501700002, 38.938248761899999 ] } },
{ "type": "Feature", "properties": { "OBJECTID": 14, "GIS_ID": "nhood_016", "NAME": "Brookland", "WEB_URL": "http:\/\/op.dc.gov", "LABEL_NAME": "Brookland", "DATELASTMODIFIED": "2003-04-10T00:00:00.000Z" }, "geometry": { "type": "Point", "coordinates": [ -76.984413587600002, 38.931404395 ] } },
{ "type": "Feature", "properties": { "OBJECTID": 15, "GIS_ID": "nhood_138", "NAME": "Skyland", "WEB_URL": "http:\/\/op.dc.gov", "LABEL_NAME": "Skyland", "DATELASTMODIFIED": "2003-04-10T00:00:00.000Z" }, "geometry": { "type": "Point", "coordinates": [ -76.971702981600004, 38.860266958799997 ] } },
{ "type": "Feature", "properties": { "OBJECTID": 16, "GIS_ID": "nhood_135", "NAME": "Lincoln Park", "WEB_URL": "http:\/\/op.dc.gov", "LABEL_NAME": "Lincoln Park", "DATELASTMODIFIED": "2003-04-10T00:00:00.000Z" }, "geometry": { "type": "Point", "coordinates": [ -76.989709955500004, 38.887210697199997 ] } },
{ "type": "Feature", "properties": { "OBJECTID": 17, "GIS_ID": "nhood_136", "NAME": "16th Street Heights", "WEB_URL": "http:\/\/op.dc.gov", "LABEL_NAME": "16th \r\nStreet \r\nHeights", "DATELASTMODIFIED": "2003-04-10T00:00:00.000Z" }, "geometry": { "type": "Point", "coordinates": [ -77.033558563900002, 38.950314551300004 ] } },
{ "type": "Feature", "properties": { "OBJECTID": 18, "GIS_ID": "nhood_057", "NAME": "Gateway", "WEB_URL": "http:\/\/op.dc.gov", "LABEL_NAME": "Gateway", "DATELASTMODIFIED": "2003-04-10T00:00:00.000Z" }, "geometry": { "type": "Point", "coordinates": [ -76.963845709699996, 38.919756837199998 ] } },
{ "type": "Feature", "properties": { "OBJECTID": 19, "GIS_ID": "nhood_013", "NAME": "Brentwood", "WEB_URL": "http:\/\/op.dc.gov", "LABEL_NAME": "Brentwood", "DATELASTMODIFIED": "2003-04-10T00:00:00.000Z" }, "geometry": { "type": "Point", "coordinates": [ -76.987035217400006, 38.918977276500001 ] } },
{ "type": "Feature", "properties": { "OBJECTID": 20, "GIS_ID": "nhood_040", "NAME": "Eckington", "WEB_URL": "http:\/\/op.dc.gov", "LABEL_NAME": "Eckington", "DATELASTMODIFIED": "2003-04-10T00:00:00.000Z" }, "geometry": { "type": "Point", "coordinates": [ -77.000425426299998, 38.9152018375 ] } },
{ "type": "Feature", "properties": { "OBJECTID": 21, "GIS_ID": "nhood_069", "NAME": "Ivy City", "WEB_URL": "http:\/\/op.dc.gov", "LABEL_NAME": "Ivy \r\nCity", "DATELASTMODIFIED": "2003-04-10T00:00:00.000Z" }, "geometry": { "type": "Point", "coordinates": [ -76.991626886099993, 38.910389476 ] } },
{ "type": "Feature", "properties": { "OBJECTID": 22, "GIS_ID": "nhood_005", "NAME": "Arboretum", "WEB_URL": "http:\/\/op.dc.gov", "LABEL_NAME": "Arboretum", "DATELASTMODIFIED": "2003-04-10T00:00:00.000Z" }, "geometry": { "type": "Point", "coordinates": [ -76.972489748200005, 38.914859756299997 ] } },
{ "type": "Feature", "properties": { "OBJECTID": 23, "GIS_ID": "nhood_024", "NAME": "Carver", "WEB_URL": "http:\/\/op.dc.gov", "LABEL_NAME": "Carver", "DATELASTMODIFIED": "2003-04-10T00:00:00.000Z" }, "geometry": { "type": "Point", "coordinates": [ -76.977849790400001, 38.902465255599999 ] } },
{ "type": "Feature", "properties": { "OBJECTID": 24, "GIS_ID": "nhood_095", "NAME": "North Capitol Street", "WEB_URL": "http:\/\/op.dc.gov", "LABEL_NAME": "North \r\nCapitol \r\nStreet", "DATELASTMODIFIED": "2003-04-10T00:00:00.000Z" }, "geometry": { "type": "Point", "coordinates": [ -77.011275348, 38.9025321596 ] } },
{ "type": "Feature", "properties": { "OBJECTID": 25, "GIS_ID": "nhood_036", "NAME": "Downtown", "WEB_URL": "http:\/\/op.dc.gov", "LABEL_NAME": "Downtown", "DATELASTMODIFIED": "2003-04-10T00:00:00.000Z" }, "geometry": { "type": "Point", "coordinates": [ -77.029174517900003, 38.900526145599997 ] } },
{ "type": "Feature", "properties": { "OBJECTID": 26, "GIS_ID": "nhood_044", "NAME": "Foggy Bottom", "WEB_URL": "http:\/\/op.dc.gov", "LABEL_NAME": "Foggy \r\nBottom", "DATELASTMODIFIED": "2003-04-10T00:00:00.000Z" }, "geometry": { "type": "Point", "coordinates": [ -77.052436265400004, 38.899021712100001 ] } },
{ "type": "Feature", "properties": { "OBJECTID": 27, "GIS_ID": "nhood_125", "NAME": "West End", "WEB_URL": "http:\/\/op.dc.gov", "LABEL_NAME": "West \r\nEnd", "DATELASTMODIFIED": "2003-04-10T00:00:00.000Z" }, "geometry": { "type": "Point", "coordinates": [ -77.051882465899993, 38.905550337800001 ] } },
{ "type": "Feature", "properties": { "OBJECTID": 28, "GIS_ID": "nhood_058", "NAME": "Georgetown", "WEB_URL": "http:\/\/op.dc.gov", "LABEL_NAME": "Georgetown", "DATELASTMODIFIED": "2003-04-10T00:00:00.000Z" }, "geometry": { "type": "Point", "coordinates": [ -77.064795604400004, 38.909555805700002 ] } },
{ "type": "Feature", "properties": { "OBJECTID": 29, "GIS_ID": "nhood_017", "NAME": "Burleith\/Hillandale", "WEB_URL": "http:\/\/op.dc.gov", "LABEL_NAME": "Burleith\/\r\nHillandale", "DATELASTMODIFIED": "2003-04-10T00:00:00.000Z" }, "geometry": { "type": "Point", "coordinates": [ -77.074565760799999, 38.915002994699996 ] } },
{ "type": "Feature", "properties": { "OBJECTID": 30, "GIS_ID": "nhood_113", "NAME": "Southwest\/Waterfront", "WEB_URL": "http:\/\/op.dc.gov", "LABEL_NAME": "Southwest\/\r\nWaterfront", "DATELASTMODIFIED": "2003-04-10T00:00:00.000Z" }, "geometry": { "type": "Point", "coordinates": [ -77.016902958499998, 38.877908360799999 ] } },
{ "type": "Feature", "properties": { "OBJECTID": 31, "GIS_ID": "nhood_019", "NAME": "Buzzard Point", "WEB_URL": "http:\/\/op.dc.gov", "LABEL_NAME": "Buzzard \r\nPoint", "DATELASTMODIFIED": "2003-04-10T00:00:00.000Z" }, "geometry": { "type": "Point", "coordinates": [ -77.011424545799997, 38.868300119 ] } },
{ "type": "Feature", "properties": { "OBJECTID": 32, "GIS_ID": "nhood_027", "NAME": "Chevy Chase", "WEB_URL": "http:\/\/op.dc.gov", "LABEL_NAME": "Chevy \r\nChase", "DATELASTMODIFIED": "2003-04-10T00:00:00.000Z" }, "geometry": { "type": "Point", "coordinates": [ -77.066477612900002, 38.963146467100003 ] } },
{ "type": "Feature", "properties": { "OBJECTID": 33, "GIS_ID": "nhood_054", "NAME": "Friendship Heights", "WEB_URL": "http:\/\/op.dc.gov", "LABEL_NAME": "Friendship \r\nHeights", "DATELASTMODIFIED": "2003-04-10T00:00:00.000Z" }, "geometry": { "type": "Point", "coordinates": [ -77.083854407299995, 38.956906785 ] } },
{ "type": "Feature", "properties": { "OBJECTID": 34, "GIS_ID": "nhood_117", "NAME": "Tenleytown", "WEB_URL": "http:\/\/op.dc.gov", "LABEL_NAME": "Tenleytown", "DATELASTMODIFIED": "2003-04-10T00:00:00.000Z" }, "geometry": { "type": "Point", "coordinates": [ -77.080163089799996, 38.947127402699998 ] } },
{ "type": "Feature", "properties": { "OBJECTID": 35, "GIS_ID": "nhood_002", "NAME": "American University Park", "WEB_URL": "http:\/\/op.dc.gov", "LABEL_NAME": "American \r\nUniversity \r\nPark", "DATELASTMODIFIED": "2003-04-10T00:00:00.000Z" }, "geometry": { "type": "Point", "coordinates": [ -77.090249571699999, 38.947611636799998 ] } },
{ "type": "Feature", "properties": { "OBJECTID": 36, "GIS_ID": "nhood_025", "NAME": "Cathedral Heights", "WEB_URL": "http:\/\/op.dc.gov", "LABEL_NAME": "Cathedral \r\nHeights", "DATELASTMODIFIED": "2003-04-10T00:00:00.000Z" }, "geometry": { "type": "Point", "coordinates": [ -77.079860427699998, 38.934272415300001 ] } },
{ "type": "Feature", "properties": { "OBJECTID": 37, "GIS_ID": "nhood_085", "NAME": "McLean Gardens", "WEB_URL": "http:\/\/op.dc.gov", "LABEL_NAME": "McLean \r\nGardens", "DATELASTMODIFIED": "2003-04-10T00:00:00.000Z" }, "geometry": { "type": "Point", "coordinates": [ -77.075295723899998, 38.936151246199998 ] } },
{ "type": "Feature", "properties": { "OBJECTID": 38, "GIS_ID": "nhood_128", "NAME": "Woodley Park", "WEB_URL": "http:\/\/op.dc.gov", "LABEL_NAME": "Woodley \r\nPark", "DATELASTMODIFIED": "2003-04-10T00:00:00.000Z" }, "geometry": { "type": "Point", "coordinates": [ -77.057482949700002, 38.927265324 ] } },
{ "type": "Feature", "properties": { "OBJECTID": 39, "GIS_ID": "nhood_124", "NAME": "Wesley Heights", "WEB_URL": "http:\/\/op.dc.gov", "LABEL_NAME": "Wesley \r\nHeights", "DATELASTMODIFIED": "2003-04-10T00:00:00.000Z" }, "geometry": { "type": "Point", "coordinates": [ -77.088324911399994, 38.9299808154 ] } },
{ "type": "Feature", "properties": { "OBJECTID": 40, "GIS_ID": "nhood_052", "NAME": "Foxhall Crescents", "WEB_URL": "http:\/\/op.dc.gov", "LABEL_NAME": "Foxhall \r\nCrescents", "DATELASTMODIFIED": "2003-04-10T00:00:00.000Z" }, "geometry": { "type": "Point", "coordinates": [ -77.092766745399999, 38.920486497900001 ] } },
{ "type": "Feature", "properties": { "OBJECTID": 41, "GIS_ID": "nhood_099", "NAME": "Palisades", "WEB_URL": "http:\/\/op.dc.gov", "LABEL_NAME": "Palisades", "DATELASTMODIFIED": "2003-04-10T00:00:00.000Z" }, "geometry": { "type": "Point", "coordinates": [ -77.103520376500001, 38.9298076679 ] } },
{ "type": "Feature", "properties": { "OBJECTID": 42, "GIS_ID": "nhood_070", "NAME": "Kalorama Heights", "WEB_URL": "http:\/\/op.dc.gov", "LABEL_NAME": "Kalorama \r\nHeights", "DATELASTMODIFIED": "2003-04-10T00:00:00.000Z" }, "geometry": { "type": "Point", "coordinates": [ -77.051194708400004, 38.9156604382 ] } },
{ "type": "Feature", "properties": { "OBJECTID": 43, "GIS_ID": "nhood_001", "NAME": "Adams Morgan", "WEB_URL": "http:\/\/op.dc.gov", "LABEL_NAME": "Adams \r\nMorgan", "DATELASTMODIFIED": "2003-04-10T00:00:00.000Z" }, "geometry": { "type": "Point", "coordinates": [ -77.042391106899998, 38.920472198500001 ] } },
{ "type": "Feature", "properties": { "OBJECTID": 44, "GIS_ID": "nhood_037", "NAME": "Dupont Circle", "WEB_URL": "http:\/\/op.dc.gov", "LABEL_NAME": "Dupont \r\nCircle", "DATELASTMODIFIED": "2003-04-10T00:00:00.000Z" }, "geometry": { "type": "Point", "coordinates": [ -77.040983705499997, 38.912128102399997 ] } },
{ "type": "Feature", "properties": { "OBJECTID": 45, "GIS_ID": "nhood_076", "NAME": "Lanier Heights", "WEB_URL": "http:\/\/op.dc.gov", "LABEL_NAME": "Lanier \r\nHeights", "DATELASTMODIFIED": "2003-04-10T00:00:00.000Z" }, "geometry": { "type": "Point", "coordinates": [ -77.042693544399995, 38.925248830299999 ] } },
{ "type": "Feature", "properties": { "OBJECTID": 46, "GIS_ID": "nhood_088", "NAME": "Mount Pleasant", "WEB_URL": "http:\/\/op.dc.gov", "LABEL_NAME": "Mount \r\nPleasant", "DATELASTMODIFIED": "2003-04-10T00:00:00.000Z" }, "geometry": { "type": "Point", "coordinates": [ -77.040655887400007, 38.931741492 ] } },
{ "type": "Feature", "properties": { "OBJECTID": 47, "GIS_ID": "nhood_100", "NAME": "Park View", "WEB_URL": "http:\/\/op.dc.gov", "LABEL_NAME": "Park \r\nView", "DATELASTMODIFIED": "2003-04-10T00:00:00.000Z" }, "geometry": { "type": "Point", "coordinates": [ -77.021444268600007, 38.934604257 ] } },
{ "type": "Feature", "properties": { "OBJECTID": 48, "GIS_ID": "nhood_077", "NAME": "Le Droit Park", "WEB_URL": "http:\/\/op.dc.gov", "LABEL_NAME": "Le Droit \r\nPark", "DATELASTMODIFIED": "2003-04-10T00:00:00.000Z" }, "geometry": { "type": "Point", "coordinates": [ -77.0176045507, 38.916831595700003 ] } },
{ "type": "Feature", "properties": { "OBJECTID": 49, "GIS_ID": "nhood_068", "NAME": "Howard University", "WEB_URL": "http:\/\/op.dc.gov", "LABEL_NAME": "Howard \r\nUniversity", "DATELASTMODIFIED": "2003-04-10T00:00:00.000Z" }, "geometry": { "type": "Point", "coordinates": [ -77.019610266, 38.9223548167 ] } },
{ "type": "Feature", "properties": { "OBJECTID": 50, "GIS_ID": "nhood_093", "NAME": "Near Northeast", "WEB_URL": "http:\/\/op.dc.gov", "LABEL_NAME": "Near \r\nNortheast", "DATELASTMODIFIED": "2003-04-10T00:00:00.000Z" }, "geometry": { "type": "Point", "coordinates": [ -76.999733891899993, 38.902374790499998 ] } },
{ "type": "Feature", "properties": { "OBJECTID": 51, "GIS_ID": "nhood_115", "NAME": "Stanton Park", "WEB_URL": "http:\/\/op.dc.gov", "LABEL_NAME": "Stanton \r\nPark", "DATELASTMODIFIED": "2003-04-10T00:00:00.000Z" }, "geometry": { "type": "Point", "coordinates": [ -76.994241715300006, 38.894897818499999 ] } },
{ "type": "Feature", "properties": { "OBJECTID": 52, "GIS_ID": "nhood_072", "NAME": "Kingman Park", "WEB_URL": "http:\/\/op.dc.gov", "LABEL_NAME": "Kingman \r\nPark", "DATELASTMODIFIED": "2003-04-10T00:00:00.000Z" }, "geometry": { "type": "Point", "coordinates": [ -76.978436575900005, 38.8948865674 ] } },
{ "type": "Feature", "properties": { "OBJECTID": 53, "GIS_ID": "nhood_079", "NAME": "Hill East", "WEB_URL": "http:\/\/op.dc.gov", "LABEL_NAME": "Hill East", "DATELASTMODIFIED": "2003-04-10T00:00:00.000Z" }, "geometry": { "type": "Point", "coordinates": [ -76.9799506624, 38.883330003600001 ] } },
{ "type": "Feature", "properties": { "OBJECTID": 54, "GIS_ID": "nhood_091", "NAME": "Navy Yard", "WEB_URL": "http:\/\/op.dc.gov", "LABEL_NAME": "Navy \r\nYard", "DATELASTMODIFIED": "2003-04-10T00:00:00.000Z" }, "geometry": { "type": "Point", "coordinates": [ -76.998461646300001, 38.874268413400003 ] } },
{ "type": "Feature", "properties": { "OBJECTID": 55, "GIS_ID": "nhood_084", "NAME": "Mayfair", "WEB_URL": "http:\/\/op.dc.gov", "LABEL_NAME": "Mayfair", "DATELASTMODIFIED": "2003-04-10T00:00:00.000Z" }, "geometry": { "type": "Point", "coordinates": [ -76.951294593, 38.901115643600001 ] } },
{ "type": "Feature", "properties": { "OBJECTID": 56, "GIS_ID": "nhood_108", "NAME": "River Terrace", "WEB_URL": "http:\/\/op.dc.gov", "LABEL_NAME": "River \r\nTerrace", "DATELASTMODIFIED": "2003-04-10T00:00:00.000Z" }, "geometry": { "type": "Point", "coordinates": [ -76.957680657300003, 38.893704547200002 ] } },
{ "type": "Feature", "properties": { "OBJECTID": 57, "GIS_ID": "nhood_018", "NAME": "Burrville", "WEB_URL": "http:\/\/op.dc.gov", "LABEL_NAME": "Burrville", "DATELASTMODIFIED": "2003-04-10T00:00:00.000Z" }, "geometry": { "type": "Point", "coordinates": [ -76.921802469200003, 38.900242988199999 ] } },
{ "type": "Feature", "properties": { "OBJECTID": 58, "GIS_ID": "nhood_090", "NAME": "NE Boundary", "WEB_URL": "http:\/\/op.dc.gov", "LABEL_NAME": "NE \r\nBoundary", "DATELASTMODIFIED": "2003-04-10T00:00:00.000Z" }, "geometry": { "type": "Point", "coordinates": [ -76.917389427800003, 38.895450818599997 ] } },
{ "type": "Feature", "properties": { "OBJECTID": 59, "GIS_ID": "nhood_009", "NAME": "Benning", "WEB_URL": "http:\/\/op.dc.gov", "LABEL_NAME": "Benning", "DATELASTMODIFIED": "2003-04-10T00:00:00.000Z" }, "geometry": { "type": "Point", "coordinates": [ -76.948883626, 38.891884898299999 ] } },
{ "type": "Feature", "properties": { "OBJECTID": 60, "GIS_ID": "nhood_061", "NAME": "Grant Park", "WEB_URL": "http:\/\/op.dc.gov", "LABEL_NAME": "Grant \r\nPark", "DATELASTMODIFIED": "2003-04-10T00:00:00.000Z" }, "geometry": { "type": "Point", "coordinates": [ -76.920638436700003, 38.892706500199999 ] } },
{ "type": "Feature", "properties": { "OBJECTID": 61, "GIS_ID": "nhood_026", "NAME": "Central NE", "WEB_URL": "http:\/\/op.dc.gov", "LABEL_NAME": "Central \r\nNE", "DATELASTMODIFIED": "2003-04-10T00:00:00.000Z" }, "geometry": { "type": "Point", "coordinates": [ -76.942276761299993, 38.897034546699999 ] } },
{ "type": "Feature", "properties": { "OBJECTID": 62, "GIS_ID": "nhood_078", "NAME": "Lincoln Heights", "WEB_URL": "http:\/\/op.dc.gov", "LABEL_NAME": "Lincoln \r\nHeights", "DATELASTMODIFIED": "2003-04-10T00:00:00.000Z" }, "geometry": { "type": "Point", "coordinates": [ -76.931096555799996, 38.895805171299997 ] } },
{ "type": "Feature", "properties": { "OBJECTID": 63, "GIS_ID": "nhood_022", "NAME": "Capitol View", "WEB_URL": "http:\/\/op.dc.gov", "LABEL_NAME": "Capitol \r\nView", "DATELASTMODIFIED": "2003-04-10T00:00:00.000Z" }, "geometry": { "type": "Point", "coordinates": [ -76.9270859027, 38.889978450500003 ] } },
{ "type": "Feature", "properties": { "OBJECTID": 64, "GIS_ID": "nhood_082", "NAME": "Marshall Heights", "WEB_URL": "http:\/\/op.dc.gov", "LABEL_NAME": "Marshall \r\nHeights", "DATELASTMODIFIED": "2003-04-10T00:00:00.000Z" }, "geometry": { "type": "Point", "coordinates": [ -76.929121715799994, 38.884371942599998 ] } },
{ "type": "Feature", "properties": { "OBJECTID": 65, "GIS_ID": "nhood_046", "NAME": "Fort Davis Park", "WEB_URL": "http:\/\/op.dc.gov", "LABEL_NAME": "Fort \r\nDavis \r\nPark", "DATELASTMODIFIED": "2003-04-10T00:00:00.000Z" }, "geometry": { "type": "Point", "coordinates": [ -76.944669836200006, 38.868901187399999 ] } },
{ "type": "Feature", "properties": { "OBJECTID": 66, "GIS_ID": "nhood_042", "NAME": "Fairfax Village", "WEB_URL": "http:\/\/op.dc.gov", "LABEL_NAME": "Fairfax \r\nVillage", "DATELASTMODIFIED": "2003-04-10T00:00:00.000Z" }, "geometry": { "type": "Point", "coordinates": [ -76.951630062899994, 38.863452674100003 ] } },
{ "type": "Feature", "properties": { "OBJECTID": 67, "GIS_ID": "nhood_032", "NAME": "Golden Triangle", "WEB_URL": "http:\/\/op.dc.gov", "LABEL_NAME": "Golden Triangle", "DATELASTMODIFIED": "2007-03-02T00:00:00.000Z" }, "geometry": { "type": "Point", "coordinates": [ -77.041133855300004, 38.902951847600001 ] } },
{ "type": "Feature", "properties": { "OBJECTID": 68, "GIS_ID": "nhood_064", "NAME": "Hillcrest", "WEB_URL": "http:\/\/op.dc.gov", "LABEL_NAME": "Hillcrest", "DATELASTMODIFIED": "2003-04-10T00:00:00.000Z" }, "geometry": { "type": "Point", "coordinates": [ -76.960688251199997, 38.861794494 ] } },
{ "type": "Feature", "properties": { "OBJECTID": 69, "GIS_ID": "nhood_021", "NAME": "Capitol Hill", "WEB_URL": "http:\/\/op.dc.gov", "LABEL_NAME": "Capitol \r\nHill", "DATELASTMODIFIED": "2003-04-10T00:00:00.000Z" }, "geometry": { "type": "Point", "coordinates": [ -76.998477484899993, 38.883620756200003 ] } },
{ "type": "Feature", "properties": { "OBJECTID": 70, "GIS_ID": "nhood_107", "NAME": "Randle Highlands", "WEB_URL": "http:\/\/op.dc.gov", "LABEL_NAME": "Randle \r\nHighlands", "DATELASTMODIFIED": "2003-04-10T00:00:00.000Z" }, "geometry": { "type": "Point", "coordinates": [ -76.965803643699999, 38.869335652399997 ] } },
{ "type": "Feature", "properties": { "OBJECTID": 71, "GIS_ID": "nhood_007", "NAME": "Barry Farm", "WEB_URL": "http:\/\/op.dc.gov", "LABEL_NAME": "Barry \r\nFarm", "DATELASTMODIFIED": "2003-04-10T00:00:00.000Z" }, "geometry": { "type": "Point", "coordinates": [ -76.997280505600003, 38.859255263500003 ] } },
{ "type": "Feature", "properties": { "OBJECTID": 72, "GIS_ID": "nhood_030", "NAME": "Columbia Heights", "WEB_URL": "http:\/\/op.dc.gov", "LABEL_NAME": "Columbia \r\nHeights", "DATELASTMODIFIED": "2003-04-10T00:00:00.000Z" }, "geometry": { "type": "Point", "coordinates": [ -77.030586031499993, 38.928008289700003 ] } },
{ "type": "Feature", "properties": { "OBJECTID": 73, "GIS_ID": "nhood_122", "NAME": "Van Ness", "WEB_URL": "http:\/\/op.dc.gov", "LABEL_NAME": "Van Ness", "DATELASTMODIFIED": "2003-04-10T00:00:00.000Z" }, "geometry": { "type": "Point", "coordinates": [ -77.0661063899, 38.943390585 ] } },
{ "type": "Feature", "properties": { "OBJECTID": 74, "GIS_ID": "nhood_059", "NAME": "Georgetown Reservoir", "WEB_URL": "http:\/\/op.dc.gov", "LABEL_NAME": "Georgetown \r\nReservoir", "DATELASTMODIFIED": "2003-04-10T00:00:00.000Z" }, "geometry": { "type": "Point", "coordinates": [ -77.090677420299997, 38.909637127700002 ] } },
{ "type": "Feature", "properties": { "OBJECTID": 75, "GIS_ID": "nhood_104", "NAME": "Pleasant Hill", "WEB_URL": "http:\/\/op.dc.gov", "LABEL_NAME": "Pleasant \r\nHill", "DATELASTMODIFIED": "2003-04-10T00:00:00.000Z" }, "geometry": { "type": "Point", "coordinates": [ -77.004803544699996, 38.941079187600003 ] } },
{ "type": "Feature", "properties": { "OBJECTID": 76, "GIS_ID": "nhood_034", "NAME": "Deanwood", "WEB_URL": "http:\/\/op.dc.gov", "LABEL_NAME": "Deanwood", "DATELASTMODIFIED": "2003-04-10T00:00:00.000Z" }, "geometry": { "type": "Point", "coordinates": [ -76.932800887300004, 38.904107274099999 ] } },
{ "type": "Feature", "properties": { "OBJECTID": 77, "GIS_ID": "nhood_062", "NAME": "Greenway", "WEB_URL": "http:\/\/op.dc.gov", "LABEL_NAME": "Greenway", "DATELASTMODIFIED": "2003-04-10T00:00:00.000Z" }, "geometry": { "type": "Point", "coordinates": [ -76.960180925399996, 38.884787507200002 ] } },
{ "type": "Feature", "properties": { "OBJECTID": 78, "GIS_ID": "nhood_092", "NAME": "Naylor Gardens", "WEB_URL": "http:\/\/op.dc.gov", "LABEL_NAME": "Naylor \r\nGardens", "DATELASTMODIFIED": "2003-04-10T00:00:00.000Z" }, "geometry": { "type": "Point", "coordinates": [ -76.963046027100006, 38.856724428 ] } },
{ "type": "Feature", "properties": { "OBJECTID": 79, "GIS_ID": "nhood_065", "NAME": "Hillsdale", "WEB_URL": "http:\/\/op.dc.gov", "LABEL_NAME": "Hillsdale", "DATELASTMODIFIED": "2003-04-10T00:00:00.000Z" }, "geometry": { "type": "Point", "coordinates": [ -76.990561023599994, 38.858423356800003 ] } },
{ "type": "Feature", "properties": { "OBJECTID": 80, "GIS_ID": "nhood_131", "NAME": "Chinatown", "WEB_URL": "http:\/\/op.dc.gov", "LABEL_NAME": "Chinatown", "DATELASTMODIFIED": "2003-04-10T00:00:00.000Z" }, "geometry": { "type": "Point", "coordinates": [ -77.020135266699995, 38.899151198699997 ] } },
{ "type": "Feature", "properties": { "OBJECTID": 81, "GIS_ID": "nhood_133", "NAME": "South Central", "WEB_URL": "http:\/\/op.dc.gov", "LABEL_NAME": "South \r\nCentral", "DATELASTMODIFIED": "2003-04-10T00:00:00.000Z" }, "geometry": { "type": "Point", "coordinates": [ -76.965043115699999, 38.923985465500003 ] } },
{ "type": "Feature", "properties": { "OBJECTID": 82, "GIS_ID": "nhood_098", "NAME": "North Portal Estates", "WEB_URL": "http:\/\/op.dc.gov", "LABEL_NAME": "North \r\nPortal \r\nEstates", "DATELASTMODIFIED": "2003-04-10T00:00:00.000Z" }, "geometry": { "type": "Point", "coordinates": [ -77.040876650399994, 38.991764979199999 ] } },
{ "type": "Feature", "properties": { "OBJECTID": 83, "GIS_ID": "nhood_116", "NAME": "Takoma", "WEB_URL": "http:\/\/op.dc.gov", "LABEL_NAME": "Takoma", "DATELASTMODIFIED": "2003-04-10T00:00:00.000Z" }, "geometry": { "type": "Point", "coordinates": [ -77.021558299299997, 38.976461594500002 ] } },
{ "type": "Feature", "properties": { "OBJECTID": 84, "GIS_ID": "nhood_033", "NAME": "Crestwood", "WEB_URL": "http:\/\/op.dc.gov", "LABEL_NAME": "Crestwood", "DATELASTMODIFIED": "2003-04-10T00:00:00.000Z" }, "geometry": { "type": "Point", "coordinates": [ -77.041096891099997, 38.943327112200002 ] } },
{ "type": "Feature", "properties": { "OBJECTID": 85, "GIS_ID": "nhood_081", "NAME": "Manor Park", "WEB_URL": "http:\/\/op.dc.gov", "LABEL_NAME": "Manor \r\nPark", "DATELASTMODIFIED": "2003-04-10T00:00:00.000Z" }, "geometry": { "type": "Point", "coordinates": [ -77.012657120499995, 38.9620616443 ] } },
{ "type": "Feature", "properties": { "OBJECTID": 86, "GIS_ID": "nhood_063", "NAME": "Hawthorne", "WEB_URL": "http:\/\/op.dc.gov", "LABEL_NAME": "Hawthorne", "DATELASTMODIFIED": "2003-04-10T00:00:00.000Z" }, "geometry": { "type": "Point", "coordinates": [ -77.055934451599995, 38.980882564300003 ] } },
{ "type": "Feature", "properties": { "OBJECTID": 87, "GIS_ID": "nhood_086", "NAME": "Michigan Park", "WEB_URL": "http:\/\/op.dc.gov", "LABEL_NAME": "Michigan \r\nPark", "DATELASTMODIFIED": "2003-04-10T00:00:00.000Z" }, "geometry": { "type": "Point", "coordinates": [ -76.983771958, 38.946934141699998 ] } },
{ "type": "Feature", "properties": { "OBJECTID": 88, "GIS_ID": "nhood_129", "NAME": "Woodridge", "WEB_URL": "http:\/\/op.dc.gov", "LABEL_NAME": "Woodridge", "DATELASTMODIFIED": "2003-04-10T00:00:00.000Z" }, "geometry": { "type": "Point", "coordinates": [ -76.968639531199997, 38.934021032499999 ] } },
{ "type": "Feature", "properties": { "OBJECTID": 89, "GIS_ID": "nhood_041", "NAME": "Edgewood", "WEB_URL": "http:\/\/op.dc.gov", "LABEL_NAME": "Edgewood", "DATELASTMODIFIED": "2003-04-10T00:00:00.000Z" }, "geometry": { "type": "Point", "coordinates": [ -77.000739295100004, 38.925198873100001 ] } },
{ "type": "Feature", "properties": { "OBJECTID": 90, "GIS_ID": "nhood_012", "NAME": "Bloomingdale", "WEB_URL": "http:\/\/op.dc.gov", "LABEL_NAME": "Bloomingdale", "DATELASTMODIFIED": "2003-04-10T00:00:00.000Z" }, "geometry": { "type": "Point", "coordinates": [ -77.011159336399999, 38.918226429500002 ] } },
{ "type": "Feature", "properties": { "OBJECTID": 91, "GIS_ID": "nhood_048", "NAME": "Fort Lincoln", "WEB_URL": "http:\/\/op.dc.gov", "LABEL_NAME": "Fort \r\nLincoln", "DATELASTMODIFIED": "2003-04-10T00:00:00.000Z" }, "geometry": { "type": "Point", "coordinates": [ -76.954748782699994, 38.9236098071 ] } },
{ "type": "Feature", "properties": { "OBJECTID": 92, "GIS_ID": "nhood_075", "NAME": "Langdon", "WEB_URL": "http:\/\/op.dc.gov", "LABEL_NAME": "Langdon", "DATELASTMODIFIED": "2003-04-10T00:00:00.000Z" }, "geometry": { "type": "Point", "coordinates": [ -76.974689458200004, 38.924016958300001 ] } },
{ "type": "Feature", "properties": { "OBJECTID": 93, "GIS_ID": "nhood_119", "NAME": "Truxton Circle", "WEB_URL": "http:\/\/op.dc.gov", "LABEL_NAME": "Truxton \r\nCircle", "DATELASTMODIFIED": "2003-04-10T00:00:00.000Z" }, "geometry": { "type": "Point", "coordinates": [ -77.012394156400006, 38.909667306199999 ] } },
{ "type": "Feature", "properties": { "OBJECTID": 94, "GIS_ID": "nhood_118", "NAME": "Trinidad", "WEB_URL": "http:\/\/op.dc.gov", "LABEL_NAME": "Trinidad", "DATELASTMODIFIED": "2003-04-10T00:00:00.000Z" }, "geometry": { "type": "Point", "coordinates": [ -76.982736990500001, 38.908462454800002 ] } },
{ "type": "Feature", "properties": { "OBJECTID": 95, "GIS_ID": "nhood_089", "NAME": "Mount Vernon Square", "WEB_URL": "http:\/\/op.dc.gov", "LABEL_NAME": "Mount \r\nVernon \r\nSquare", "DATELASTMODIFIED": "2003-04-10T00:00:00.000Z" }, "geometry": { "type": "Point", "coordinates": [ -77.019884673500002, 38.90354791 ] } },
{ "type": "Feature", "properties": { "OBJECTID": 96, "GIS_ID": "nhood_055", "NAME": "George Washington University", "WEB_URL": "http:\/\/op.dc.gov", "LABEL_NAME": "George \r\nWashington \r\nUniversity", "DATELASTMODIFIED": "2003-04-10T00:00:00.000Z" }, "geometry": { "type": "Point", "coordinates": [ -77.047928443499998, 38.899627737499998 ] } },
{ "type": "Feature", "properties": { "OBJECTID": 97, "GIS_ID": "nhood_087", "NAME": "Monumental Core", "WEB_URL": "http:\/\/op.dc.gov", "LABEL_NAME": "Monumental \r\nCore", "DATELASTMODIFIED": "2003-04-10T00:00:00.000Z" }, "geometry": { "type": "Point", "coordinates": [ -77.0373344753, 38.884463058500003 ] } },
{ "type": "Feature", "properties": { "OBJECTID": 98, "GIS_ID": "nhood_112", "NAME": "Southwest Employment Area", "WEB_URL": "http:\/\/op.dc.gov", "LABEL_NAME": "Southwest \r\nEmployment \r\nArea", "DATELASTMODIFIED": "2003-04-10T00:00:00.000Z" }, "geometry": { "type": "Point", "coordinates": [ -77.020316871199995, 38.885016569199998 ] } },
{ "type": "Feature", "properties": { "OBJECTID": 99, "GIS_ID": "nhood_049", "NAME": "Fort McNair", "WEB_URL": "http:\/\/op.dc.gov", "LABEL_NAME": "Fort \r\nMcNair", "DATELASTMODIFIED": "2003-04-10T00:00:00.000Z" }, "geometry": { "type": "Point", "coordinates": [ -77.016438104499997, 38.866943321900003 ] } },
{ "type": "Feature", "properties": { "OBJECTID": 100, "GIS_ID": "nhood_096", "NAME": "North Cleveland Park", "WEB_URL": "http:\/\/op.dc.gov", "LABEL_NAME": "North \r\nCleveland \r\nPark", "DATELASTMODIFIED": "2003-04-10T00:00:00.000Z" }, "geometry": { "type": "Point", "coordinates": [ -77.071773563600004, 38.947878672400002 ] } },
{ "type": "Feature", "properties": { "OBJECTID": 101, "GIS_ID": "nhood_114", "NAME": "Spring Valley", "WEB_URL": "http:\/\/op.dc.gov", "LABEL_NAME": "Spring \r\nValley", "DATELASTMODIFIED": "2003-04-10T00:00:00.000Z" }, "geometry": { "type": "Point", "coordinates": [ -77.096724239799997, 38.939311383800003 ] } },
{ "type": "Feature", "properties": { "OBJECTID": 102, "GIS_ID": "nhood_028", "NAME": "Cleveland Park", "WEB_URL": "http:\/\/op.dc.gov", "LABEL_NAME": "Cleveland \r\nPark", "DATELASTMODIFIED": "2003-04-10T00:00:00.000Z" }, "geometry": { "type": "Point", "coordinates": [ -77.064401738100003, 38.936097873800001 ] } },
{ "type": "Feature", "properties": { "OBJECTID": 103, "GIS_ID": "nhood_060", "NAME": "Glover Park", "WEB_URL": "http:\/\/op.dc.gov", "LABEL_NAME": "Glover \r\nPark", "DATELASTMODIFIED": "2003-04-10T00:00:00.000Z" }, "geometry": { "type": "Point", "coordinates": [ -77.075737519, 38.921530822500003 ] } },
{ "type": "Feature", "properties": { "OBJECTID": 104, "GIS_ID": "nhood_050", "NAME": "Fort Stanton", "WEB_URL": "http:\/\/op.dc.gov", "LABEL_NAME": "Fort \r\nStanton", "DATELASTMODIFIED": "2003-04-10T00:00:00.000Z" }, "geometry": { "type": "Point", "coordinates": [ -76.980347704799996, 38.855657729900003 ] } },
{ "type": "Feature", "properties": { "OBJECTID": 105, "GIS_ID": "nhood_031", "NAME": "Congress Heights", "WEB_URL": "http:\/\/op.dc.gov", "LABEL_NAME": "Congress \r\nHeights", "DATELASTMODIFIED": "2003-04-10T00:00:00.000Z" }, "geometry": { "type": "Point", "coordinates": [ -76.997949928899999, 38.841077305299997 ] } },
{ "type": "Feature", "properties": { "OBJECTID": 106, "GIS_ID": "nhood_123", "NAME": "Washington Highlands", "WEB_URL": "http:\/\/op.dc.gov", "LABEL_NAME": "Washington \r\nHighlands", "DATELASTMODIFIED": "2003-04-10T00:00:00.000Z" }, "geometry": { "type": "Point", "coordinates": [ -76.995636205300002, 38.830237415 ] } },
{ "type": "Feature", "properties": { "OBJECTID": 107, "GIS_ID": "nhood_008", "NAME": "Bellevue", "WEB_URL": "http:\/\/op.dc.gov", "LABEL_NAME": "Bellevue", "DATELASTMODIFIED": "2003-04-10T00:00:00.000Z" }, "geometry": { "type": "Point", "coordinates": [ -77.009270756, 38.826952448 ] } },
{ "type": "Feature", "properties": { "OBJECTID": 108, "GIS_ID": "nhood_073", "NAME": "Knox Hill\/Buena Vista", "WEB_URL": "http:\/\/op.dc.gov", "LABEL_NAME": "Knox Hill\/\r\nBuena Vista", "DATELASTMODIFIED": "2003-04-10T00:00:00.000Z" }, "geometry": { "type": "Point", "coordinates": [ -76.967660032300003, 38.853688057 ] } },
{ "type": "Feature", "properties": { "OBJECTID": 109, "GIS_ID": "nhood_111", "NAME": "Shipley", "WEB_URL": "http:\/\/op.dc.gov", "LABEL_NAME": "Shipley", "DATELASTMODIFIED": "2003-04-10T00:00:00.000Z" }, "geometry": { "type": "Point", "coordinates": [ -76.972902340900006, 38.846860131500002 ] } },
{ "type": "Feature", "properties": { "OBJECTID": 110, "GIS_ID": "nhood_035", "NAME": "Douglass", "WEB_URL": "http:\/\/op.dc.gov", "LABEL_NAME": "Douglass", "DATELASTMODIFIED": "2003-04-10T00:00:00.000Z" }, "geometry": { "type": "Point", "coordinates": [ -76.979644565399994, 38.847571455400001 ] } },
{ "type": "Feature", "properties": { "OBJECTID": 111, "GIS_ID": "nhood_126", "NAME": "Woodland", "WEB_URL": "http:\/\/op.dc.gov", "LABEL_NAME": "Woodland", "DATELASTMODIFIED": "2003-04-10T00:00:00.000Z" }, "geometry": { "type": "Point", "coordinates": [ -76.973925609199995, 38.856554245600002 ] } },
{ "type": "Feature", "properties": { "OBJECTID": 112, "GIS_ID": "nhood_056", "NAME": "Garfield Heights", "WEB_URL": "http:\/\/op.dc.gov", "LABEL_NAME": "Garfield \r\nHeights", "DATELASTMODIFIED": "2003-04-10T00:00:00.000Z" }, "geometry": { "type": "Point", "coordinates": [ -76.972213267300006, 38.854085123600001 ] } },
{ "type": "Feature", "properties": { "OBJECTID": 113, "GIS_ID": "nhood_094", "NAME": "Near Southeast", "WEB_URL": "http:\/\/op.dc.gov", "LABEL_NAME": "Near \r\nSoutheast", "DATELASTMODIFIED": "2003-04-10T00:00:00.000Z" }, "geometry": { "type": "Point", "coordinates": [ -77.000627104100005, 38.878384470199997 ] } },
{ "type": "Feature", "properties": { "OBJECTID": 114, "GIS_ID": "nhood_038", "NAME": "Dupont Park", "WEB_URL": "http:\/\/op.dc.gov", "LABEL_NAME": "Dupont \r\nPark", "DATELASTMODIFIED": "2003-04-10T00:00:00.000Z" }, "geometry": { "type": "Point", "coordinates": [ -76.962818425, 38.872630406100001 ] } },
{ "type": "Feature", "properties": { "OBJECTID": 115, "GIS_ID": "nhood_120", "NAME": "Twining", "WEB_URL": "http:\/\/op.dc.gov", "LABEL_NAME": "Twining", "DATELASTMODIFIED": "2003-04-10T00:00:00.000Z" }, "geometry": { "type": "Point", "coordinates": [ -76.960847206400004, 38.875587905400003 ] } },
{ "type": "Feature", "properties": { "OBJECTID": 116, "GIS_ID": "nhood_043", "NAME": "Fairlawn", "WEB_URL": "http:\/\/op.dc.gov", "LABEL_NAME": "Fairlawn", "DATELASTMODIFIED": "2003-04-10T00:00:00.000Z" }, "geometry": { "type": "Point", "coordinates": [ -76.977451778299994, 38.869158496099999 ] } },
{ "type": "Feature", "properties": { "OBJECTID": 117, "GIS_ID": "nhood_101", "NAME": "Penn Branch", "WEB_URL": "http:\/\/op.dc.gov", "LABEL_NAME": "Penn \r\nBranch", "DATELASTMODIFIED": "2003-04-10T00:00:00.000Z" }, "geometry": { "type": "Point", "coordinates": [ -76.953423860499996, 38.8695601768 ] } },
{ "type": "Feature", "properties": { "OBJECTID": 118, "GIS_ID": "nhood_066", "NAME": "Historic Anacostia", "WEB_URL": "http:\/\/op.dc.gov", "LABEL_NAME": "Historic \r\nAnacostia", "DATELASTMODIFIED": "2003-04-10T00:00:00.000Z" }, "geometry": { "type": "Point", "coordinates": [ -76.984677642799994, 38.863185708400003 ] } },
{ "type": "Feature", "properties": { "OBJECTID": 119, "GIS_ID": "nhood_080", "NAME": "Logan Circle\/Shaw", "WEB_URL": "http:\/\/op.dc.gov", "LABEL_NAME": "Logan Circle\/\r\nShaw", "DATELASTMODIFIED": "2003-04-10T00:00:00.000Z" }, "geometry": { "type": "Point", "coordinates": [ -77.025340374300001, 38.909816310099998 ] } },
{ "type": "Feature", "properties": { "OBJECTID": 120, "GIS_ID": "nhood_023", "NAME": "Cardozo\/Shaw", "WEB_URL": "http:\/\/op.dc.gov", "LABEL_NAME": "Cardozo\/\r\nShaw", "DATELASTMODIFIED": "2003-04-10T00:00:00.000Z" }, "geometry": { "type": "Point", "coordinates": [ -77.027550110500002, 38.917168293800003 ] } },
{ "type": "Feature", "properties": { "OBJECTID": 121, "GIS_ID": "nhood_045", "NAME": "Forest Hills", "WEB_URL": "http:\/\/op.dc.gov", "LABEL_NAME": "Forest \r\nHills", "DATELASTMODIFIED": "2003-04-10T00:00:00.000Z" }, "geometry": { "type": "Point", "coordinates": [ -77.058461641199997, 38.946892714500002 ] } },
{ "type": "Feature", "properties": { "OBJECTID": 122, "GIS_ID": "nhood_053", "NAME": "Foxhall Village", "WEB_URL": "http:\/\/op.dc.gov", "LABEL_NAME": "Foxhall \r\nVillage", "DATELASTMODIFIED": "2003-04-10T00:00:00.000Z" }, "geometry": { "type": "Point", "coordinates": [ -77.084407131199995, 38.913247131799999 ] } },
{ "type": "Feature", "properties": { "OBJECTID": 123, "GIS_ID": "nhood_051", "NAME": "Fort Totten", "WEB_URL": "http:\/\/op.dc.gov", "LABEL_NAME": "Fort \r\nTotten", "DATELASTMODIFIED": "2003-04-10T00:00:00.000Z" }, "geometry": { "type": "Point", "coordinates": [ -77.008128086100001, 38.949429942899997 ] } },
{ "type": "Feature", "properties": { "OBJECTID": 124, "GIS_ID": "nhood_071", "NAME": "Kenilworth", "WEB_URL": "http:\/\/op.dc.gov", "LABEL_NAME": "Kenilworth", "DATELASTMODIFIED": "2003-04-10T00:00:00.000Z" }, "geometry": { "type": "Point", "coordinates": [ -76.938585983099998, 38.910678759600003 ] } },
{ "type": "Feature", "properties": { "OBJECTID": 125, "GIS_ID": "nhood_039", "NAME": "Eastland Gardens", "WEB_URL": "http:\/\/op.dc.gov", "LABEL_NAME": "Eastland \r\nGardens", "DATELASTMODIFIED": "2003-04-10T00:00:00.000Z" }, "geometry": { "type": "Point", "coordinates": [ -76.943070394100005, 38.905329402299998 ] } },
{ "type": "Feature", "properties": { "OBJECTID": 126, "GIS_ID": "nhood_047", "NAME": "Fort Dupont", "WEB_URL": "http:\/\/op.dc.gov", "LABEL_NAME": "Fort \r\nDupont", "DATELASTMODIFIED": "2003-04-10T00:00:00.000Z" }, "geometry": { "type": "Point", "coordinates": [ -76.950684584599998, 38.886016698799999 ] } },
{ "type": "Feature", "properties": { "OBJECTID": 127, "GIS_ID": "nhood_127", "NAME": "Woodland-Normanstone", "WEB_URL": "http:\/\/op.dc.gov", "LABEL_NAME": "Woodland-\r\nNormanstone", "DATELASTMODIFIED": "2003-04-10T00:00:00.000Z" }, "geometry": { "type": "Point", "coordinates": [ -77.060753468900003, 38.922850003800001 ] } },
{ "type": "Feature", "properties": { "OBJECTID": 128, "GIS_ID": "nhood_083", "NAME": "Mass. Ave. Heights", "WEB_URL": "http:\/\/op.dc.gov", "LABEL_NAME": "Mass. Ave. \r\nHeights", "DATELASTMODIFIED": "2003-04-10T00:00:00.000Z" }, "geometry": { "type": "Point", "coordinates": [ -77.070074618700005, 38.925398759399997 ] } },
{ "type": "Feature", "properties": { "OBJECTID": 129, "GIS_ID": "nhood_105", "NAME": "Pleasant Plains", "WEB_URL": "http:\/\/op.dc.gov", "LABEL_NAME": "Pleasant \r\nPlains", "DATELASTMODIFIED": "2003-04-10T00:00:00.000Z" }, "geometry": { "type": "Point", "coordinates": [ -77.023100999899995, 38.929472968699997 ] } },
{ "type": "Feature", "properties": { "OBJECTID": 130, "GIS_ID": "nhood_011", "NAME": "Benning Ridge", "WEB_URL": "http:\/\/op.dc.gov", "LABEL_NAME": "Benning \r\nRidge", "DATELASTMODIFIED": "2003-04-10T00:00:00.000Z" }, "geometry": { "type": "Point", "coordinates": [ -76.938202713699994, 38.8811615037 ] } },
{ "type": "Feature", "properties": { "OBJECTID": 131, "GIS_ID": "nhood_130", "NAME": "Penn Quarter", "WEB_URL": "http:\/\/op.dc.gov", "LABEL_NAME": "Penn \r\nQuarter", "DATELASTMODIFIED": "2003-04-10T00:00:00.000Z" }, "geometry": { "type": "Point", "coordinates": [ -77.022180649899994, 38.895370447 ] } }
]
}
