{"type":"FeatureCollection","features":[{"type":"Feature","properties":{"OBJECTID":1,"GIS_ID":"nhood_132","NAME":"Stronghold","WEB_URL":"http://op.dc.gov","LABEL_NAME":"Stronghold","DATELASTMODIFIED":"2003-04-10T00:00:00.000Z"},"geometry":{"type":"Point","coordinates":[-77.0077674102066,38.92577558252441]}},{"type":"Feature","properties":{"OBJECTID":2,"GIS_ID":"nhood_134","NAME":"Langston","WEB_URL":"http://op.dc.gov","LABEL_NAME":"Langston","DATELASTMODIFIED":"2003-04-10T00:00:00.000Z"},"geometry":{"type":"Point","coordinates":[-76.97236709081533,38.901336258068916]}},{"type":"Feature","properties":{"OBJECTID":3,"GIS_ID":"nhood_137","NAME":"Downtown East","WEB_URL":"http://op.dc.gov","LABEL_NAME":"Downtown \r\nEast","DATELASTMODIFIED":"2003-04-10T00:00:00.000Z"},"geometry":{"type":"Point","coordinates":[-77.01423369334651,38.895428165429735]}},{"type":"Feature","properties":{"OBJECTID":4,"GIS_ID":"nhood_029","NAME":"Colonial Village","WEB_URL":"http://op.dc.gov","LABEL_NAME":"Colonial \r\nVillage","DATELASTMODIFIED":"2003-04-10T00:00:00.000Z"},"geometry":{"type":"Point","coordinates":[-77.04109381168753,38.986789560996115]}},{"type":"Feature","properties":{"OBJECTID":5,"GIS_ID":"nhood_109","NAME":"Shepherd Park","WEB_URL":"http://op.dc.gov","LABEL_NAME":"Shepherd \r\nPark","DATELASTMODIFIED":"2003-04-10T00:00:00.000Z"},"geometry":{"type":"Point","coordinates":[-77.03212571097303,38.982980051936345]}},{"type":"Feature","properties":{"OBJECTID":6,"GIS_ID":"nhood_074","NAME":"Lamond Riggs","WEB_URL":"http://op.dc.gov","LABEL_NAME":"Lamond \r\nRiggs","DATELASTMODIFIED":"2003-04-10T00:00:00.000Z"},"geometry":{"type":"Point","coordinates":[-77.00644505186627,38.96506972916149]}},{"type":"Feature","properties":{"OBJECTID":7,"GIS_ID":"nhood_102","NAME":"Petworth","WEB_URL":"http://op.dc.gov","LABEL_NAME":"Petworth","DATELASTMODIFIED":"2003-04-10T00:00:00.000Z"},"geometry":{"type":"Point","coordinates":[-77.02401732816698,38.94303912822292]}},{"type":"Feature","properties":{"OBJECTID":8,"GIS_ID":"nhood_015","NAME":"Brightwood Park","WEB_URL":"http://op.dc.gov","LABEL_NAME":"Brightwood \r\nPark","DATELASTMODIFIED":"2003-04-10T00:00:00.000Z"},"geometry":{"type":"Point","coordinates":[-77.02487138764228,38.95574764800103]}},{"type":"Feature","properties":{"OBJECTID":9,"GIS_ID":"nhood_014","NAME":"Brightwood","WEB_URL":"http://op.dc.gov","LABEL_NAME":"Brightwood","DATELASTMODIFIED":"2003-04-10T00:00:00.000Z"},"geometry":{"type":"Point","coordinates":[-77.0268743128998,38.96637933971814]}},{"type":"Feature","properties":{"OBJECTID":10,"GIS_ID":"nhood_006","NAME":"Barnaby Woods","WEB_URL":"http://op.dc.gov","LABEL_NAME":"Barnaby \r\nWoods","DATELASTMODIFIED":"2003-04-10T00:00:00.000Z"},"geometry":{"type":"Point","coordinates":[-77.06017447830172,38.9754334348612]}},{"type":"Feature","properties":{"OBJECTID":11,"GIS_ID":"nhood_106","NAME":"Queens Chapel","WEB_URL":"http://op.dc.gov","LABEL_NAME":"Queens \r\nChapel","DATELASTMODIFIED":"2003-04-10T00:00:00.000Z"},"geometry":{"type":"Point","coordinates":[-76.9965905702771,38.95607001681367]}},{"type":"Feature","properties":{"OBJECTID":12,"GIS_ID":"nhood_097","NAME":"North Michigan Park","WEB_URL":"http://op.dc.gov","LABEL_NAME":"North \r\nMichigan \r\nPark","DATELASTMODIFIED":"2003-04-10T00:00:00.000Z"},"geometry":{"type":"Point","coordinates":[-76.99366629242556,38.945644159291156]}},{"type":"Feature","properties":{"OBJECTID":13,"GIS_ID":"nhood_121","NAME":"University Heights","WEB_URL":"http://op.dc.gov","LABEL_NAME":"University \r\nHeights","DATELASTMODIFIED":"2003-04-10T00:00:00.000Z"},"geometry":{"type":"Point","coordinates":[-76.99576150173392,38.93824876190486]}},{"type":"Feature","properties":{"OBJECTID":14,"GIS_ID":"nhood_016","NAME":"Brookland","WEB_URL":"http://op.dc.gov","LABEL_NAME":"Brookland","DATELASTMODIFIED":"2003-04-10T00:00:00.000Z"},"geometry":{"type":"Point","coordinates":[-76.98441358760304,38.93140439499243]}},{"type":"Feature","properties":{"OBJECTID":15,"GIS_ID":"nhood_138","NAME":"Skyland","WEB_URL":"http://op.dc.gov","LABEL_NAME":"Skyland","DATELASTMODIFIED":"2003-04-10T00:00:00.000Z"},"geometry":{"type":"Point","coordinates":[-76.97170298158721,38.86026695882554]}},{"type":"Feature","properties":{"OBJECTID":16,"GIS_ID":"nhood_135","NAME":"Lincoln Park","WEB_URL":"http://op.dc.gov","LABEL_NAME":"Lincoln Park","DATELASTMODIFIED":"2003-04-10T00:00:00.000Z"},"geometry":{"type":"Point","coordinates":[-76.98970995551636,38.8872106971694]}},{"type":"Feature","properties":{"OBJECTID":17,"GIS_ID":"nhood_136","NAME":"16th Street Heights","WEB_URL":"http://op.dc.gov","LABEL_NAME":"16th \r\nStreet \r\nHeights","DATELASTMODIFIED":"2003-04-10T00:00:00.000Z"},"geometry":{"type":"Point","coordinates":[-77.03355856392005,38.95031455125324]}},{"type":"Feature","properties":{"OBJECTID":18,"GIS_ID":"nhood_057","NAME":"Gateway","WEB_URL":"http://op.dc.gov","LABEL_NAME":"Gateway","DATELASTMODIFIED":"2003-04-10T00:00:00.000Z"},"geometry":{"type":"Point","coordinates":[-76.96384570973444,38.91975683721664]}},{"type":"Feature","properties":{"OBJECTID":19,"GIS_ID":"nhood_013","NAME":"Brentwood","WEB_URL":"http://op.dc.gov","LABEL_NAME":"Brentwood","DATELASTMODIFIED":"2003-04-10T00:00:00.000Z"},"geometry":{"type":"Point","coordinates":[-76.98703521741282,38.91897727650218]}},{"type":"Feature","properties":{"OBJECTID":20,"GIS_ID":"nhood_040","NAME":"Eckington","WEB_URL":"http://op.dc.gov","LABEL_NAME":"Eckington","DATELASTMODIFIED":"2003-04-10T00:00:00.000Z"},"geometry":{"type":"Point","coordinates":[-77.00042542625856,38.91520183747434]}},{"type":"Feature","properties":{"OBJECTID":21,"GIS_ID":"nhood_069","NAME":"Ivy City","WEB_URL":"http://op.dc.gov","LABEL_NAME":"Ivy \r\nCity","DATELASTMODIFIED":"2003-04-10T00:00:00.000Z"},"geometry":{"type":"Point","coordinates":[-76.99162688609057,38.91038947602096]}},{"type":"Feature","properties":{"OBJECTID":22,"GIS_ID":"nhood_005","NAME":"Arboretum","WEB_URL":"http://op.dc.gov","LABEL_NAME":"Arboretum","DATELASTMODIFIED":"2003-04-10T00:00:00.000Z"},"geometry":{"type":"Point","coordinates":[-76.97248974817897,38.91485975626041]}},{"type":"Feature","properties":{"OBJECTID":23,"GIS_ID":"nhood_024","NAME":"Carver","WEB_URL":"http://op.dc.gov","LABEL_NAME":"Carver","DATELASTMODIFIED":"2003-04-10T00:00:00.000Z"},"geometry":{"type":"Point","coordinates":[-76.97784979043001,38.902465255609776]}},{"type":"Feature","properties":{"OBJECTID":24,"GIS_ID":"nhood_095","NAME":"North Capitol Street","WEB_URL":"http://op.dc.gov","LABEL_NAME":"North \r\nCapitol \r\nStreet","DATELASTMODIFIED":"2003-04-10T00:00:00.000Z"},"geometry":{"type":"Point","coordinates":[-77.01127534795664,38.90253215958513]}},{"type":"Feature","properties":{"OBJECTID":25,"GIS_ID":"nhood_036","NAME":"Downtown","WEB_URL":"http://op.dc.gov","LABEL_NAME":"Downtown","DATELASTMODIFIED":"2003-04-10T00:00:00.000Z"},"geometry":{"type":"Point","coordinates":[-77.0291745178521,38.900526145614236]}},{"type":"Feature","properties":{"OBJECTID":26,"GIS_ID":"nhood_044","NAME":"Foggy Bottom","WEB_URL":"http://op.dc.gov","LABEL_NAME":"Foggy \r\nBottom","DATELASTMODIFIED":"2003-04-10T00:00:00.000Z"},"geometry":{"type":"Point","coordinates":[-77.05243626536245,38.89902171207632]}},{"type":"Feature","properties":{"OBJECTID":27,"GIS_ID":"nhood_125","NAME":"West End","WEB_URL":"http://op.dc.gov","LABEL_NAME":"West \r\nEnd","DATELASTMODIFIED":"2003-04-10T00:00:00.000Z"},"geometry":{"type":"Point","coordinates":[-77.05188246593175,38.90555033782051]}},{"type":"Feature","properties":{"OBJECTID":28,"GIS_ID":"nhood_058","NAME":"Georgetown","WEB_URL":"http://op.dc.gov","LABEL_NAME":"Georgetown","DATELASTMODIFIED":"2003-04-10T00:00:00.000Z"},"geometry":{"type":"Point","coordinates":[-77.06479560436642,38.90955580568956]}},{"type":"Feature","properties":{"OBJECTID":29,"GIS_ID":"nhood_017","NAME":"Burleith/Hillandale","WEB_URL":"http://op.dc.gov","LABEL_NAME":"Burleith/\r\nHillandale","DATELASTMODIFIED":"2003-04-10T00:00:00.000Z"},"geometry":{"type":"Point","coordinates":[-77.07456576076558,38.915002994740476]}},{"type":"Feature","properties":{"OBJECTID":30,"GIS_ID":"nhood_113","NAME":"Southwest/Waterfront","WEB_URL":"http://op.dc.gov","LABEL_NAME":"Southwest/\r\nWaterfront","DATELASTMODIFIED":"2003-04-10T00:00:00.000Z"},"geometry":{"type":"Point","coordinates":[-77.01690295848637,38.87790836075517]}},{"type":"Feature","properties":{"OBJECTID":31,"GIS_ID":"nhood_019","NAME":"Buzzard Point","WEB_URL":"http://op.dc.gov","LABEL_NAME":"Buzzard \r\nPoint","DATELASTMODIFIED":"2003-04-10T00:00:00.000Z"},"geometry":{"type":"Point","coordinates":[-77.01142454582654,38.86830011900482]}},{"type":"Feature","properties":{"OBJECTID":32,"GIS_ID":"nhood_027","NAME":"Chevy Chase","WEB_URL":"http://op.dc.gov","LABEL_NAME":"Chevy \r\nChase","DATELASTMODIFIED":"2003-04-10T00:00:00.000Z"},"geometry":{"type":"Point","coordinates":[-77.06647761286521,38.96314646707463]}},{"type":"Feature","properties":{"OBJECTID":33,"GIS_ID":"nhood_054","NAME":"Friendship Heights","WEB_URL":"http://op.dc.gov","LABEL_NAME":"Friendship \r\nHeights","DATELASTMODIFIED":"2003-04-10T00:00:00.000Z"},"geometry":{"type":"Point","coordinates":[-77.08385440725932,38.95690678503811]}},{"type":"Feature","properties":{"OBJECTID":34,"GIS_ID":"nhood_117","NAME":"Tenleytown","WEB_URL":"http://op.dc.gov","LABEL_NAME":"Tenleytown","DATELASTMODIFIED":"2003-04-10T00:00:00.000Z"},"geometry":{"type":"Point","coordinates":[-77.08016308981449,38.947127402651766]}},{"type":"Feature","properties":{"OBJECTID":35,"GIS_ID":"nhood_002","NAME":"American University Park","WEB_URL":"http://op.dc.gov","LABEL_NAME":"American \r\nUniversity \r\nPark","DATELASTMODIFIED":"2003-04-10T00:00:00.000Z"},"geometry":{"type":"Point","coordinates":[-77.09024957173519,38.947611636813065]}},{"type":"Feature","properties":{"OBJECTID":36,"GIS_ID":"nhood_025","NAME":"Cathedral Heights","WEB_URL":"http://op.dc.gov","LABEL_NAME":"Cathedral \r\nHeights","DATELASTMODIFIED":"2003-04-10T00:00:00.000Z"},"geometry":{"type":"Point","coordinates":[-77.0798604277302,38.93427241534092]}},{"type":"Feature","properties":{"OBJECTID":37,"GIS_ID":"nhood_085","NAME":"McLean Gardens","WEB_URL":"http://op.dc.gov","LABEL_NAME":"McLean \r\nGardens","DATELASTMODIFIED":"2003-04-10T00:00:00.000Z"},"geometry":{"type":"Point","coordinates":[-77.07529572388134,38.93615124618989]}},{"type":"Feature","properties":{"OBJECTID":38,"GIS_ID":"nhood_128","NAME":"Woodley Park","WEB_URL":"http://op.dc.gov","LABEL_NAME":"Woodley \r\nPark","DATELASTMODIFIED":"2003-04-10T00:00:00.000Z"},"geometry":{"type":"Point","coordinates":[-77.05748294972793,38.927265323965585]}},{"type":"Feature","properties":{"OBJECTID":39,"GIS_ID":"nhood_124","NAME":"Wesley Heights","WEB_URL":"http://op.dc.gov","LABEL_NAME":"Wesley \r\nHeights","DATELASTMODIFIED":"2003-04-10T00:00:00.000Z"},"geometry":{"type":"Point","coordinates":[-77.08832491138408,38.929980815374094]}},{"type":"Feature","properties":{"OBJECTID":40,"GIS_ID":"nhood_052","NAME":"Foxhall Crescents","WEB_URL":"http://op.dc.gov","LABEL_NAME":"Foxhall \r\nCrescents","DATELASTMODIFIED":"2003-04-10T00:00:00.000Z"},"geometry":{"type":"Point","coordinates":[-77.09276674542565,38.920486497913735]}},{"type":"Feature","properties":{"OBJECTID":41,"GIS_ID":"nhood_099","NAME":"Palisades","WEB_URL":"http://op.dc.gov","LABEL_NAME":"Palisades","DATELASTMODIFIED":"2003-04-10T00:00:00.000Z"},"geometry":{"type":"Point","coordinates":[-77.10352037648981,38.9298076678918]}},{"type":"Feature","properties":{"OBJECTID":42,"GIS_ID":"nhood_070","NAME":"Kalorama Heights","WEB_URL":"http://op.dc.gov","LABEL_NAME":"Kalorama \r\nHeights","DATELASTMODIFIED":"2003-04-10T00:00:00.000Z"},"geometry":{"type":"Point","coordinates":[-77.0511947083741,38.91566043818068]}},{"type":"Feature","properties":{"OBJECTID":43,"GIS_ID":"nhood_001","NAME":"Adams Morgan","WEB_URL":"http://op.dc.gov","LABEL_NAME":"Adams \r\nMorgan","DATELASTMODIFIED":"2003-04-10T00:00:00.000Z"},"geometry":{"type":"Point","coordinates":[-77.04239110687888,38.920472198513714]}},{"type":"Feature","properties":{"OBJECTID":44,"GIS_ID":"nhood_037","NAME":"Dupont Circle","WEB_URL":"http://op.dc.gov","LABEL_NAME":"Dupont \r\nCircle","DATELASTMODIFIED":"2003-04-10T00:00:00.000Z"},"geometry":{"type":"Point","coordinates":[-77.04098370545809,38.912128102421256]}},{"type":"Feature","properties":{"OBJECTID":45,"GIS_ID":"nhood_076","NAME":"Lanier Heights","WEB_URL":"http://op.dc.gov","LABEL_NAME":"Lanier \r\nHeights","DATELASTMODIFIED":"2003-04-10T00:00:00.000Z"},"geometry":{"type":"Point","coordinates":[-77.04269354435883,38.92524883029338]}},{"type":"Feature","properties":{"OBJECTID":46,"GIS_ID":"nhood_088","NAME":"Mount Pleasant","WEB_URL":"http://op.dc.gov","LABEL_NAME":"Mount \r\nPleasant","DATELASTMODIFIED":"2003-04-10T00:00:00.000Z"},"geometry":{"type":"Point","coordinates":[-77.04065588741196,38.93174149197538]}},{"type":"Feature","properties":{"OBJECTID":47,"GIS_ID":"nhood_100","NAME":"Park View","WEB_URL":"http://op.dc.gov","LABEL_NAME":"Park \r\nView","DATELASTMODIFIED":"2003-04-10T00:00:00.000Z"},"geometry":{"type":"Point","coordinates":[-77.02144426862472,38.934604257019764]}},{"type":"Feature","properties":{"OBJECTID":48,"GIS_ID":"nhood_077","NAME":"Le Droit Park","WEB_URL":"http://op.dc.gov","LABEL_NAME":"Le Droit \r\nPark","DATELASTMODIFIED":"2003-04-10T00:00:00.000Z"},"geometry":{"type":"Point","coordinates":[-77.01760455069555,38.91683159569855]}},{"type":"Feature","properties":{"OBJECTID":49,"GIS_ID":"nhood_068","NAME":"Howard University","WEB_URL":"http://op.dc.gov","LABEL_NAME":"Howard \r\nUniversity","DATELASTMODIFIED":"2003-04-10T00:00:00.000Z"},"geometry":{"type":"Point","coordinates":[-77.01961026604755,38.92235481669713]}},{"type":"Feature","properties":{"OBJECTID":50,"GIS_ID":"nhood_093","NAME":"Near Northeast","WEB_URL":"http://op.dc.gov","LABEL_NAME":"Near \r\nNortheast","DATELASTMODIFIED":"2003-04-10T00:00:00.000Z"},"geometry":{"type":"Point","coordinates":[-76.99973389187906,38.90237479048312]}},{"type":"Feature","properties":{"OBJECTID":51,"GIS_ID":"nhood_115","NAME":"Stanton Park","WEB_URL":"http://op.dc.gov","LABEL_NAME":"Stanton \r\nPark","DATELASTMODIFIED":"2003-04-10T00:00:00.000Z"},"geometry":{"type":"Point","coordinates":[-76.9942417153158,38.89489781845003]}},{"type":"Feature","properties":{"OBJECTID":52,"GIS_ID":"nhood_072","NAME":"Kingman Park","WEB_URL":"http://op.dc.gov","LABEL_NAME":"Kingman \r\nPark","DATELASTMODIFIED":"2003-04-10T00:00:00.000Z"},"geometry":{"type":"Point","coordinates":[-76.97843657588342,38.89488656736724]}},{"type":"Feature","properties":{"OBJECTID":53,"GIS_ID":"nhood_079","NAME":"Hill East","WEB_URL":"http://op.dc.gov","LABEL_NAME":"Hill East","DATELASTMODIFIED":"2003-04-10T00:00:00.000Z"},"geometry":{"type":"Point","coordinates":[-76.97995066236217,38.88333000364372]}},{"type":"Feature","properties":{"OBJECTID":54,"GIS_ID":"nhood_091","NAME":"Navy Yard","WEB_URL":"http://op.dc.gov","LABEL_NAME":"Navy \r\nYard","DATELASTMODIFIED":"2003-04-10T00:00:00.000Z"},"geometry":{"type":"Point","coordinates":[-76.99846164625666,38.87426841343141]}},{"type":"Feature","properties":{"OBJECTID":55,"GIS_ID":"nhood_084","NAME":"Mayfair","WEB_URL":"http://op.dc.gov","LABEL_NAME":"Mayfair","DATELASTMODIFIED":"2003-04-10T00:00:00.000Z"},"geometry":{"type":"Point","coordinates":[-76.95129459304076,38.90111564359631]}},{"type":"Feature","properties":{"OBJECTID":56,"GIS_ID":"nhood_108","NAME":"River Terrace","WEB_URL":"http://op.dc.gov","LABEL_NAME":"River \r\nTerrace","DATELASTMODIFIED":"2003-04-10T00:00:00.000Z"},"geometry":{"type":"Point","coordinates":[-76.95768065730482,38.893704547244916]}},{"type":"Feature","properties":{"OBJECTID":57,"GIS_ID":"nhood_018","NAME":"Burrville","WEB_URL":"http://op.dc.gov","LABEL_NAME":"Burrville","DATELASTMODIFIED":"2003-04-10T00:00:00.000Z"},"geometry":{"type":"Point","coordinates":[-76.92180246916462,38.90024298823647]}},{"type":"Feature","properties":{"OBJECTID":58,"GIS_ID":"nhood_090","NAME":"NE Boundary","WEB_URL":"http://op.dc.gov","LABEL_NAME":"NE \r\nBoundary","DATELASTMODIFIED":"2003-04-10T00:00:00.000Z"},"geometry":{"type":"Point","coordinates":[-76.91738942775073,38.895450818585836]}},{"type":"Feature","properties":{"OBJECTID":59,"GIS_ID":"nhood_009","NAME":"Benning","WEB_URL":"http://op.dc.gov","LABEL_NAME":"Benning","DATELASTMODIFIED":"2003-04-10T00:00:00.000Z"},"geometry":{"type":"Point","coordinates":[-76.94888362596508,38.8918848983153]}},{"type":"Feature","properties":{"OBJECTID":60,"GIS_ID":"nhood_061","NAME":"Grant Park","WEB_URL":"http://op.dc.gov","LABEL_NAME":"Grant \r\nPark","DATELASTMODIFIED":"2003-04-10T00:00:00.000Z"},"geometry":{"type":"Point","coordinates":[-76.92063843666463,38.892706500203765]}},{"type":"Feature","properties":{"OBJECTID":61,"GIS_ID":"nhood_026","NAME":"Central NE","WEB_URL":"http://op.dc.gov","LABEL_NAME":"Central \r\nNE","DATELASTMODIFIED":"2003-04-10T00:00:00.000Z"},"geometry":{"type":"Point","coordinates":[-76.94227676132307,38.89703454669096]}},{"type":"Feature","properties":{"OBJECTID":62,"GIS_ID":"nhood_078","NAME":"Lincoln Heights","WEB_URL":"http://op.dc.gov","LABEL_NAME":"Lincoln \r\nHeights","DATELASTMODIFIED":"2003-04-10T00:00:00.000Z"},"geometry":{"type":"Point","coordinates":[-76.9310965557953,38.89580517127021]}},{"type":"Feature","properties":{"OBJECTID":63,"GIS_ID":"nhood_022","NAME":"Capitol View","WEB_URL":"http://op.dc.gov","LABEL_NAME":"Capitol \r\nView","DATELASTMODIFIED":"2003-04-10T00:00:00.000Z"},"geometry":{"type":"Point","coordinates":[-76.92708590272986,38.88997845052975]}},{"type":"Feature","properties":{"OBJECTID":64,"GIS_ID":"nhood_082","NAME":"Marshall Heights","WEB_URL":"http://op.dc.gov","LABEL_NAME":"Marshall \r\nHeights","DATELASTMODIFIED":"2003-04-10T00:00:00.000Z"},"geometry":{"type":"Point","coordinates":[-76.9291217158443,38.88437194262267]}},{"type":"Feature","properties":{"OBJECTID":65,"GIS_ID":"nhood_046","NAME":"Fort Davis Park","WEB_URL":"http://op.dc.gov","LABEL_NAME":"Fort \r\nDavis \r\nPark","DATELASTMODIFIED":"2003-04-10T00:00:00.000Z"},"geometry":{"type":"Point","coordinates":[-76.94466983618473,38.86890118735893]}},{"type":"Feature","properties":{"OBJECTID":66,"GIS_ID":"nhood_042","NAME":"Fairfax Village","WEB_URL":"http://op.dc.gov","LABEL_NAME":"Fairfax \r\nVillage","DATELASTMODIFIED":"2003-04-10T00:00:00.000Z"},"geometry":{"type":"Point","coordinates":[-76.95163006291861,38.86345267410767]}},{"type":"Feature","properties":{"OBJECTID":67,"GIS_ID":"nhood_032","NAME":"Golden Triangle","WEB_URL":"http://op.dc.gov","LABEL_NAME":"Golden Triangle","DATELASTMODIFIED":"2007-03-02T00:00:00.000Z"},"geometry":{"type":"Point","coordinates":[-77.04113385532666,38.902951847572844]}},{"type":"Feature","properties":{"OBJECTID":68,"GIS_ID":"nhood_064","NAME":"Hillcrest","WEB_URL":"http://op.dc.gov","LABEL_NAME":"Hillcrest","DATELASTMODIFIED":"2003-04-10T00:00:00.000Z"},"geometry":{"type":"Point","coordinates":[-76.96068825123437,38.861794493982174]}},{"type":"Feature","properties":{"OBJECTID":69,"GIS_ID":"nhood_021","NAME":"Capitol Hill","WEB_URL":"http://op.dc.gov","LABEL_NAME":"Capitol \r\nHill","DATELASTMODIFIED":"2003-04-10T00:00:00.000Z"},"geometry":{"type":"Point","coordinates":[-76.99847748485064,38.88362075620049]}},{"type":"Feature","properties":{"OBJECTID":70,"GIS_ID":"nhood_107","NAME":"Randle Highlands","WEB_URL":"http://op.dc.gov","LABEL_NAME":"Randle \r\nHighlands","DATELASTMODIFIED":"2003-04-10T00:00:00.000Z"},"geometry":{"type":"Point","coordinates":[-76.9658036436656,38.86933565244976]}},{"type":"Feature","properties":{"OBJECTID":71,"GIS_ID":"nhood_007","NAME":"Barry Farm","WEB_URL":"http://op.dc.gov","LABEL_NAME":"Barry \r\nFarm","DATELASTMODIFIED":"2003-04-10T00:00:00.000Z"},"geometry":{"type":"Point","coordinates":[-76.99728050562214,38.859255263491534]}},{"type":"Feature","properties":{"OBJECTID":72,"GIS_ID":"nhood_030","NAME":"Columbia Heights","WEB_URL":"http://op.dc.gov","LABEL_NAME":"Columbia \r\nHeights","DATELASTMODIFIED":"2003-04-10T00:00:00.000Z"},"geometry":{"type":"Point","coordinates":[-77.03058603150897,38.92800828972706]}},{"type":"Feature","properties":{"OBJECTID":73,"GIS_ID":"nhood_122","NAME":"Van Ness","WEB_URL":"http://op.dc.gov","LABEL_NAME":"Van Ness","DATELASTMODIFIED":"2003-04-10T00:00:00.000Z"},"geometry":{"type":"Point","coordinates":[-77.06610638993936,38.94339058498906]}},{"type":"Feature","properties":{"OBJECTID":74,"GIS_ID":"nhood_059","NAME":"Georgetown Reservoir","WEB_URL":"http://op.dc.gov","LABEL_NAME":"Georgetown \r\nReservoir","DATELASTMODIFIED":"2003-04-10T00:00:00.000Z"},"geometry":{"type":"Point","coordinates":[-77.09067742028715,38.90963712771455]}},{"type":"Feature","properties":{"OBJECTID":75,"GIS_ID":"nhood_104","NAME":"Pleasant Hill","WEB_URL":"http://op.dc.gov","LABEL_NAME":"Pleasant \r\nHill","DATELASTMODIFIED":"2003-04-10T00:00:00.000Z"},"geometry":{"type":"Point","coordinates":[-77.00480354473595,38.94107918757445]}},{"type":"Feature","properties":{"OBJECTID":76,"GIS_ID":"nhood_034","NAME":"Deanwood","WEB_URL":"http://op.dc.gov","LABEL_NAME":"Deanwood","DATELASTMODIFIED":"2003-04-10T00:00:00.000Z"},"geometry":{"type":"Point","coordinates":[-76.93280088733603,38.904107274131896]}},{"type":"Feature","properties":{"OBJECTID":77,"GIS_ID":"nhood_062","NAME":"Greenway","WEB_URL":"http://op.dc.gov","LABEL_NAME":"Greenway","DATELASTMODIFIED":"2003-04-10T00:00:00.000Z"},"geometry":{"type":"Point","coordinates":[-76.96018092542619,38.884787507231195]}},{"type":"Feature","properties":{"OBJECTID":78,"GIS_ID":"nhood_092","NAME":"Naylor Gardens","WEB_URL":"http://op.dc.gov","LABEL_NAME":"Naylor \r\nGardens","DATELASTMODIFIED":"2003-04-10T00:00:00.000Z"},"geometry":{"type":"Point","coordinates":[-76.96304602706665,38.856724428019604]}},{"type":"Feature","properties":{"OBJECTID":79,"GIS_ID":"nhood_065","NAME":"Hillsdale","WEB_URL":"http://op.dc.gov","LABEL_NAME":"Hillsdale","DATELASTMODIFIED":"2003-04-10T00:00:00.000Z"},"geometry":{"type":"Point","coordinates":[-76.99056102362486,38.85842335678119]}},{"type":"Feature","properties":{"OBJECTID":80,"GIS_ID":"nhood_131","NAME":"Chinatown","WEB_URL":"http://op.dc.gov","LABEL_NAME":"Chinatown","DATELASTMODIFIED":"2003-04-10T00:00:00.000Z"},"geometry":{"type":"Point","coordinates":[-77.02013526672475,38.89915119868191]}},{"type":"Feature","properties":{"OBJECTID":81,"GIS_ID":"nhood_133","NAME":"South Central","WEB_URL":"http://op.dc.gov","LABEL_NAME":"South \r\nCentral","DATELASTMODIFIED":"2003-04-10T00:00:00.000Z"},"geometry":{"type":"Point","coordinates":[-76.96504311566369,38.92398546549666]}},{"type":"Feature","properties":{"OBJECTID":82,"GIS_ID":"nhood_098","NAME":"North Portal Estates","WEB_URL":"http://op.dc.gov","LABEL_NAME":"North \r\nPortal \r\nEstates","DATELASTMODIFIED":"2003-04-10T00:00:00.000Z"},"geometry":{"type":"Point","coordinates":[-77.04087665039943,38.991764979167236]}},{"type":"Feature","properties":{"OBJECTID":83,"GIS_ID":"nhood_116","NAME":"Takoma","WEB_URL":"http://op.dc.gov","LABEL_NAME":"Takoma","DATELASTMODIFIED":"2003-04-10T00:00:00.000Z"},"geometry":{"type":"Point","coordinates":[-77.02155829933825,38.97646159454482]}},{"type":"Feature","properties":{"OBJECTID":84,"GIS_ID":"nhood_033","NAME":"Crestwood","WEB_URL":"http://op.dc.gov","LABEL_NAME":"Crestwood","DATELASTMODIFIED":"2003-04-10T00:00:00.000Z"},"geometry":{"type":"Point","coordinates":[-77.041096891085,38.94332711224626]}},{"type":"Feature","properties":{"OBJECTID":85,"GIS_ID":"nhood_081","NAME":"Manor Park","WEB_URL":"http://op.dc.gov","LABEL_NAME":"Manor \r\nPark","DATELASTMODIFIED":"2003-04-10T00:00:00.000Z"},"geometry":{"type":"Point","coordinates":[-77.012657120515,38.96206164434112]}},{"type":"Feature","properties":{"OBJECTID":86,"GIS_ID":"nhood_063","NAME":"Hawthorne","WEB_URL":"http://op.dc.gov","LABEL_NAME":"Hawthorne","DATELASTMODIFIED":"2003-04-10T00:00:00.000Z"},"geometry":{"type":"Point","coordinates":[-77.0559344515967,38.98088256433762]}},{"type":"Feature","properties":{"OBJECTID":87,"GIS_ID":"nhood_086","NAME":"Michigan Park","WEB_URL":"http://op.dc.gov","LABEL_NAME":"Michigan \r\nPark","DATELASTMODIFIED":"2003-04-10T00:00:00.000Z"},"geometry":{"type":"Point","coordinates":[-76.98377195796877,38.94693414169424]}},{"type":"Feature","properties":{"OBJECTID":88,"GIS_ID":"nhood_129","NAME":"Woodridge","WEB_URL":"http://op.dc.gov","LABEL_NAME":"Woodridge","DATELASTMODIFIED":"2003-04-10T00:00:00.000Z"},"geometry":{"type":"Point","coordinates":[-76.96863953124206,38.93402103249319]}},{"type":"Feature","properties":{"OBJECTID":89,"GIS_ID":"nhood_041","NAME":"Edgewood","WEB_URL":"http://op.dc.gov","LABEL_NAME":"Edgewood","DATELASTMODIFIED":"2003-04-10T00:00:00.000Z"},"geometry":{"type":"Point","coordinates":[-77.00073929508547,38.925198873104534]}},{"type":"Feature","properties":{"OBJECTID":90,"GIS_ID":"nhood_012","NAME":"Bloomingdale","WEB_URL":"http://op.dc.gov","LABEL_NAME":"Bloomingdale","DATELASTMODIFIED":"2003-04-10T00:00:00.000Z"},"geometry":{"type":"Point","coordinates":[-77.01115933643987,38.91822642952962]}},{"type":"Feature","properties":{"OBJECTID":91,"GIS_ID":"nhood_048","NAME":"Fort Lincoln","WEB_URL":"http://op.dc.gov","LABEL_NAME":"Fort \r\nLincoln","DATELASTMODIFIED":"2003-04-10T00:00:00.000Z"},"geometry":{"type":"Point","coordinates":[-76.95474878272576,38.923609807069695]}},{"type":"Feature","properties":{"OBJECTID":92,"GIS_ID":"nhood_075","NAME":"Langdon","WEB_URL":"http://op.dc.gov","LABEL_NAME":"Langdon","DATELASTMODIFIED":"2003-04-10T00:00:00.000Z"},"geometry":{"type":"Point","coordinates":[-76.97468945823928,38.9240169583364]}},{"type":"Feature","properties":{"OBJECTID":93,"GIS_ID":"nhood_119","NAME":"Truxton Circle","WEB_URL":"http://op.dc.gov","LABEL_NAME":"Truxton \r\nCircle","DATELASTMODIFIED":"2003-04-10T00:00:00.000Z"},"geometry":{"type":"Point","coordinates":[-77.01239415642594,38.90966730615678]}},{"type":"Feature","properties":{"OBJECTID":94,"GIS_ID":"nhood_118","NAME":"Trinidad","WEB_URL":"http://op.dc.gov","LABEL_NAME":"Trinidad","DATELASTMODIFIED":"2003-04-10T00:00:00.000Z"},"geometry":{"type":"Point","coordinates":[-76.98273699045667,38.90846245479221]}},{"type":"Feature","properties":{"OBJECTID":95,"GIS_ID":"nhood_089","NAME":"Mount Vernon Square","WEB_URL":"http://op.dc.gov","LABEL_NAME":"Mount \r\nVernon \r\nSquare","DATELASTMODIFIED":"2003-04-10T00:00:00.000Z"},"geometry":{"type":"Point","coordinates":[-77.01988467352479,38.903547909955996]}},{"type":"Feature","properties":{"OBJECTID":96,"GIS_ID":"nhood_055","NAME":"George Washington University","WEB_URL":"http://op.dc.gov","LABEL_NAME":"George \r\nWashington \r\nUniversity","DATELASTMODIFIED":"2003-04-10T00:00:00.000Z"},"geometry":{"type":"Point","coordinates":[-77.04792844348081,38.89962773751695]}},{"type":"Feature","properties":{"OBJECTID":97,"GIS_ID":"nhood_087","NAME":"Monumental Core","WEB_URL":"http://op.dc.gov","LABEL_NAME":"Monumental \r\nCore","DATELASTMODIFIED":"2003-04-10T00:00:00.000Z"},"geometry":{"type":"Point","coordinates":[-77.03733447530519,38.884463058461535]}},{"type":"Feature","properties":{"OBJECTID":98,"GIS_ID":"nhood_112","NAME":"Southwest Employment Area","WEB_URL":"http://op.dc.gov","LABEL_NAME":"Southwest \r\nEmployment \r\nArea","DATELASTMODIFIED":"2003-04-10T00:00:00.000Z"},"geometry":{"type":"Point","coordinates":[-77.02031687123363,38.88501656916561]}},{"type":"Feature","properties":{"OBJECTID":99,"GIS_ID":"nhood_049","NAME":"Fort McNair","WEB_URL":"http://op.dc.gov","LABEL_NAME":"Fort \r\nMcNair","DATELASTMODIFIED":"2003-04-10T00:00:00.000Z"},"geometry":{"type":"Point","coordinates":[-77.01643810454769,38.866943321918704]}},{"type":"Feature","properties":{"OBJECTID":100,"GIS_ID":"nhood_096","NAME":"North Cleveland Park","WEB_URL":"http://op.dc.gov","LABEL_NAME":"North \r\nCleveland \r\nPark","DATELASTMODIFIED":"2003-04-10T00:00:00.000Z"},"geometry":{"type":"Point","coordinates":[-77.0717735636203,38.94787867243099]}},{"type":"Feature","properties":{"OBJECTID":101,"GIS_ID":"nhood_114","NAME":"Spring Valley","WEB_URL":"http://op.dc.gov","LABEL_NAME":"Spring \r\nValley","DATELASTMODIFIED":"2003-04-10T00:00:00.000Z"},"geometry":{"type":"Point","coordinates":[-77.09672423981804,38.9393113837896]}},{"type":"Feature","properties":{"OBJECTID":102,"GIS_ID":"nhood_028","NAME":"Cleveland Park","WEB_URL":"http://op.dc.gov","LABEL_NAME":"Cleveland \r\nPark","DATELASTMODIFIED":"2003-04-10T00:00:00.000Z"},"geometry":{"type":"Point","coordinates":[-77.0644017381068,38.936097873837]}},{"type":"Feature","properties":{"OBJECTID":103,"GIS_ID":"nhood_060","NAME":"Glover Park","WEB_URL":"http://op.dc.gov","LABEL_NAME":"Glover \r\nPark","DATELASTMODIFIED":"2003-04-10T00:00:00.000Z"},"geometry":{"type":"Point","coordinates":[-77.07573751898772,38.92153082245584]}},{"type":"Feature","properties":{"OBJECTID":104,"GIS_ID":"nhood_050","NAME":"Fort Stanton","WEB_URL":"http://op.dc.gov","LABEL_NAME":"Fort \r\nStanton","DATELASTMODIFIED":"2003-04-10T00:00:00.000Z"},"geometry":{"type":"Point","coordinates":[-76.9803477047982,38.85565772985083]}},{"type":"Feature","properties":{"OBJECTID":105,"GIS_ID":"nhood_031","NAME":"Congress Heights","WEB_URL":"http://op.dc.gov","LABEL_NAME":"Congress \r\nHeights","DATELASTMODIFIED":"2003-04-10T00:00:00.000Z"},"geometry":{"type":"Point","coordinates":[-76.99794992892741,38.84107730532857]}},{"type":"Feature","properties":{"OBJECTID":106,"GIS_ID":"nhood_123","NAME":"Washington Highlands","WEB_URL":"http://op.dc.gov","LABEL_NAME":"Washington \r\nHighlands","DATELASTMODIFIED":"2003-04-10T00:00:00.000Z"},"geometry":{"type":"Point","coordinates":[-76.9956362052841,38.83023741502081]}},{"type":"Feature","properties":{"OBJECTID":107,"GIS_ID":"nhood_008","NAME":"Bellevue","WEB_URL":"http://op.dc.gov","LABEL_NAME":"Bellevue","DATELASTMODIFIED":"2003-04-10T00:00:00.000Z"},"geometry":{"type":"Point","coordinates":[-77.0092707559791,38.826952447961744]}},{"type":"Feature","properties":{"OBJECTID":108,"GIS_ID":"nhood_073","NAME":"Knox Hill/Buena Vista","WEB_URL":"http://op.dc.gov","LABEL_NAME":"Knox Hill/\r\nBuena Vista","DATELASTMODIFIED":"2003-04-10T00:00:00.000Z"},"geometry":{"type":"Point","coordinates":[-76.96766003225294,38.85368805704817]}},{"type":"Feature","properties":{"OBJECTID":109,"GIS_ID":"nhood_111","NAME":"Shipley","WEB_URL":"http://op.dc.gov","LABEL_NAME":"Shipley","DATELASTMODIFIED":"2003-04-10T00:00:00.000Z"},"geometry":{"type":"Point","coordinates":[-76.9729023408822,38.84686013153559]}},{"type":"Feature","properties":{"OBJECTID":110,"GIS_ID":"nhood_035","NAME":"Douglass","WEB_URL":"http://op.dc.gov","LABEL_NAME":"Douglass","DATELASTMODIFIED":"2003-04-10T00:00:00.000Z"},"geometry":{"type":"Point","coordinates":[-76.97964456539421,38.847571455385925]}},{"type":"Feature","properties":{"OBJECTID":111,"GIS_ID":"nhood_126","NAME":"Woodland","WEB_URL":"http://op.dc.gov","LABEL_NAME":"Woodland","DATELASTMODIFIED":"2003-04-10T00:00:00.000Z"},"geometry":{"type":"Point","coordinates":[-76.97392560915743,38.856554245581094]}},{"type":"Feature","properties":{"OBJECTID":112,"GIS_ID":"nhood_056","NAME":"Garfield Heights","WEB_URL":"http://op.dc.gov","LABEL_NAME":"Garfield \r\nHeights","DATELASTMODIFIED":"2003-04-10T00:00:00.000Z"},"geometry":{"type":"Point","coordinates":[-76.97221326729978,38.854085123595404]}},{"type":"Feature","properties":{"OBJECTID":113,"GIS_ID":"nhood_094","NAME":"Near Southeast","WEB_URL":"http://op.dc.gov","LABEL_NAME":"Near \r\nSoutheast","DATELASTMODIFIED":"2003-04-10T00:00:00.000Z"},"geometry":{"type":"Point","coordinates":[-77.00062710407686,38.87838447023769]}},{"type":"Feature","properties":{"OBJECTID":114,"GIS_ID":"nhood_038","NAME":"Dupont Park","WEB_URL":"http://op.dc.gov","LABEL_NAME":"Dupont \r\nPark","DATELASTMODIFIED":"2003-04-10T00:00:00.000Z"},"geometry":{"type":"Point","coordinates":[-76.96281842500113,38.87263040605097]}},{"type":"Feature","properties":{"OBJECTID":115,"GIS_ID":"nhood_120","NAME":"Twining","WEB_URL":"http://op.dc.gov","LABEL_NAME":"Twining","DATELASTMODIFIED":"2003-04-10T00:00:00.000Z"},"geometry":{"type":"Point","coordinates":[-76.96084720641475,38.875587905394426]}},{"type":"Feature","properties":{"OBJECTID":116,"GIS_ID":"nhood_043","NAME":"Fairlawn","WEB_URL":"http://op.dc.gov","LABEL_NAME":"Fairlawn","DATELASTMODIFIED":"2003-04-10T00:00:00.000Z"},"geometry":{"type":"Point","coordinates":[-76.97745177825578,38.86915849606392]}},{"type":"Feature","properties":{"OBJECTID":117,"GIS_ID":"nhood_101","NAME":"Penn Branch","WEB_URL":"http://op.dc.gov","LABEL_NAME":"Penn \r\nBranch","DATELASTMODIFIED":"2003-04-10T00:00:00.000Z"},"geometry":{"type":"Point","coordinates":[-76.95342386054297,38.86956017680944]}},{"type":"Feature","properties":{"OBJECTID":118,"GIS_ID":"nhood_066","NAME":"Historic Anacostia","WEB_URL":"http://op.dc.gov","LABEL_NAME":"Historic \r\nAnacostia","DATELASTMODIFIED":"2003-04-10T00:00:00.000Z"},"geometry":{"type":"Point","coordinates":[-76.98467764278496,38.86318570844417]}},{"type":"Feature","properties":{"OBJECTID":119,"GIS_ID":"nhood_080","NAME":"Logan Circle/Shaw","WEB_URL":"http://op.dc.gov","LABEL_NAME":"Logan Circle/\r\nShaw","DATELASTMODIFIED":"2003-04-10T00:00:00.000Z"},"geometry":{"type":"Point","coordinates":[-77.02534037429648,38.909816310092566]}},{"type":"Feature","properties":{"OBJECTID":120,"GIS_ID":"nhood_023","NAME":"Cardozo/Shaw","WEB_URL":"http://op.dc.gov","LABEL_NAME":"Cardozo/\r\nShaw","DATELASTMODIFIED":"2003-04-10T00:00:00.000Z"},"geometry":{"type":"Point","coordinates":[-77.02755011047827,38.9171682937624]}},{"type":"Feature","properties":{"OBJECTID":121,"GIS_ID":"nhood_045","NAME":"Forest Hills","WEB_URL":"http://op.dc.gov","LABEL_NAME":"Forest \r\nHills","DATELASTMODIFIED":"2003-04-10T00:00:00.000Z"},"geometry":{"type":"Point","coordinates":[-77.05846164119157,38.94689271452057]}},{"type":"Feature","properties":{"OBJECTID":122,"GIS_ID":"nhood_053","NAME":"Foxhall Village","WEB_URL":"http://op.dc.gov","LABEL_NAME":"Foxhall \r\nVillage","DATELASTMODIFIED":"2003-04-10T00:00:00.000Z"},"geometry":{"type":"Point","coordinates":[-77.08440713115483,38.9132471317995]}},{"type":"Feature","properties":{"OBJECTID":123,"GIS_ID":"nhood_051","NAME":"Fort Totten","WEB_URL":"http://op.dc.gov","LABEL_NAME":"Fort \r\nTotten","DATELASTMODIFIED":"2003-04-10T00:00:00.000Z"},"geometry":{"type":"Point","coordinates":[-77.00812808607655,38.94942994289769]}},{"type":"Feature","properties":{"OBJECTID":124,"GIS_ID":"nhood_071","NAME":"Kenilworth","WEB_URL":"http://op.dc.gov","LABEL_NAME":"Kenilworth","DATELASTMODIFIED":"2003-04-10T00:00:00.000Z"},"geometry":{"type":"Point","coordinates":[-76.93858598308671,38.91067875955146]}},{"type":"Feature","properties":{"OBJECTID":125,"GIS_ID":"nhood_039","NAME":"Eastland Gardens","WEB_URL":"http://op.dc.gov","LABEL_NAME":"Eastland \r\nGardens","DATELASTMODIFIED":"2003-04-10T00:00:00.000Z"},"geometry":{"type":"Point","coordinates":[-76.94307039405047,38.9053294023028]}},{"type":"Feature","properties":{"OBJECTID":126,"GIS_ID":"nhood_047","NAME":"Fort Dupont","WEB_URL":"http://op.dc.gov","LABEL_NAME":"Fort \r\nDupont","DATELASTMODIFIED":"2003-04-10T00:00:00.000Z"},"geometry":{"type":"Point","coordinates":[-76.95068458458051,38.88601669877318]}},{"type":"Feature","properties":{"OBJECTID":127,"GIS_ID":"nhood_127","NAME":"Woodland-Normanstone","WEB_URL":"http://op.dc.gov","LABEL_NAME":"Woodland-\r\nNormanstone","DATELASTMODIFIED":"2003-04-10T00:00:00.000Z"},"geometry":{"type":"Point","coordinates":[-77.0607534689037,38.922850003796384]}},{"type":"Feature","properties":{"OBJECTID":128,"GIS_ID":"nhood_083","NAME":"Mass. Ave. Heights","WEB_URL":"http://op.dc.gov","LABEL_NAME":"Mass. Ave. \r\nHeights","DATELASTMODIFIED":"2003-04-10T00:00:00.000Z"},"geometry":{"type":"Point","coordinates":[-77.07007461872719,38.92539875943091]}},{"type":"Feature","properties":{"OBJECTID":129,"GIS_ID":"nhood_105","NAME":"Pleasant Plains","WEB_URL":"http://op.dc.gov","LABEL_NAME":"Pleasant \r\nPlains","DATELASTMODIFIED":"2003-04-10T00:00:00.000Z"},"geometry":{"type":"Point","coordinates":[-77.02310099994638,38.92947296868292]}},{"type":"Feature","properties":{"OBJECTID":130,"GIS_ID":"nhood_011","NAME":"Benning Ridge","WEB_URL":"http://op.dc.gov","LABEL_NAME":"Benning \r\nRidge","DATELASTMODIFIED":"2003-04-10T00:00:00.000Z"},"geometry":{"type":"Point","coordinates":[-76.93820271370171,38.881161503679984]}},{"type":"Feature","properties":{"OBJECTID":131,"GIS_ID":"nhood_130","NAME":"Penn Quarter","WEB_URL":"http://op.dc.gov","LABEL_NAME":"Penn \r\nQuarter","DATELASTMODIFIED":"2003-04-10T00:00:00.000Z"},"geometry":{"type":"Point","coordinates":[-77.02218064994992,38.89537044701216]}}]}