{
"type": "FeatureCollection",
"crs": { "type": "name", "properties": { "name": "urn:ogc:def:crs:OGC:1.3:CRS84" } },
                                                                                
"features": [
{ "type": "Feature", "properties": { "OBJECTID": 1, "GIS_ID": "pnr_005", "NAME": "Rhode Island Ave", "ADDRESS": "Rhode Island Ave and 8th St NE", "WEB_URL": "http:\/\/maps.mwcog.org\/CCNewWebsite\/commuter\/ridesharing\/prlocations.html" }, "geometry": { "type": "Point", "coordinates": [ -76.994978190978344, 38.920579183246829 ] } },
{ "type": "Feature", "properties": { "OBJECTID": 2, "GIS_ID": "pnr_001", "NAME": "Anacostia", "ADDRESS": "Shannon Pl-Martin Luther King Jr Av and Firth Sterling Av SE", "WEB_URL": "http:\/\/maps.mwcog.org\/CCNewWebsite\/commuter\/ridesharing\/prlocations.html" }, "geometry": { "type": "Point", "coordinates": [ -76.994870922847184, 38.864626983175256 ] } },
{ "type": "Feature", "properties": { "OBJECTID": 3, "GIS_ID": "pnr_003", "NAME": "Fort Totten", "ADDRESS": "1st Pl and Riggs Rd NW", "WEB_URL": "http:\/\/maps.mwcog.org\/CCNewWebsite\/commuter\/ridesharing\/prlocations.html" }, "geometry": { "type": "Point", "coordinates": [ -77.003635600123019, 38.953432742623598 ] } },
{ "type": "Feature", "properties": { "OBJECTID": 4, "GIS_ID": "pnr_006", "NAME": "Deanwood", "ADDRESS": "Minnesota Ave-Nash Ave and 48th St NE", "WEB_URL": "http:\/\/maps.mwcog.org\/CCNewWebsite\/commuter\/ridesharing\/prlocations.html" }, "geometry": { "type": "Point", "coordinates": [ -76.933557326353622, 38.908877074644636 ] } },
{ "type": "Feature", "properties": { "OBJECTID": 5, "GIS_ID": "pnr_007", "NAME": "Minnesota Ave", "ADDRESS": "Minnesota Ave and Grant St NE", "WEB_URL": "http:\/\/maps.mwcog.org\/CCNewWebsite\/commuter\/ridesharing\/prlocations.html" }, "geometry": { "type": "Point", "coordinates": [ -76.94534964494828, 38.899899873729787 ] } },
{ "type": "Feature", "properties": { "OBJECTID": 6, "GIS_ID": "pnr_008", "NAME": "Union Station", "ADDRESS": "60 Massachusetts Avenue and 1st Street NE", "WEB_URL": "http:\/\/maps.mwcog.org\/CCNewWebsite\/commuter\/ridesharing\/prlocations.html" }, "geometry": { "type": "Point", "coordinates": [ -77.005404082561881, 38.896703472268761 ] } }
]
}
