{"type":"FeatureCollection","features":[{"type":"Feature","properties":{"OBJECTID":1,"GIS_ID":"pnr_005","NAME":"Rhode Island Ave","ADDRESS":"Rhode Island Ave and 8th St NE","WEB_URL":"http://www.commuterconnections.org/commuters/transit/park-ride-locations/"},"geometry":{"type":"Point","coordinates":[-76.99497819097834,38.92057918324683]}},{"type":"Feature","properties":{"OBJECTID":2,"GIS_ID":"pnr_001","NAME":"Anacostia","ADDRESS":"Shannon Pl-Martin Luther King Jr Av and Firth Sterling Av SE","WEB_URL":"http://www.commuterconnections.org/commuters/transit/park-ride-locations/"},"geometry":{"type":"Point","coordinates":[-76.99487092284718,38.864626983175256]}},{"type":"Feature","properties":{"OBJECTID":3,"GIS_ID":"pnr_003","NAME":"Fort Totten","ADDRESS":"1st Pl and Riggs Rd NW","WEB_URL":"http://www.commuterconnections.org/commuters/transit/park-ride-locations/"},"geometry":{"type":"Point","coordinates":[-77.00363560012302,38.9534327426236]}},{"type":"Feature","properties":{"OBJECTID":4,"GIS_ID":"pnr_006","NAME":"Deanwood","ADDRESS":"Minnesota Ave-Nash Ave and 48th St NE","WEB_URL":"http://www.commuterconnections.org/commuters/transit/park-ride-locations/"},"geometry":{"type":"Point","coordinates":[-76.93355732635362,38.908877074644636]}},{"type":"Feature","properties":{"OBJECTID":5,"GIS_ID":"pnr_007","NAME":"Minnesota Ave","ADDRESS":"Minnesota Ave and Grant St NE","WEB_URL":"http://www.commuterconnections.org/commuters/transit/park-ride-locations/"},"geometry":{"type":"Point","coordinates":[-76.94534964494828,38.89989987372979]}},{"type":"Feature","properties":{"OBJECTID":6,"GIS_ID":"pnr_008","NAME":"Union Station","ADDRESS":"60 Massachusetts Avenue and 1st Street NE","WEB_URL":"http://www.commuterconnections.org/commuters/transit/park-ride-locations/"},"geometry":{"type":"Point","coordinates":[-77.00540408256188,38.89670347226876]}}]}