{"type":"FeatureCollection","features":[{"type":"Feature","properties":{"OBJECTID":1,"GIS_ID":"pow_1","NAME":"Sixth Church of Christ, Scientist","WEB_URL":"http://6thchurchdc.org/","RELIGION":"CHRISTIAN","ADDRESS":"4601 MASSACHUSETTS AVENUE NW","ADDRID":267352,"XCOORD":392113.52,"YCOORD":141572.87},"geometry":{"type":"Point","coordinates":[-77.09097276775397,38.94201936340356]}},{"type":"Feature","properties":{"OBJECTID":2,"GIS_ID":"pow_2","NAME":"Seventh Church of Christ, Scientist","WEB_URL":"http://adherentsoftruth.org/","RELIGION":"CHRISTIAN","ADDRESS":"1204 47TH PLACE NE","ADDRID":303219,"XCOORD":405641.86,"YCOORD":137621.34},"geometry":{"type":"Point","coordinates":[-76.93495594291286,38.906440012877106]}},{"type":"Feature","properties":{"OBJECTID":3,"GIS_ID":"pow_3","NAME":"Bethel Commandment Church of Living God","WEB_URL":"http://bethelcommandmentchurchofthelivinggod.org","RELIGION":"CHRISTIAN","ADDRESS":"1627 KENILWORTH AVENUE NE","ADDRID":150101,"XCOORD":405724.86,"YCOORD":138209.26},"geometry":{"type":"Point","coordinates":[-76.93399411572139,38.911735661346775]}},{"type":"Feature","properties":{"OBJECTID":4,"GIS_ID":"pow_4","NAME":"Bethesda Baptist","WEB_URL":"http://bethesdaweb.org/","RELIGION":"CHRISTIAN","ADDRESS":"1808 CAPITOL AVENUE NE","ADDRID":155925,"XCOORD":401201.89,"YCOORD":138128.76},"geometry":{"type":"Point","coordinates":[-76.98614451925759,38.91102831106244]}},{"type":"Feature","properties":{"OBJECTID":5,"GIS_ID":"pow_5","NAME":"Brown Memorial AME","WEB_URL":"http://rhatiamays.wix.com/brownmemorialame","RELIGION":"CHRISTIAN","ADDRESS":"130 14TH STREET NE","ADDRID":68930,"XCOORD":401198.72000000003,"YCOORD":135998.13},"geometry":{"type":"Point","coordinates":[-76.98618478646053,38.891834837935896]}},{"type":"Feature","properties":{"OBJECTID":6,"GIS_ID":"pow_6","NAME":"Calvary Christian","WEB_URL":"http://calvarychristian-dc.org","RELIGION":"CHRISTIAN","ADDRESS":"909 11TH STREET SE","ADDRID":81995,"XCOORD":400713.93,"YCOORD":134562.94},"geometry":{"type":"Point","coordinates":[-76.99177439081296,38.87890662309836]}},{"type":"Feature","properties":{"OBJECTID":7,"GIS_ID":"pow_7","NAME":"Canaan Baptist","WEB_URL":"http://canaanbapt.com/","RELIGION":"CHRISTIAN","ADDRESS":"1607 MONROE STREET NW","ADDRID":233626,"XCOORD":396797.65,"YCOORD":140583.2},"geometry":{"type":"Point","coordinates":[-77.03693675782904,38.93313368578888]}},{"type":"Feature","properties":{"OBJECTID":8,"GIS_ID":"pow_8","NAME":"First Church of Christ, Scientist","WEB_URL":"http://christiansciencedc.org/church.php?id=dc-1","RELIGION":"CHRISTIAN","ADDRESS":"1782 COLUMBIA ROAD NW","ADDRID":235614,"XCOORD":396349.34,"YCOORD":139434.36000000002},"geometry":{"type":"Point","coordinates":[-77.04210125297142,38.92278282681057]}},{"type":"Feature","properties":{"OBJECTID":9,"GIS_ID":"pow_9","NAME":"Fourth Church of Christ, Scientist","WEB_URL":"http://christiansciencedc.org/church.php?id=dc-4","RELIGION":"CHRISTIAN","ADDRESS":"5510 16TH STREET NW","ADDRID":255924,"XCOORD":396802.67,"YCOORD":143242.49},"geometry":{"type":"Point","coordinates":[-77.03689125479953,38.95708934340083]}},{"type":"Feature","properties":{"OBJECTID":10,"GIS_ID":"pow_11","NAME":"Fifth Church of Christ, Scientist","WEB_URL":"http://csgeorgetown.com/","RELIGION":"CHRISTIAN","ADDRESS":"1238 31ST STREET NW","ADDRID":272037,"XCOORD":394669.85000000003,"YCOORD":137596.37},"geometry":{"type":"Point","coordinates":[-77.06145465378759,38.90621701523754]}},{"type":"Feature","properties":{"OBJECTID":11,"GIS_ID":"pow_12","NAME":"Christian Tabernacle Church","WEB_URL":"http://ctcoginc.org/","RELIGION":"CHRISTIAN","ADDRESS":"2033 11TH STREET NW","ADDRID":239193,"XCOORD":397676.62,"YCOORD":138894.34},"geometry":{"type":"Point","coordinates":[-77.02679339432177,38.91792266248786]}},{"type":"Feature","properties":{"OBJECTID":12,"GIS_ID":"pow_14","NAME":"East Washington Heights Baptist","WEB_URL":"http://ewhbc.org","RELIGION":"CHRISTIAN","ADDRESS":"2220 BRANCH AVENUE SE","ADDRID":50755,"XCOORD":403591.43,"YCOORD":132754.35},"geometry":{"type":"Point","coordinates":[-76.95862126531664,38.86260706785826]}},{"type":"Feature","properties":{"OBJECTID":13,"GIS_ID":"pow_15","NAME":"First Baptist Church - Minnesota Avenue","WEB_URL":"http://fbc-dc.org/","RELIGION":"CHRISTIAN","ADDRESS":"3440 MINNESOTA AVENUE SE","ADDRID":34531,"XCOORD":403772.98,"YCOORD":135320.05},"geometry":{"type":"Point","coordinates":[-76.95651533706766,38.88571915966753]}},{"type":"Feature","properties":{"OBJECTID":14,"GIS_ID":"pow_16","NAME":"First Baptist Church-Georgetown","WEB_URL":"http://firstbaptistgtown.org/","RELIGION":"CHRISTIAN","ADDRESS":"2624 DUMBARTON STREET NW","ADDRID":275975,"XCOORD":395172.88,"YCOORD":137746.37},"geometry":{"type":"Point","coordinates":[-77.05565617579612,38.907571174060045]}},{"type":"Feature","properties":{"OBJECTID":15,"GIS_ID":"pow_17","NAME":"Freedom Chapel Church","WEB_URL":"http://freedom-chapel.com/index.php?pr=Home_Page","RELIGION":"CHRISTIAN","ADDRESS":"1430 ALABAMA AVENUE SE","ADDRID":63788,"XCOORD":401384.08,"YCOORD":130921.36},"geometry":{"type":"Point","coordinates":[-76.98405838263908,38.84610094688643]}},{"type":"Feature","properties":{"OBJECTID":16,"GIS_ID":"pow_18","NAME":"Gethsemane Baptist","WEB_URL":"http://gethsemanebaptistchurch.org/","RELIGION":"CHRISTIAN","ADDRESS":"5119 4TH STREET NW","ADDRID":243737,"XCOORD":398520.16000000003,"YCOORD":142776.4},"geometry":{"type":"Point","coordinates":[-77.01707483070689,38.9528952536486]}},{"type":"Feature","properties":{"OBJECTID":17,"GIS_ID":"pow_19","NAME":"Greater New St Paul Baptist","WEB_URL":"http://greaternewstpaul.org","RELIGION":"CHRISTIAN","ADDRESS":"1300 INGRAHAM STREET NW","ADDRID":254969,"XCOORD":397397.38,"YCOORD":142890.02},"geometry":{"type":"Point","coordinates":[-77.03002849320649,38.953916163643385]}},{"type":"Feature","properties":{"OBJECTID":18,"GIS_ID":"pow_20","NAME":"Kidane Mehret Ge'ez Rite Catholic Church","WEB_URL":"http://kidane-mehret.org/","RELIGION":"CHRISTIAN","ADDRESS":"415 MICHIGAN AVENUE NE","ADDRID":302303,"XCOORD":400034.24,"YCOORD":140344.28},"geometry":{"type":"Point","coordinates":[-76.9996073884863,38.930987257533054]}},{"type":"Feature","properties":{"OBJECTID":19,"GIS_ID":"pow_22","NAME":"Mount Olive Baptist","WEB_URL":"http://mtobc1140.org/","RELIGION":"CHRISTIAN","ADDRESS":"1140 6TH STREET NE","ADDRID":156299,"XCOORD":400109.76,"YCOORD":137472.56},"geometry":{"type":"Point","coordinates":[-76.99873685836083,38.90511784810688]}},{"type":"Feature","properties":{"OBJECTID":20,"GIS_ID":"pow_23","NAME":"Temple Baptist Church","WEB_URL":"http://netministries.org/see/churches.exe/ch03651","RELIGION":"CHRISTIAN","ADDRESS":"3850 NEBRASKA AVENUE NW","ADDRID":268251,"XCOORD":392657.36,"YCOORD":141387.05000000002},"geometry":{"type":"Point","coordinates":[-77.08469759285363,38.94035015730212]}},{"type":"Feature","properties":{"OBJECTID":21,"GIS_ID":"pow_24","NAME":"New Canaan Baptist Church","WEB_URL":"http://newcanaanbaptistchurch.org/","RELIGION":"CHRISTIAN","ADDRESS":"2826 BLADENSBURG ROAD NE","ADDRID":301514,"XCOORD":403117.19,"YCOORD":139849.11000000002},"geometry":{"type":"Point","coordinates":[-76.96405334425424,38.92652108429397]}},{"type":"Feature","properties":{"OBJECTID":22,"GIS_ID":"pow_25","NAME":"New Solid Rock Church Ministries","WEB_URL":"http://nsrcm.org/","RELIGION":"CHRISTIAN","ADDRESS":"819 UPSHUR STREET NW","ADDRID":252471,"XCOORD":397905.98,"YCOORD":141582.9},"geometry":{"type":"Point","coordinates":[-77.02415682755895,38.94214262153942]}},{"type":"Feature","properties":{"OBJECTID":23,"GIS_ID":"pow_26","NAME":"Peace Baptist Church","WEB_URL":"http://pbc712.org/","RELIGION":"CHRISTIAN","ADDRESS":"712 18TH STREET NE","ADDRID":288889,"XCOORD":401908.03,"YCOORD":136713.82},"geometry":{"type":"Point","coordinates":[-76.97800667110006,38.89828078381402]}},{"type":"Feature","properties":{"OBJECTID":24,"GIS_ID":"pow_27","NAME":"Saint Mary Mother of God Shrine of Our Lady of Miraculous Medal","WEB_URL":"http://saintmarymotherofgod.org/","RELIGION":"CHRISTIAN","ADDRESS":"727 5TH STREET NW","ADDRID":279915,"XCOORD":398377.69,"YCOORD":136851.73},"geometry":{"type":"Point","coordinates":[-77.01870446506992,38.89952369921385]}},{"type":"Feature","properties":{"OBJECTID":25,"GIS_ID":"pow_28","NAME":"St Paul AME","WEB_URL":null,"RELIGION":"CHRISTIAN","ADDRESS":"4901 14TH STREET NW","ADDRID":255112,"XCOORD":397136.75,"YCOORD":142459.96},"geometry":{"type":"Point","coordinates":[-77.0330335636785,38.9500412551172]}},{"type":"Feature","properties":{"OBJECTID":26,"GIS_ID":"pow_30","NAME":"St. Ann's Catholic Church","WEB_URL":"http://stanndc.org/","RELIGION":"CHRISTIAN","ADDRESS":"4001 YUMA STREET NW","ADDRID":295145,"XCOORD":393066.89,"YCOORD":142073.27},"geometry":{"type":"Point","coordinates":[-77.07998071595024,38.94653514949446]}},{"type":"Feature","properties":{"OBJECTID":27,"GIS_ID":"pow_31","NAME":"St Thomas Apostle Catholic","WEB_URL":"http://stthomasapostledc.org/","RELIGION":"CHRISTIAN","ADDRESS":"2665 WOODLEY ROAD NW","ADDRID":220014,"XCOORD":395250.04000000004,"YCOORD":139802.14},"geometry":{"type":"Point","coordinates":[-77.05478078962842,38.92609065126153]}},{"type":"Feature","properties":{"OBJECTID":28,"GIS_ID":"pow_32","NAME":"Tabernacle Baptist","WEB_URL":"http://tabernaclebaptistchurch-dc.org/","RELIGION":"CHRISTIAN","ADDRESS":"719 DIVISION AVENUE NE","ADDRID":288914,"XCOORD":406504.61,"YCOORD":136849.4},"geometry":{"type":"Point","coordinates":[-76.92501640795449,38.89948014443183]}},{"type":"Feature","properties":{"OBJECTID":29,"GIS_ID":"pow_33","NAME":"National Community Church","WEB_URL":"http://theaterchurch.com/location/barracksrow","RELIGION":"CHRISTIAN","ADDRESS":"535 8TH STREET SE","ADDRID":300102,"XCOORD":400403.58,"YCOORD":134874.79},"geometry":{"type":"Point","coordinates":[-76.99535092560934,38.88171608707266]}},{"type":"Feature","properties":{"OBJECTID":30,"GIS_ID":"pow_34","NAME":"Third Street Church Of God","WEB_URL":"http://www.thirdstreet.org/","RELIGION":"CHRISTIAN","ADDRESS":"1204 3RD STREET NW","ADDRID":278923,"XCOORD":398653.85000000003,"YCOORD":137583.1},"geometry":{"type":"Point","coordinates":[-77.01552229380955,38.906112606650716]}},{"type":"Feature","properties":{"OBJECTID":31,"GIS_ID":"pow_35","NAME":"Trinidad Baptist Church","WEB_URL":"http://trinidadbaptistchurch.org/","RELIGION":"CHRISTIAN","ADDRESS":"1611 BENNING ROAD NE","ADDRID":59908,"XCOORD":401638.03,"YCOORD":136834.8},"geometry":{"type":"Point","coordinates":[-76.98111892029421,38.8993711599103]}},{"type":"Feature","properties":{"OBJECTID":32,"GIS_ID":"pow_36","NAME":"Union Wesley AME Zion","WEB_URL":"http://unionwesleyamez.org/","RELIGION":"CHRISTIAN","ADDRESS":"1860 MICHIGAN AVENUE NE","ADDRID":286511,"XCOORD":401833.51,"YCOORD":142019.63},"geometry":{"type":"Point","coordinates":[-76.97885156303477,38.946077394381135]}},{"type":"Feature","properties":{"OBJECTID":33,"GIS_ID":"pow_37","NAME":"Buddhist Vihara Soc Inc.","WEB_URL":"http://www.buddhistvihara.com/","RELIGION":"BUDDHIST","ADDRESS":"5017 16TH STREET NW","ADDRID":255791,"XCOORD":396876.03,"YCOORD":142628.41},"geometry":{"type":"Point","coordinates":[-77.03604207171198,38.951557810267175]}},{"type":"Feature","properties":{"OBJECTID":34,"GIS_ID":"pow_40","NAME":"Washington Community (Mennonite)","WEB_URL":"http://wcfchurch.org/","RELIGION":"CHRISTIAN","ADDRESS":"907 MARYLAND AVENUE NE","ADDRID":81944,"XCOORD":400565.22000000003,"YCOORD":136430.05},"geometry":{"type":"Point","coordinates":[-76.99348670714275,38.895726368481014]}},{"type":"Feature","properties":{"OBJECTID":35,"GIS_ID":"pow_41","NAME":"The Second Episcopal District of the AME Church","WEB_URL":"http://www.2ndamec.org/","RELIGION":"CHRISTIAN","ADDRESS":"1134 11TH STREET NW","ADDRID":239118,"XCOORD":397622.67,"YCOORD":137506.65},"geometry":{"type":"Point","coordinates":[-77.02741069165684,38.9054217336655]}},{"type":"Feature","properties":{"OBJECTID":36,"GIS_ID":"pow_42","NAME":"Allen Chapel AME Church","WEB_URL":"http://www.acamec.org","RELIGION":"CHRISTIAN","ADDRESS":"2498 ALABAMA AVENUE SE","ADDRID":46843,"XCOORD":402579.33,"YCOORD":132119.61000000002},"geometry":{"type":"Point","coordinates":[-76.9702852186312,38.856892611880944]}},{"type":"Feature","properties":{"OBJECTID":37,"GIS_ID":"pow_43","NAME":"Adas Israel Congregation","WEB_URL":"http://www.adasisrael.org/","RELIGION":"JEWISH","ADDRESS":"2850 QUEBEC STREET NW","ADDRID":219289,"XCOORD":395012.47000000003,"YCOORD":140991.13},"geometry":{"type":"Point","coordinates":[-77.05752918591821,38.93680012108078]}},{"type":"Feature","properties":{"OBJECTID":38,"GIS_ID":"pow_45","NAME":"All Nations Baptist","WEB_URL":"http://www.allnationsbaptistchurch.com/","RELIGION":"CHRISTIAN","ADDRESS":"2001 NORTH CAPITOL STREET NE","ADDRID":297690,"XCOORD":399240.77,"YCOORD":138822.99},"geometry":{"type":"Point","coordinates":[-77.00875695727287,38.91728266196471]}},{"type":"Feature","properties":{"OBJECTID":39,"GIS_ID":"pow_46","NAME":"All Souls Church Unitarian","WEB_URL":"","RELIGION":"CHRISTIAN","ADDRESS":"1500 HARVARD STREET NW","ADDRID":294269,"XCOORD":396879.53,"YCOORD":139795.45},"geometry":{"type":"Point","coordinates":[-77.0359888086203,38.92603768372007]}},{"type":"Feature","properties":{"OBJECTID":40,"GIS_ID":"pow_47","NAME":"All Souls Memorial Episcopal","WEB_URL":"http://www.allsoulsdc.org/","RELIGION":"CHRISTIAN","ADDRESS":"2300 CATHEDRAL AVENUE NW","ADDRID":219212,"XCOORD":395414.54000000004,"YCOORD":139969.7},"geometry":{"type":"Point","coordinates":[-77.05288482747784,38.92760095831692]}},{"type":"Feature","properties":{"OBJECTID":41,"GIS_ID":"pow_48","NAME":"Hughes Memorial Methodist Church","WEB_URL":"http://www.hughesmemorial.org/","RELIGION":"CHRISTIAN","ADDRESS":"25 53RD STREET NE","ADDRID":287077,"XCOORD":406439.25,"YCOORD":135857.18},"geometry":{"type":"Point","coordinates":[-76.92577918463542,38.890542345373504]}},{"type":"Feature","properties":{"OBJECTID":42,"GIS_ID":"pow_50","NAME":"Upon This Rock Tabernacle","WEB_URL":"http://uponthisrocktabernacle.com/","RELIGION":"CHRISTIAN","ADDRESS":"513 M STREET NE","ADDRID":12716,"XCOORD":400092.89,"YCOORD":137508.25},"geometry":{"type":"Point","coordinates":[-76.99893134815952,38.905439358117896]}},{"type":"Feature","properties":{"OBJECTID":43,"GIS_ID":"pow_51","NAME":"Apostolic Faith Church","WEB_URL":"http://apostolicfaithdc.org/","RELIGION":"CHRISTIAN","ADDRESS":"1325 BRANCH AVENUE SE","ADDRID":67566,"XCOORD":403362.59,"YCOORD":133976.73},"geometry":{"type":"Point","coordinates":[-76.96125201720331,38.87361967208622]}},{"type":"Feature","properties":{"OBJECTID":44,"GIS_ID":"pow_52","NAME":"Asbury United Methodist Church","WEB_URL":"http://www.asburyumcdc.org","RELIGION":"CHRISTIAN","ADDRESS":"926 11TH STREET NW","ADDRID":301937,"XCOORD":397629.22000000003,"YCOORD":137148.83000000002},"geometry":{"type":"Point","coordinates":[-77.02733394092682,38.902198382231276]}},{"type":"Feature","properties":{"OBJECTID":45,"GIS_ID":"pow_53","NAME":"Church of Ascension and Saint Agnes","WEB_URL":"http://www.asa-dc.org/","RELIGION":"CHRISTIAN","ADDRESS":"1217 MASSACHUSETTS AVENUE NW","ADDRID":278948,"XCOORD":397516.88,"YCOORD":137440.44},"geometry":{"type":"Point","coordinates":[-77.0286301126454,38.90482499817176]}},{"type":"Feature","properties":{"OBJECTID":46,"GIS_ID":"pow_54","NAME":"Church of the Assumption of the Blessed Virgin Mary","WEB_URL":"http://www.assumptionchurch-dc.org/","RELIGION":"CHRISTIAN","ADDRESS":"3401 MARTIN LUTHER KING JR AVENUE SE","ADDRID":301531,"XCOORD":399656.72000000003,"YCOORD":130395.11},"geometry":{"type":"Point","coordinates":[-77.00395642841995,38.841361272908955]}},{"type":"Feature","properties":{"OBJECTID":47,"GIS_ID":"pow_55","NAME":"Berean Baptist","WEB_URL":null,"RELIGION":"CHRISTIAN","ADDRESS":"924 MADISON STREET NW","ADDRID":285465,"XCOORD":397640.97000000003,"YCOORD":143350.17},"geometry":{"type":"Point","coordinates":[-77.0272197992323,38.95806200497522]}},{"type":"Feature","properties":{"OBJECTID":48,"GIS_ID":"pow_56","NAME":"Jewish Community Center","WEB_URL":"http://www.washingtondcjcc.org/","RELIGION":"JEWISH","ADDRESS":"1529 16TH STREET NW","ADDRID":225737,"XCOORD":396881.95,"YCOORD":138113.53},"geometry":{"type":"Point","coordinates":[-77.03595326057285,38.910886403074485]}},{"type":"Feature","properties":{"OBJECTID":49,"GIS_ID":"pow_57","NAME":"Southeast Christian Fellowship","WEB_URL":"http://www.secf3140.org/","RELIGION":"CHRISTIAN","ADDRESS":"3140 Q STREET SE","ADDRID":39522,"XCOORD":403386.03,"YCOORD":133662.51},"geometry":{"type":"Point","coordinates":[-76.96098344377536,38.87078896168077]}},{"type":"Feature","properties":{"OBJECTID":50,"GIS_ID":"pow_58","NAME":"Calvary Baptist Church","WEB_URL":"http://www.calvarydc.com/","RELIGION":"CHRISTIAN","ADDRESS":"755 8TH STREET NW","ADDRID":295164,"XCOORD":398032.51,"YCOORD":136838.45},"geometry":{"type":"Point","coordinates":[-77.02268370274251,38.89940336322]}},{"type":"Feature","properties":{"OBJECTID":51,"GIS_ID":"pow_59","NAME":"Calvary Burmese Baptist Church","WEB_URL":null,"RELIGION":"CHRISTIAN","ADDRESS":"755 8TH STREET NW","ADDRID":295164,"XCOORD":398032.51,"YCOORD":136838.45},"geometry":{"type":"Point","coordinates":[-77.02268370274251,38.89940336322]}},{"type":"Feature","properties":{"OBJECTID":52,"GIS_ID":"pow_60","NAME":"Calvary Hispanic Baptist Church","WEB_URL":null,"RELIGION":"CHRISTIAN","ADDRESS":"755 8TH STREET NW","ADDRID":295164,"XCOORD":398032.51,"YCOORD":136838.45},"geometry":{"type":"Point","coordinates":[-77.02268370274251,38.89940336322]}},{"type":"Feature","properties":{"OBJECTID":53,"GIS_ID":"pow_61","NAME":"Capitol Hill Baptist Church","WEB_URL":"http://www.capitolhillbaptist.org","RELIGION":"CHRISTIAN","ADDRESS":"525 A STREET NE","ADDRID":150955,"XCOORD":400117.63,"YCOORD":135882},"geometry":{"type":"Point","coordinates":[-76.99864639644491,38.89078950434149]}},{"type":"Feature","properties":{"OBJECTID":54,"GIS_ID":"pow_62","NAME":"Capitol Hill Presbyterian","WEB_URL":"http://www.capitolhillpreschurch.org/","RELIGION":"CHRISTIAN","ADDRESS":"201 4TH STREET SE","ADDRID":278032,"XCOORD":399926.2,"YCOORD":135505.49},"geometry":{"type":"Point","coordinates":[-77.00085291329654,38.88739776473412]}},{"type":"Feature","properties":{"OBJECTID":55,"GIS_ID":"pow_64","NAME":"Chinese Community Church","WEB_URL":"http://www.cccdc.com/","RELIGION":"CHRISTIAN","ADDRESS":"500 I STREET NW","ADDRID":238945,"XCOORD":398340.58,"YCOORD":136974.23},"geometry":{"type":"Point","coordinates":[-77.01913256953148,38.90062715402352]}},{"type":"Feature","properties":{"OBJECTID":56,"GIS_ID":"pow_65","NAME":"Christ Church Of Washington","WEB_URL":null,"RELIGION":"CHRISTIAN","ADDRESS":"3855 MASSACHUSETTS AVENUE NW","ADDRID":222182,"XCOORD":393411.27,"YCOORD":140389.99},"geometry":{"type":"Point","coordinates":[-77.07599188132886,38.93137432195291]}},{"type":"Feature","properties":{"OBJECTID":57,"GIS_ID":"pow_66","NAME":"First United Church of Jesus Christ, Apostolic","WEB_URL":"http://www.firstunitedwashington.org/","RELIGION":"CHRISTIAN","ADDRESS":"7901 16TH STREET NW","ADDRID":257008,"XCOORD":396891.14,"YCOORD":146644.42},"geometry":{"type":"Point","coordinates":[-77.0358859686413,38.98773504747801]}},{"type":"Feature","properties":{"OBJECTID":58,"GIS_ID":"pow_68","NAME":"Chevy Chase Baptist Church","WEB_URL":"http://www.ChevyChaseBaptist.com","RELIGION":"CHRISTIAN","ADDRESS":"5671 WESTERN AVENUE NW","ADDRID":264763,"XCOORD":393224.65,"YCOORD":144266.69},"geometry":{"type":"Point","coordinates":[-77.0781825119746,38.966295281524715]}},{"type":"Feature","properties":{"OBJECTID":59,"GIS_ID":"pow_69","NAME":"La Mission Internationale Pour la Grande Moisson Baptist","WEB_URL":null,"RELIGION":"CHRISTIAN","ADDRESS":"5671 WESTERN AVENUE NW","ADDRID":264763,"XCOORD":393224.65,"YCOORD":144266.69},"geometry":{"type":"Point","coordinates":[-77.0781825119746,38.966295281524715]}},{"type":"Feature","properties":{"OBJECTID":60,"GIS_ID":"pow_70","NAME":"Chevy Chase Presbyterian","WEB_URL":"http://www.chevychasepc.org/","RELIGION":"CHRISTIAN","ADDRESS":"1 CHEVY CHASE CIRCLE NW","ADDRID":283905,"XCOORD":393435.96,"YCOORD":144371},"geometry":{"type":"Point","coordinates":[-77.07574522255659,38.967236536258596]}},{"type":"Feature","properties":{"OBJECTID":61,"GIS_ID":"pow_106","NAME":"Georgetown Lutheran Church","WEB_URL":"http://www.georgetownlutheran.com/","RELIGION":"CHRISTIAN","ADDRESS":"1556 WISCONSIN AVENUE NW","ADDRID":300435,"XCOORD":394356.18,"YCOORD":138032.55},"geometry":{"type":"Point","coordinates":[-77.06507460190006,38.910144316798686]}},{"type":"Feature","properties":{"OBJECTID":62,"GIS_ID":"pow_107","NAME":"Grace Apostolic","WEB_URL":"http://www.graceapostolicchurch.net/","RELIGION":"CHRISTIAN","ADDRESS":"4417 DIX STREET NE","ADDRID":21977,"XCOORD":405386.82,"YCOORD":136284.89},"geometry":{"type":"Point","coordinates":[-76.93790683870965,38.89440239341323]}},{"type":"Feature","properties":{"OBJECTID":63,"GIS_ID":"pow_108","NAME":"Grace Episcopal Church","WEB_URL":"http://www.gracedc.org/","RELIGION":"CHRISTIAN","ADDRESS":"1041 WISCONSIN AVENUE NW","ADDRID":273796,"XCOORD":394620.16000000003,"YCOORD":137303.84},"geometry":{"type":"Point","coordinates":[-77.06202524801445,38.903581499779655]}},{"type":"Feature","properties":{"OBJECTID":64,"GIS_ID":"pow_109","NAME":"Greater Fellowship Full Gospel Baptist","WEB_URL":"http://www.greaterfellowshipdc.org/home.aspx","RELIGION":"CHRISTIAN","ADDRESS":"814 ALABAMA AVENUE SE","ADDRID":80264,"XCOORD":400532.98,"YCOORD":130690.29000000001},"geometry":{"type":"Point","coordinates":[-76.99386280058009,38.8440202925592]}},{"type":"Feature","properties":{"OBJECTID":65,"GIS_ID":"pow_110","NAME":"Greater Mt. Pisgah Baptist Church","WEB_URL":"","RELIGION":"CHRISTIAN","ADDRESS":"1818 GALES STREET NE","ADDRID":55408,"XCOORD":401962.74,"YCOORD":136671.42},"geometry":{"type":"Point","coordinates":[-76.97737609988546,38.89789870879022]}},{"type":"Feature","properties":{"OBJECTID":66,"GIS_ID":"pow_112","NAME":"The Church of the Holy Comforter St Andrews Parish","WEB_URL":"http://www.holycomforterdc.org/","RELIGION":"CHRISTIAN","ADDRESS":"701 OGLETHORPE STREET NW","ADDRID":250438,"XCOORD":398027.55,"YCOORD":143743.1},"geometry":{"type":"Point","coordinates":[-77.02276072975383,38.96160257338098]}},{"type":"Feature","properties":{"OBJECTID":67,"GIS_ID":"pow_113","NAME":"Holy Rosary Church","WEB_URL":"http://www.holyrosarychurchdc.org/","RELIGION":"CHRISTIAN","ADDRESS":"595 3RD STREET NW","ADDRID":279834,"XCOORD":398711.86,"YCOORD":136633.91},"geometry":{"type":"Point","coordinates":[-77.01485170528241,38.897562051037546]}},{"type":"Feature","properties":{"OBJECTID":68,"GIS_ID":"pow_114","NAME":"Holy Trinity Catholic Church","WEB_URL":"http://www.trinity.org/","RELIGION":"CHRISTIAN","ADDRESS":"3513 N STREET NW","ADDRID":294302,"XCOORD":393956.99,"YCOORD":137681.5},"geometry":{"type":"Point","coordinates":[-77.06967410601357,38.90697928356826]}},{"type":"Feature","properties":{"OBJECTID":69,"GIS_ID":"pow_115","NAME":"Imani Temple","WEB_URL":"http://www.imanitemple.com/history.htm","RELIGION":"CHRISTIAN","ADDRESS":"609 MARYLAND AVENUE NE","ADDRID":151060,"XCOORD":400162.10000000003,"YCOORD":136219.67},"geometry":{"type":"Point","coordinates":[-76.9981337243067,38.89383135446691]}},{"type":"Feature","properties":{"OBJECTID":70,"GIS_ID":"pow_116","NAME":"Islamic Center of Washington DC","WEB_URL":"http://www.theislamiccenter.com/","RELIGION":"ISLAM","ADDRESS":"2551 MASSACHUSETTS AVENUE NW","ADDRID":218874,"XCOORD":395069.32,"YCOORD":138800.75},"geometry":{"type":"Point","coordinates":[-77.05685773388763,38.91706881106547]}},{"type":"Feature","properties":{"OBJECTID":71,"GIS_ID":"pow_117","NAME":"Israel Baptist","WEB_URL":"http://www.israelbaptistchurch.org","RELIGION":"CHRISTIAN","ADDRESS":"1251 SARATOGA AVENUE NE","ADDRID":69666,"XCOORD":400923.31,"YCOORD":139312},"geometry":{"type":"Point","coordinates":[-76.98935494987084,38.921687668228316]}},{"type":"Feature","properties":{"OBJECTID":72,"GIS_ID":"pow_118","NAME":"Israel Metropolitan CME","WEB_URL":"http://israelcme.org/","RELIGION":"CHRISTIAN","ADDRESS":"557 RANDOLPH STREET NW","ADDRID":247729,"XCOORD":398165.31,"YCOORD":141236.15},"geometry":{"type":"Point","coordinates":[-77.02116452614958,38.93901957614299]}},{"type":"Feature","properties":{"OBJECTID":73,"GIS_ID":"pow_119","NAME":"Kesher Israel Synagogue","WEB_URL":"http://www.kesher.org/","RELIGION":"JEWISH","ADDRESS":"2801 N STREET NW","ADDRID":279627,"XCOORD":395036.95,"YCOORD":137686.37},"geometry":{"type":"Point","coordinates":[-77.05722293575434,38.90702991617329]}},{"type":"Feature","properties":{"OBJECTID":74,"GIS_ID":"pow_120","NAME":"Luther Place Memorial Church","WEB_URL":"http://www.lutherplace.org/","RELIGION":"CHRISTIAN","ADDRESS":"1226 VERMONT AVENUE NW","ADDRID":240613,"XCOORD":397258.82,"YCOORD":137675.78},"geometry":{"type":"Point","coordinates":[-77.03160621919481,38.906944256299525]}},{"type":"Feature","properties":{"OBJECTID":75,"GIS_ID":"pow_121","NAME":"Masjid Muhammad ","WEB_URL":"http://nationsmasjid.com/","RELIGION":"ISLAM","ADDRESS":"1519 4TH STREET NW","ADDRID":237695,"XCOORD":398622.05,"YCOORD":138051.22},"geometry":{"type":"Point","coordinates":[-77.01588986136865,38.91032954466235]}},{"type":"Feature","properties":{"OBJECTID":76,"GIS_ID":"pow_122","NAME":"Metropolitan Community Church of Wash","WEB_URL":"http://mccdc.com/","RELIGION":"CHRISTIAN","ADDRESS":"474 RIDGE STREET NW","ADDRID":237490,"XCOORD":398381.96,"YCOORD":137609.23},"geometry":{"type":"Point","coordinates":[-77.01865702491271,38.90634753626407]}},{"type":"Feature","properties":{"OBJECTID":77,"GIS_ID":"pow_124","NAME":"Miles Memorial CME Church","WEB_URL":"http://www.mmcmechurch.org/","RELIGION":"CHRISTIAN","ADDRESS":"501 N STREET NW","ADDRID":238866,"XCOORD":398332.71,"YCOORD":137730.73},"geometry":{"type":"Point","coordinates":[-77.01922513407459,38.90744195859306]}},{"type":"Feature","properties":{"OBJECTID":78,"GIS_ID":"pow_125","NAME":"Metropolitan Memorial United Methodist","WEB_URL":"http://www.nationalchurch.org/","RELIGION":"CHRISTIAN","ADDRESS":"3401 NEBRASKA AVENUE NW","ADDRID":298676,"XCOORD":392387.68,"YCOORD":140789.73},"geometry":{"type":"Point","coordinates":[-77.08780164773404,38.93496702807299]}},{"type":"Feature","properties":{"OBJECTID":79,"GIS_ID":"pow_126","NAME":"Mount Moriah Baptist","WEB_URL":"http://www.mountmoriahchurch.org/","RELIGION":"CHRISTIAN","ADDRESS":"1636 EAST CAPITOL STREET NE","ADDRID":300671,"XCOORD":401644.99,"YCOORD":135807.53},"geometry":{"type":"Point","coordinates":[-76.98104114394701,38.89011712017551]}},{"type":"Feature","properties":{"OBJECTID":80,"GIS_ID":"pow_127","NAME":"Mount Joy Soul Saving Station Pentecostal","WEB_URL":null,"RELIGION":"CHRISTIAN","ADDRESS":"432 M STREET NW","ADDRID":237548,"XCOORD":398476.60000000003,"YCOORD":137512.5},"geometry":{"type":"Point","coordinates":[-77.01756568483536,38.90547632768004]}},{"type":"Feature","properties":{"OBJECTID":81,"GIS_ID":"pow_128","NAME":"Mt Pleasant Baptist","WEB_URL":"http://www.mpbcdc.com/","RELIGION":"CHRISTIAN","ADDRESS":"215 RHODE ISLAND AVENUE NW","ADDRID":230001,"XCOORD":398719.35000000003,"YCOORD":138590.62},"geometry":{"type":"Point","coordinates":[-77.01476901185289,38.91518879011605]}},{"type":"Feature","properties":{"OBJECTID":82,"GIS_ID":"pow_129","NAME":"Mount Vernon Place United Methodist","WEB_URL":"http://www.mvpumc.org/","RELIGION":"CHRISTIAN","ADDRESS":"900 MASSACHUSETTS AVENUE NW","ADDRID":239813,"XCOORD":397832.01,"YCOORD":137224.67},"geometry":{"type":"Point","coordinates":[-77.02499630569211,38.90288209957667]}},{"type":"Feature","properties":{"OBJECTID":83,"GIS_ID":"pow_130","NAME":"Franciscan Monastery","WEB_URL":"http://www.myfranciscan.org/","RELIGION":"BUDDHIST","ADDRESS":"1400 QUINCY STREET NE","ADDRID":289607,"XCOORD":401281.45,"YCOORD":141069.30000000002},"geometry":{"type":"Point","coordinates":[-76.98522170638672,38.93751752435483]}},{"type":"Feature","properties":{"OBJECTID":84,"GIS_ID":"pow_131","NAME":"National City Christian Church","WEB_URL":"http://www.nationalcitycc.org/","RELIGION":"CHRISTIAN","ADDRESS":"5 THOMAS CIRCLE NW","ADDRID":243014,"XCOORD":397172.36,"YCOORD":137624.15},"geometry":{"type":"Point","coordinates":[-77.0326028313197,38.90647888131925]}},{"type":"Feature","properties":{"OBJECTID":85,"GIS_ID":"pow_132","NAME":"National Presbyterian Church","WEB_URL":"http://www.nationalpres.org/","RELIGION":"CHRISTIAN","ADDRESS":"4101 NEBRASKA AVENUE NW","ADDRID":301930,"XCOORD":392978.88,"YCOORD":141582.95},"geometry":{"type":"Point","coordinates":[-77.08099095602381,38.94211750936442]}},{"type":"Feature","properties":{"OBJECTID":86,"GIS_ID":"pow_133","NAME":"National Shrine of the Immaculate Conception","WEB_URL":"http://www.nationalshrine.com/","RELIGION":"CHRISTIAN","ADDRESS":"400 MICHIGAN AVENUE NE","ADDRID":291632,"XCOORD":399941.60000000003,"YCOORD":140607.91},"geometry":{"type":"Point","coordinates":[-77.00067584718825,38.93336211618323]}},{"type":"Feature","properties":{"OBJECTID":87,"GIS_ID":"pow_134","NAME":"Nativity Church Rectory and Youth Center","WEB_URL":"http://www.nativitychurch.net/","RELIGION":"CHRISTIAN","ADDRESS":"6000 GEORGIA AVENUE NW","ADDRID":253197,"XCOORD":397553.64,"YCOORD":143882.37},"geometry":{"type":"Point","coordinates":[-77.02822927549241,38.962855960577585]}},{"type":"Feature","properties":{"OBJECTID":88,"GIS_ID":"pow_136","NAME":"Northeastern Presbyterian","WEB_URL":"http://www.nepc-dc.org/","RELIGION":"CHRISTIAN","ADDRESS":"2112 VARNUM STREET NE","ADDRID":51647,"XCOORD":402161.28,"YCOORD":141694.17},"geometry":{"type":"Point","coordinates":[-76.97507154947506,38.94314481275721]}},{"type":"Feature","properties":{"OBJECTID":89,"GIS_ID":"pow_137","NAME":"Northminster Presbyterian Church","WEB_URL":"http://www.nepc-dc.org/","RELIGION":"CHRISTIAN","ADDRESS":"7720 ALASKA AVENUE NW","ADDRID":253620,"XCOORD":397597.67,"YCOORD":146193.98},"geometry":{"type":"Point","coordinates":[-77.02772934384957,38.98367960649536]}},{"type":"Feature","properties":{"OBJECTID":90,"GIS_ID":"pow_139","NAME":"Holy Trinity Worship Center International","WEB_URL":null,"RELIGION":"CHRISTIAN","ADDRESS":"4628 MINNESOTA AVENUE NE","ADDRID":288254,"XCOORD":405545.48,"YCOORD":137666.35},"geometry":{"type":"Point","coordinates":[-76.93606676699025,38.906846091904995]}},{"type":"Feature","properties":{"OBJECTID":91,"GIS_ID":"pow_140","NAME":"New Bethany Baptist","WEB_URL":"http://www.newbethanybaptistdc.org/","RELIGION":"CHRISTIAN","ADDRESS":"1300 10TH STREET NW","ADDRID":239326,"XCOORD":397723.97000000003,"YCOORD":137734.09},"geometry":{"type":"Point","coordinates":[-77.02624355064891,38.90747086085561]}},{"type":"Feature","properties":{"OBJECTID":92,"GIS_ID":"pow_142","NAME":"Greater Mount Calvary Holy Church","WEB_URL":"http://www.gmchc.org/cn2008/main.asp","RELIGION":"CHRISTIAN","ADDRESS":"610 RHODE ISLAND AVENUE NE","ADDRID":288779,"XCOORD":400187.04000000004,"YCOORD":139260.01},"geometry":{"type":"Point","coordinates":[-76.9978454096052,38.92121979023764]}},{"type":"Feature","properties":{"OBJECTID":93,"GIS_ID":"pow_143","NAME":"New Image Community Baptist","WEB_URL":"http://www.newimagecbc.org/","RELIGION":"CHRISTIAN","ADDRESS":"1839 ALABAMA AVENUE SE","ADDRID":54816,"XCOORD":401923.66000000003,"YCOORD":131095.25},"geometry":{"type":"Point","coordinates":[-76.97784220953717,38.84766641063713]}},{"type":"Feature","properties":{"OBJECTID":94,"GIS_ID":"pow_144","NAME":"New Mount Olive Baptist","WEB_URL":"","RELIGION":"CHRISTIAN","ADDRESS":"710 58TH STREET NE","ADDRID":76820,"XCOORD":407096.8,"YCOORD":136770.94},"geometry":{"type":"Point","coordinates":[-76.91819038909951,38.898768767462094]}},{"type":"Feature","properties":{"OBJECTID":95,"GIS_ID":"pow_145","NAME":"New Samaritan Baptist","WEB_URL":"http://www.newsamaritan.org/","RELIGION":"CHRISTIAN","ADDRESS":"1100 FLORIDA AVENUE NE","ADDRID":285821,"XCOORD":400735.75,"YCOORD":137313.44},"geometry":{"type":"Point","coordinates":[-76.99151997607797,38.90368413814915]}},{"type":"Feature","properties":{"OBJECTID":96,"GIS_ID":"pow_146","NAME":"Evangel Missionary Baptist Church","WEB_URL":"http://evangelmbc.org/","RELIGION":"CHRISTIAN","ADDRESS":"3200 22ND STREET NE","ADDRID":39025,"XCOORD":402211.44,"YCOORD":140296.82},"geometry":{"type":"Point","coordinates":[-76.97449744785361,38.93055694189264]}},{"type":"Feature","properties":{"OBJECTID":97,"GIS_ID":"pow_147","NAME":"Nineteenth Street Baptist","WEB_URL":"http://everyblessing.org/","RELIGION":"CHRISTIAN","ADDRESS":"4606 16TH STREET NW","ADDRID":258718,"XCOORD":396806.32,"YCOORD":142108.34},"geometry":{"type":"Point","coordinates":[-77.03684386174069,38.94687262502735]}},{"type":"Feature","properties":{"OBJECTID":98,"GIS_ID":"pow_148","NAME":"New York Ave Presbyterian","WEB_URL":"http://www.nyapc.org/","RELIGION":"CHRISTIAN","ADDRESS":"1313 NEW YORK AVENUE NW","ADDRID":279043,"XCOORD":397292.44,"YCOORD":136903.07},"geometry":{"type":"Point","coordinates":[-77.0312155570436,38.899983515181674]}},{"type":"Feature","properties":{"OBJECTID":99,"GIS_ID":"pow_149","NAME":"St Nicholas Cathedral","WEB_URL":"http://www.stnicholasdc.org/","RELIGION":"CHRISTIAN","ADDRESS":"3500 MASSACHUSETTS AVENUE NW","ADDRID":284693,"XCOORD":394047.44,"YCOORD":139670.64},"geometry":{"type":"Point","coordinates":[-77.06864852538027,38.924898733621]}},{"type":"Feature","properties":{"OBJECTID":100,"GIS_ID":"pow_151","NAME":"Old Pentecost","WEB_URL":"http://www.churchangel.com/church/Old-Pentecost-Church-40732.htm","RELIGION":"CHRISTIAN","ADDRESS":"727 HOBART PLACE NW","ADDRID":285391,"XCOORD":397923.85000000003,"YCOORD":139978.92},"geometry":{"type":"Point","coordinates":[-77.02394584329066,38.92769352780242]}},{"type":"Feature","properties":{"OBJECTID":101,"GIS_ID":"pow_152","NAME":"Ohev Sholom The National Synagogue","WEB_URL":"http://www.ostt.org/","RELIGION":"JEWISH","ADDRESS":"1600 JONQUIL STREET NW","ADDRID":256412,"XCOORD":396800.10000000003,"YCOORD":146241.81},"geometry":{"type":"Point","coordinates":[-77.03693490757148,38.98410792460552]}},{"type":"Feature","properties":{"OBJECTID":102,"GIS_ID":"pow_153","NAME":"Palisades Community Church","WEB_URL":"http://thepalisadescommunitychurch.org/","RELIGION":"CHRISTIAN","ADDRESS":"5200 CATHEDRAL AVENUE NW","ADDRID":224233,"XCOORD":390823.66000000003,"YCOORD":140236.01},"geometry":{"type":"Point","coordinates":[-77.10583340183285,38.929964008582424]}},{"type":"Feature","properties":{"OBJECTID":103,"GIS_ID":"pow_154","NAME":"Paramount Baptist","WEB_URL":"http://www.paramountbaptistchurch.org","RELIGION":"CHRISTIAN","ADDRESS":"3924 4TH STREET SE","ADDRID":29051,"XCOORD":399972.54000000004,"YCOORD":129377.64},"geometry":{"type":"Point","coordinates":[-77.00031854303658,38.83219550504809]}},{"type":"Feature","properties":{"OBJECTID":104,"GIS_ID":"pow_155","NAME":"Epiphany Catholic Church","WEB_URL":"http://georgetownepiphany.org/","RELIGION":"CHRISTIAN","ADDRESS":"2712 DUMBARTON STREET NW","ADDRID":274465,"XCOORD":395105.03,"YCOORD":137735.96},"geometry":{"type":"Point","coordinates":[-77.05643837251114,38.90747702189949]}},{"type":"Feature","properties":{"OBJECTID":105,"GIS_ID":"pow_156","NAME":"St. Gabriel's Catholic Church","WEB_URL":"http://www.stgabrieldc.org/","RELIGION":"CHRISTIAN","ADDRESS":"26 GRANT CIRCLE NW","ADDRID":247495,"XCOORD":398249.34,"YCOORD":141753.82},"geometry":{"type":"Point","coordinates":[-77.02019660293122,38.94368306964302]}},{"type":"Feature","properties":{"OBJECTID":106,"GIS_ID":"pow_157","NAME":"Holy Comforter - Saint Cyprian Roman Catholic Church","WEB_URL":"http://hcsc.catholicws.com/","RELIGION":"CHRISTIAN","ADDRESS":"1357 EAST CAPITOL STREET SE","ADDRID":286095,"XCOORD":401207.47000000003,"YCOORD":135741.37},"geometry":{"type":"Point","coordinates":[-76.98608437738633,38.88952183557257]}},{"type":"Feature","properties":{"OBJECTID":107,"GIS_ID":"pow_158","NAME":"Holy Name of Jesus","WEB_URL":"http://holynameparishdc.org/","RELIGION":"CHRISTIAN","ADDRESS":"920 11TH STREET NE","ADDRID":82493,"XCOORD":400713.95,"YCOORD":137109.53},"geometry":{"type":"Point","coordinates":[-76.99177151555591,38.90184726228906]}},{"type":"Feature","properties":{"OBJECTID":108,"GIS_ID":"pow_159","NAME":"Holy Redeemer Catholic Church","WEB_URL":"http://www.holyredeemerchurchdc.org/","RELIGION":"CHRISTIAN","ADDRESS":"206 NEW YORK AVENUE NW","ADDRID":279528,"XCOORD":398796.72000000003,"YCOORD":137505.87},"geometry":{"type":"Point","coordinates":[-77.01387498408734,38.90541709897278]}},{"type":"Feature","properties":{"OBJECTID":109,"GIS_ID":"pow_160","NAME":"The Church Of The Incarnation","WEB_URL":"http://www.josephites.org/parish/dc/ic/","RELIGION":"CHRISTIAN","ADDRESS":"880 EASTERN AVENUE NE","ADDRID":289041,"XCOORD":406891.99,"YCOORD":137051.39},"geometry":{"type":"Point","coordinates":[-76.9205486233718,38.90129679066062]}},{"type":"Feature","properties":{"OBJECTID":110,"GIS_ID":"pow_161","NAME":"Our Lady Of Victory Church","WEB_URL":"http://www.olvparishdc.org/","RELIGION":"CHRISTIAN","ADDRESS":"4835 MACARTHUR BOULEVARD NW","ADDRID":284983,"XCOORD":391784.25,"YCOORD":138727.5},"geometry":{"type":"Point","coordinates":[-77.09473682997194,38.91638437901335]}},{"type":"Feature","properties":{"OBJECTID":111,"GIS_ID":"pow_162","NAME":"St Peter's Catholic Church","WEB_URL":"http://saintpetersdc.org/","RELIGION":"CHRISTIAN","ADDRESS":"313 2ND STREET SE","ADDRID":289156,"XCOORD":399673.71,"YCOORD":135308.98},"geometry":{"type":"Point","coordinates":[-77.00376305974187,38.885627470069394]}},{"type":"Feature","properties":{"OBJECTID":112,"GIS_ID":"pow_163","NAME":"Our Lady Queen Of The Americas","WEB_URL":"http://www.ourladyqueenoftheamericasdc.org/","RELIGION":"CHRISTIAN","ADDRESS":"2200 CALIFORNIA STREET NW","ADDRID":235042,"XCOORD":395727.28,"YCOORD":138662.11000000002},"geometry":{"type":"Point","coordinates":[-77.04926996545284,38.915823341365076]}},{"type":"Feature","properties":{"OBJECTID":113,"GIS_ID":"pow_164","NAME":"Our Lady Queen of Peace Parish","WEB_URL":"http://www.olqpdc.org/","RELIGION":"CHRISTIAN","ADDRESS":"3800 ELY PLACE SE","ADDRID":288020,"XCOORD":404542.9,"YCOORD":135022.63},"geometry":{"type":"Point","coordinates":[-76.94764329301817,38.88303624545379]}},{"type":"Feature","properties":{"OBJECTID":114,"GIS_ID":"pow_165","NAME":"St Stephen Martyr Catholic Church","WEB_URL":"http://www.ststephenmartyrdc.org/","RELIGION":"CHRISTIAN","ADDRESS":"2436 PENNSYLVANIA AVENUE NW","ADDRID":273953,"XCOORD":395399.15,"YCOORD":137255.82},"geometry":{"type":"Point","coordinates":[-77.05304412816847,38.903153341559964]}},{"type":"Feature","properties":{"OBJECTID":115,"GIS_ID":"pow_166","NAME":"St Frances Xavier Catholic Church","WEB_URL":null,"RELIGION":"CHRISTIAN","ADDRESS":"2800 PENNSYLVANIA AVENUE SE","ADDRID":44697,"XCOORD":402819.4,"YCOORD":133855.28},"geometry":{"type":"Point","coordinates":[-76.96751220030427,38.87252751074597]}},{"type":"Feature","properties":{"OBJECTID":116,"GIS_ID":"pow_167","NAME":"St. Luke Roman Catholic Church","WEB_URL":"http://www.josephites.org/parish/dc/sl/","RELIGION":"CHRISTIAN","ADDRESS":"4925 EAST CAPITOL STREET SE","ADDRID":288338,"XCOORD":406012.38,"YCOORD":135721.07},"geometry":{"type":"Point","coordinates":[-76.93070076248944,38.88931923834693]}},{"type":"Feature","properties":{"OBJECTID":117,"GIS_ID":"pow_168","NAME":"St Thomas Moore Church","WEB_URL":"http://www.thomasmoredc.org/","RELIGION":"CHRISTIAN","ADDRESS":"4275 4TH STREET SE","ADDRID":276628,"XCOORD":400003.9,"YCOORD":128589.91},"geometry":{"type":"Point","coordinates":[-76.99995736617336,38.82509926465097]}},{"type":"Feature","properties":{"OBJECTID":118,"GIS_ID":"pow_169","NAME":"St Vincent DePaul Church","WEB_URL":"http://stvincentdepauldc.org/","RELIGION":"CHRISTIAN","ADDRESS":"14 M STREET SE","ADDRID":301422,"XCOORD":399273.55,"YCOORD":134313.48},"geometry":{"type":"Point","coordinates":[-77.00837420022962,38.87665937790369]}},{"type":"Feature","properties":{"OBJECTID":119,"GIS_ID":"pow_170","NAME":"Shrine of the Most Blessed Sacrament","WEB_URL":"http://www.blessedsacramentdc.org/","RELIGION":"CHRISTIAN","ADDRESS":"3630 QUESADA STREET NW","ADDRID":301240,"XCOORD":393488.75,"YCOORD":144503.13},"geometry":{"type":"Point","coordinates":[-77.07513733012651,38.96842718820588]}},{"type":"Feature","properties":{"OBJECTID":120,"GIS_ID":"pow_171","NAME":"Immaculate Conception Church","WEB_URL":"http://www.immaculateconceptionchurchdc.org/","RELIGION":"CHRISTIAN","ADDRESS":"1315 8TH STREET NW","ADDRID":238403,"XCOORD":398040.22000000003,"YCOORD":137765.04},"geometry":{"type":"Point","coordinates":[-77.02259746551303,38.90775043138282]}},{"type":"Feature","properties":{"OBJECTID":121,"GIS_ID":"pow_172","NAME":"People's Congregational United Church of Christ","WEB_URL":"http://peopleschurchucc.org/","RELIGION":"CHRISTIAN","ADDRESS":"4704 13TH STREET NW","ADDRID":284954,"XCOORD":397388.04000000004,"YCOORD":142152.09},"geometry":{"type":"Point","coordinates":[-77.03013343759257,38.94726865979926]}},{"type":"Feature","properties":{"OBJECTID":122,"GIS_ID":"pow_173","NAME":"Pilgrim AME Church","WEB_URL":null,"RELIGION":"CHRISTIAN","ADDRESS":"612 17TH STREET NE","ADDRID":4642,"XCOORD":401709.61,"YCOORD":136615.88},"geometry":{"type":"Point","coordinates":[-76.98029428409762,38.89739891288464]}},{"type":"Feature","properties":{"OBJECTID":123,"GIS_ID":"pow_174","NAME":"Plymouth Congregational United Church of Christ","WEB_URL":"http://www.plymouth-ucc.org/","RELIGION":"CHRISTIAN","ADDRESS":"5301 NORTH CAPITOL STREET NE","ADDRID":156413,"XCOORD":399243.78,"YCOORD":143030.14},"geometry":{"type":"Point","coordinates":[-77.00872688774703,38.95518193317777]}},{"type":"Feature","properties":{"OBJECTID":124,"GIS_ID":"pow_71","NAME":"Christ Church Georgetown","WEB_URL":"http://www.christchurchgeorgetown.org/","RELIGION":"CHRISTIAN","ADDRESS":"3116 O STREET NW","ADDRID":277254,"XCOORD":394623.91000000003,"YCOORD":137817.9},"geometry":{"type":"Point","coordinates":[-77.06198603941104,38.90821235443247]}},{"type":"Feature","properties":{"OBJECTID":125,"GIS_ID":"pow_73","NAME":"Christ Our Shepherd Church","WEB_URL":"http://www.christourshepherd.org/","RELIGION":"CHRISTIAN","ADDRESS":"801 NORTH CAROLINA AVENUE SE","ADDRID":79626,"XCOORD":400487.18,"YCOORD":135549.85},"geometry":{"type":"Point","coordinates":[-76.9943869372463,38.887797244834154]}},{"type":"Feature","properties":{"OBJECTID":126,"GIS_ID":"pow_74","NAME":"Capitol Hill United Methodist","WEB_URL":"http://www.chumc.net/","RELIGION":"CHRISTIAN","ADDRESS":"421 SEWARD SQUARE SE","ADDRID":25345,"XCOORD":400013.2,"YCOORD":135271.8},"geometry":{"type":"Point","coordinates":[-76.99985014183147,38.88529259896445]}},{"type":"Feature","properties":{"OBJECTID":127,"GIS_ID":"pow_75","NAME":"Church of the Pilgrims","WEB_URL":"http://www.churchofthepilgrims.org/","RELIGION":"CHRISTIAN","ADDRESS":"2201 P STREET NW","ADDRID":301069,"XCOORD":395722.41000000003,"YCOORD":138053.75},"geometry":{"type":"Point","coordinates":[-77.0493223299953,38.91034300539213]}},{"type":"Feature","properties":{"OBJECTID":128,"GIS_ID":"pow_77","NAME":"St Columba's Episcopal","WEB_URL":"http://www.columba.org/","RELIGION":"CHRISTIAN","ADDRESS":"4201 ALBEMARLE STREET NW","ADDRID":301545,"XCOORD":392853.08,"YCOORD":142261.1},"geometry":{"type":"Point","coordinates":[-77.08244912434844,38.94822546063592]}},{"type":"Feature","properties":{"OBJECTID":129,"GIS_ID":"pow_78","NAME":"Cleveland Park United","WEB_URL":"http://www.cpcchurch.org/","RELIGION":"CHRISTIAN","ADDRESS":"3400 LOWELL STREET NW","ADDRID":221258,"XCOORD":394218.36,"YCOORD":140494.56},"geometry":{"type":"Point","coordinates":[-77.0666843797537,38.93232200214908]}},{"type":"Feature","properties":{"OBJECTID":130,"GIS_ID":"pow_79","NAME":"Christ United Methodist Church","WEB_URL":"http://www.cumcdc.org/welcome","RELIGION":"CHRISTIAN","ADDRESS":"900 4TH STREET SW","ADDRID":276853,"XCOORD":398548.63,"YCOORD":134561.46},"geometry":{"type":"Point","coordinates":[-77.01672900960885,38.87889238176121]}},{"type":"Feature","properties":{"OBJECTID":131,"GIS_ID":"pow_80","NAME":"DC Christian Reformed Church","WEB_URL":"http://www.dccrcsandbox.org/","RELIGION":"CHRISTIAN","ADDRESS":"5911 NEW HAMPSHIRE AVENUE NE","ADDRID":52221,"XCOORD":399576.14,"YCOORD":143767.80000000002},"geometry":{"type":"Point","coordinates":[-77.0048928669123,38.96182719052552]}},{"type":"Feature","properties":{"OBJECTID":132,"GIS_ID":"pow_81","NAME":"Grace Evangelical Lutheran Church","WEB_URL":"http://graceelcadc.org/site/cs/Index.asp","RELIGION":"CHRISTIAN","ADDRESS":"4300 16TH STREET NW","ADDRID":258561,"XCOORD":396814.15,"YCOORD":141701.21},"geometry":{"type":"Point","coordinates":[-77.03675164574405,38.94320511075248]}},{"type":"Feature","properties":{"OBJECTID":133,"GIS_ID":"pow_82","NAME":"Dumbarton United Methodist","WEB_URL":"http://www.dumbartonumc.org","RELIGION":"CHRISTIAN","ADDRESS":"3133 DUMBARTON STREET NW","ADDRID":275439,"XCOORD":394577.09,"YCOORD":137783.23},"geometry":{"type":"Point","coordinates":[-77.06252557773524,38.907899747463944]}},{"type":"Feature","properties":{"OBJECTID":134,"GIS_ID":"pow_83","NAME":"Dupont Park Seventh-Day","WEB_URL":"http://www.dupontpark.org/","RELIGION":"CHRISTIAN","ADDRESS":"3985 MASSACHUSETTS AVENUE SE","ADDRID":28463,"XCOORD":404595.69,"YCOORD":133763.63},"geometry":{"type":"Point","coordinates":[-76.947043281664,38.87169440236083]}},{"type":"Feature","properties":{"OBJECTID":135,"GIS_ID":"pow_84","NAME":"Episcopal Church of the Atonement","WEB_URL":"http://www.atonementepiscopalchurch.org/site/index.php","RELIGION":"CHRISTIAN","ADDRESS":"5073 EAST CAPITOL STREET SE","ADDRID":13894,"XCOORD":406303.31,"YCOORD":135728.72},"geometry":{"type":"Point","coordinates":[-76.92734729765013,38.889386114819004]}},{"type":"Feature","properties":{"OBJECTID":136,"GIS_ID":"pow_85","NAME":"St Augustine's Episcopal","WEB_URL":"http://www.staugustinesdc.org/","RELIGION":"CHRISTIAN","ADDRESS":"600 M STREET SW","ADDRID":276679,"XCOORD":398241.61,"YCOORD":134248.03},"geometry":{"type":"Point","coordinates":[-77.02026654701315,38.87606831979483]}},{"type":"Feature","properties":{"OBJECTID":137,"GIS_ID":"pow_86","NAME":"The Emory Fellowship United Methodist Church","WEB_URL":"http://emoryfellowship.org/","RELIGION":"CHRISTIAN","ADDRESS":"6100 GEORGIA AVENUE NW","ADDRID":253200,"XCOORD":397552.12,"YCOORD":144028.75},"geometry":{"type":"Point","coordinates":[-77.02824733646202,38.96417458424683]}},{"type":"Feature","properties":{"OBJECTID":138,"GIS_ID":"pow_87","NAME":"Church Of The Epiphany","WEB_URL":"http://www.epiphanydc.org/","RELIGION":"CHRISTIAN","ADDRESS":"1317 G STREET NW","ADDRID":279048,"XCOORD":397356.87,"YCOORD":136756.7},"geometry":{"type":"Point","coordinates":[-77.03047223235339,38.89866515751887]}},{"type":"Feature","properties":{"OBJECTID":139,"GIS_ID":"pow_88","NAME":"Washington Ethical Society","WEB_URL":"http://www.ethicalsociety.org/","RELIGION":"CHRISTIAN","ADDRESS":"7750 16TH STREET NW","ADDRID":256418,"XCOORD":396804.08,"YCOORD":146373.03},"geometry":{"type":"Point","coordinates":[-77.03688958324472,38.98528999681959]}},{"type":"Feature","properties":{"OBJECTID":140,"GIS_ID":"pow_89","NAME":"Fabrangen's","WEB_URL":"http://www.fabrangen.org","RELIGION":"JEWISH","ADDRESS":"7750 16TH STREET NW","ADDRID":256418,"XCOORD":396804.08,"YCOORD":146373.03},"geometry":{"type":"Point","coordinates":[-77.03688958324472,38.98528999681959]}},{"type":"Feature","properties":{"OBJECTID":141,"GIS_ID":"pow_90","NAME":"Faith United Presbyterian","WEB_URL":"http://www.faithpchurch.org/","RELIGION":"CHRISTIAN","ADDRESS":"4161 SOUTH CAPITOL STREET SW","ADDRID":25915,"XCOORD":399274.16000000003,"YCOORD":129082.54000000001},"geometry":{"type":"Point","coordinates":[-77.0083616472446,38.82953680769742]}},{"type":"Feature","properties":{"OBJECTID":142,"GIS_ID":"pow_91","NAME":"First Baptist Church of the City of Washington DC","WEB_URL":"http://www.firstbaptistdc.org","RELIGION":"CHRISTIAN","ADDRESS":"1328 16TH STREET NW","ADDRID":279074,"XCOORD":396758.18,"YCOORD":137844.77},"geometry":{"type":"Point","coordinates":[-77.03737905405082,38.90846487273619]}},{"type":"Feature","properties":{"OBJECTID":143,"GIS_ID":"pow_92","NAME":"Buenas Nuevas De Salvacion, Iglesia Bautista","WEB_URL":null,"RELIGION":"CHRISTIAN","ADDRESS":"1328 16TH STREET NW","ADDRID":279074,"XCOORD":396758.18,"YCOORD":137844.77},"geometry":{"type":"Point","coordinates":[-77.03737905405082,38.90846487273619]}},{"type":"Feature","properties":{"OBJECTID":144,"GIS_ID":"pow_93","NAME":"First Rising Mt Zion Baptist","WEB_URL":"http://www.firstrising.org","RELIGION":"CHRISTIAN","ADDRESS":"602 N STREET NW","ADDRID":296144,"XCOORD":398227.02,"YCOORD":137683.73},"geometry":{"type":"Point","coordinates":[-77.02044355475176,38.907018359337314]}},{"type":"Feature","properties":{"OBJECTID":145,"GIS_ID":"pow_94","NAME":"First Church of Seventh Day Adventist","WEB_URL":"http://www.firstsdachurch.org","RELIGION":"CHRISTIAN","ADDRESS":"810 SHEPHERD STREET NW","ADDRID":252544,"XCOORD":397953.75,"YCOORD":141297.03},"geometry":{"type":"Point","coordinates":[-77.02360494743053,38.93956753375185]}},{"type":"Feature","properties":{"OBJECTID":146,"GIS_ID":"pow_95","NAME":"First Trinity Lutheran Church","WEB_URL":"http://www.firsttrinitydc.org/","RELIGION":"CHRISTIAN","ADDRESS":"501 4TH STREET NW","ADDRID":242842,"XCOORD":398624.24,"YCOORD":136504.16},"geometry":{"type":"Point","coordinates":[-77.01586151128814,38.89639308287842]}},{"type":"Feature","properties":{"OBJECTID":147,"GIS_ID":"pow_96","NAME":"Fisherman Of Men","WEB_URL":"http://www.fishermanofmenchurch.org/","RELIGION":"CHRISTIAN","ADDRESS":"3641 GEORGIA AVENUE NW","ADDRID":228340,"XCOORD":397926.83,"YCOORD":140848.92},"geometry":{"type":"Point","coordinates":[-77.02391410453012,38.93553076245223]}},{"type":"Feature","properties":{"OBJECTID":148,"GIS_ID":"pow_97","NAME":"Florida Avenue Baptist","WEB_URL":"http://www.flavbc.org","RELIGION":"CHRISTIAN","ADDRESS":"623 FLORIDA AVENUE NW","ADDRID":229855,"XCOORD":398193.09,"YCOORD":138699.48},"geometry":{"type":"Point","coordinates":[-77.02083741827798,38.91616851275829]}},{"type":"Feature","properties":{"OBJECTID":149,"GIS_ID":"pow_98","NAME":"Foundry United Methodist","WEB_URL":"http://www.foundryumc.org/","RELIGION":"CHRISTIAN","ADDRESS":"1500 16TH STREET NW","ADDRID":243309,"XCOORD":396801.38,"YCOORD":138019.76},"geometry":{"type":"Point","coordinates":[-77.03688179212281,38.910041401235084]}},{"type":"Feature","properties":{"OBJECTID":150,"GIS_ID":"pow_99","NAME":"Freedom Baptist","WEB_URL":"","RELIGION":"CHRISTIAN","ADDRESS":"1519 U STREET NW","ADDRID":242058,"XCOORD":396912.04000000004,"YCOORD":138817.45},"geometry":{"type":"Point","coordinates":[-77.03560949036886,38.91722765765638]}},{"type":"Feature","properties":{"OBJECTID":151,"GIS_ID":"pow_101","NAME":"Lincoln Park United Methodist","WEB_URL":"http://www.lpumcdc.org/","RELIGION":"CHRISTIAN","ADDRESS":"1301 NORTH CAROLINA AVENUE NE","ADDRID":68827,"XCOORD":401040.96,"YCOORD":135834.38},"geometry":{"type":"Point","coordinates":[-76.9880035143693,38.89035991750182]}},{"type":"Feature","properties":{"OBJECTID":152,"GIS_ID":"pow_102","NAME":"Ryland Epworth United Methodist","WEB_URL":null,"RELIGION":"CHRISTIAN","ADDRESS":"3200 S STREET SE","ADDRID":38824,"XCOORD":403496.31,"YCOORD":133383.67},"geometry":{"type":"Point","coordinates":[-76.95971405284833,38.86827662589985]}},{"type":"Feature","properties":{"OBJECTID":153,"GIS_ID":"pow_104","NAME":"Star of Bethlem Church","WEB_URL":"http://www.starofbethlehemcogic.com/","RELIGION":"CHRISTIAN","ADDRESS":"5331 COLORADO AVENUE NW","ADDRID":255845,"XCOORD":397074.5,"YCOORD":143015.36000000002},"geometry":{"type":"Point","coordinates":[-77.03375406678951,38.95504424375532]}},{"type":"Feature","properties":{"OBJECTID":154,"GIS_ID":"pow_105","NAME":"Georgetown Baptist Church","WEB_URL":"http://www.georgetowndc.com/explore/services/georgetown-baptist-church-3101-n-st-nw/","RELIGION":"CHRISTIAN","ADDRESS":"3101 N STREET NW","ADDRID":223424,"XCOORD":394672.11,"YCOORD":137687.85},"geometry":{"type":"Point","coordinates":[-77.06142930754153,38.90704111256947]}},{"type":"Feature","properties":{"OBJECTID":155,"GIS_ID":"pow_213","NAME":"Maranatha Gospel Hall","WEB_URL":null,"RELIGION":"CHRISTIAN","ADDRESS":"4910 13TH STREET NW","ADDRID":255098,"XCOORD":397403.04000000004,"YCOORD":142513.30000000002},"geometry":{"type":"Point","coordinates":[-77.02996176771188,38.95052258424169]}},{"type":"Feature","properties":{"OBJECTID":156,"GIS_ID":"pow_214","NAME":"Ship of Salvation Church","WEB_URL":null,"RELIGION":"CHRISTIAN","ADDRESS":"4914 CENTRAL AVENUE NE","ADDRID":303272,"XCOORD":405872.43,"YCOORD":135866.59},"geometry":{"type":"Point","coordinates":[-76.93231264778372,38.890631082786186]}},{"type":"Feature","properties":{"OBJECTID":157,"GIS_ID":"pow_215","NAME":"New Beginning Evangelististic Church","WEB_URL":"http://www.nbwotc.org/tp50/Default.asp?ID=32951","RELIGION":"CHRISTIAN","ADDRESS":"4928 BLAINE STREET NE","ADDRID":15909,"XCOORD":405953.25,"YCOORD":136027.5},"geometry":{"type":"Point","coordinates":[-76.93137966751117,38.892080076331354]}},{"type":"Feature","properties":{"OBJECTID":158,"GIS_ID":"pow_216","NAME":"Hemingway Temple AME Church","WEB_URL":null,"RELIGION":"CHRISTIAN","ADDRESS":"501 P STREET NW","ADDRID":238838,"XCOORD":398339.63,"YCOORD":138000.98},"geometry":{"type":"Point","coordinates":[-77.01914600419607,38.90987647720731]}},{"type":"Feature","properties":{"OBJECTID":159,"GIS_ID":"pow_217","NAME":"The Leading Commandment Church of God","WEB_URL":null,"RELIGION":"CHRISTIAN","ADDRESS":"5023 CENTRAL AVENUE SE","ADDRID":14736,"XCOORD":406157.81,"YCOORD":135667.24},"geometry":{"type":"Point","coordinates":[-76.92902495094867,38.88883331100183]}},{"type":"Feature","properties":{"OBJECTID":160,"GIS_ID":"pow_218","NAME":"East Capitol Church of Christ","WEB_URL":null,"RELIGION":"CHRISTIAN","ADDRESS":"5026 EAST CAPITOL STREET NE","ADDRID":150899,"XCOORD":406170.02,"YCOORD":135804.54},"geometry":{"type":"Point","coordinates":[-76.92888298091388,38.890070075211405]}},{"type":"Feature","properties":{"OBJECTID":161,"GIS_ID":"pow_219","NAME":"Little Rock Church Of Christ Bibleway","WEB_URL":null,"RELIGION":"CHRISTIAN","ADDRESS":"5030 SHERIFF ROAD NE","ADDRID":14639,"XCOORD":406276.39,"YCOORD":137335.12},"geometry":{"type":"Point","coordinates":[-76.92764291456218,38.903857341524485]}},{"type":"Feature","properties":{"OBJECTID":162,"GIS_ID":"pow_220","NAME":"Enon Baptist","WEB_URL":"","RELIGION":"CHRISTIAN","ADDRESS":"505 L STREET NE","ADDRID":14239,"XCOORD":400093.5,"YCOORD":137300.09},"geometry":{"type":"Point","coordinates":[-76.99892434364799,38.9035641792928]}},{"type":"Feature","properties":{"OBJECTID":163,"GIS_ID":"pow_221","NAME":"The Greater New Highway Christian Church of Christ","WEB_URL":null,"RELIGION":"CHRISTIAN","ADDRESS":"5057 C STREET SE","ADDRID":14124,"XCOORD":406183.13,"YCOORD":135229.57},"geometry":{"type":"Point","coordinates":[-76.92873704081684,38.88489043628379]}},{"type":"Feature","properties":{"OBJECTID":164,"GIS_ID":"pow_222","NAME":"Springfield Baptist","WEB_URL":"http://www.springfielddc.org/about-us/","RELIGION":"CHRISTIAN","ADDRESS":"508 P STREET NW","ADDRID":279812,"XCOORD":398302.51,"YCOORD":137939.73},"geometry":{"type":"Point","coordinates":[-77.01957383860929,38.909324645185364]}},{"type":"Feature","properties":{"OBJECTID":165,"GIS_ID":"pow_223","NAME":"St Lucille AME Zion","WEB_URL":null,"RELIGION":"CHRISTIAN","ADDRESS":"5100 ASTOR PLACE SE","ADDRID":13513,"XCOORD":406300.19,"YCOORD":135483.53},"geometry":{"type":"Point","coordinates":[-76.92738550824595,38.887177373430355]}},{"type":"Feature","properties":{"OBJECTID":166,"GIS_ID":"pow_583","NAME":"Walker Memorial Baptist","WEB_URL":"http://www.wmbcdc.org/","RELIGION":"CHRISTIAN","ADDRESS":"2020 13TH STREET NW","ADDRID":240352,"XCOORD":397400.31,"YCOORD":138861.58000000002},"geometry":{"type":"Point","coordinates":[-77.02997942620745,38.91762677552623]}},{"type":"Feature","properties":{"OBJECTID":167,"GIS_ID":"pow_584","NAME":"Trinity Religious Temple Church","WEB_URL":null,"RELIGION":"CHRISTIAN","ADDRESS":"2024 16TH STREET NW","ADDRID":241835,"XCOORD":396797.59,"YCOORD":138870.76},"geometry":{"type":"Point","coordinates":[-77.03692945960583,38.917707482133615]}},{"type":"Feature","properties":{"OBJECTID":168,"GIS_ID":"pow_586","NAME":"St Mary Eritrean Orthodox Tewando Chruch","WEB_URL":null,"RELIGION":"CHRISTIAN","ADDRESS":"211 UPSHUR STREET NW","ADDRID":244386,"XCOORD":398764.79000000004,"YCOORD":141618.52},"geometry":{"type":"Point","coordinates":[-77.01425051006618,38.942465124432935]}},{"type":"Feature","properties":{"OBJECTID":169,"GIS_ID":"pow_587","NAME":"Emanuel Faith Tabernacle","WEB_URL":null,"RELIGION":"CHRISTIAN","ADDRESS":"215 UPSHUR STREET NW","ADDRID":244383,"XCOORD":398749.78,"YCOORD":141610.74},"geometry":{"type":"Point","coordinates":[-77.01442363716247,38.94239501870369]}},{"type":"Feature","properties":{"OBJECTID":170,"GIS_ID":"pow_588","NAME":"Emmanuel Baptist","WEB_URL":"http://emmanuelbaptistdc.org/","RELIGION":"CHRISTIAN","ADDRESS":"2409 AINGER PLACE SE","ADDRID":150401,"XCOORD":402442.92,"YCOORD":132083.3},"geometry":{"type":"Point","coordinates":[-76.97185695889968,38.85656590527931]}},{"type":"Feature","properties":{"OBJECTID":171,"GIS_ID":"pow_589","NAME":"Kingdom Hall Jehovah's Witness","WEB_URL":null,"RELIGION":"CHRISTIAN","ADDRESS":"2430 AINGER PLACE SE","ADDRID":47171,"XCOORD":402559.43,"YCOORD":132058.87},"geometry":{"type":"Point","coordinates":[-76.97051471716713,38.8563454981341]}},{"type":"Feature","properties":{"OBJECTID":172,"GIS_ID":"pow_591","NAME":"Kingdom Hall Jehovahs Witness","WEB_URL":null,"RELIGION":"CHRISTIAN","ADDRESS":"2950 ARIZONA AVENUE NW","ADDRID":268661,"XCOORD":391300.57,"YCOORD":140245.19},"geometry":{"type":"Point","coordinates":[-77.1003332995938,38.93005155615127]}},{"type":"Feature","properties":{"OBJECTID":173,"GIS_ID":"pow_592","NAME":"Brookland Union Baptist","WEB_URL":"http://brooklandunionbaptist.org/","RELIGION":"CHRISTIAN","ADDRESS":"3101 14TH STREET NE","ADDRID":40723,"XCOORD":401238.11,"YCOORD":140127.89},"geometry":{"type":"Point","coordinates":[-76.98572329919315,38.929037078104194]}},{"type":"Feature","properties":{"OBJECTID":174,"GIS_ID":"pow_593","NAME":"Masjid Ush-Shura","WEB_URL":null,"RELIGION":"ISLAM","ADDRESS":"3109 MARTIN LUTHER KING JR AVENUE SE","ADDRID":40480,"XCOORD":400036.16000000003,"YCOORD":130652.47},"geometry":{"type":"Point","coordinates":[-76.99958574942738,38.84367975360731]}},{"type":"Feature","properties":{"OBJECTID":175,"GIS_ID":"pow_595","NAME":"Chinesse Community Church","WEB_URL":"http://www.cccdc.com/","RELIGION":"CHRISTIAN","ADDRESS":"500 I STREET NW","ADDRID":238945,"XCOORD":398340.58,"YCOORD":136974.23},"geometry":{"type":"Point","coordinates":[-77.01913256953148,38.90062715402352]}},{"type":"Feature","properties":{"OBJECTID":176,"GIS_ID":"pow_596","NAME":"Masjid Al- Islam","WEB_URL":null,"RELIGION":"ISLAM","ADDRESS":"5021 A STREET SE","ADDRID":288430,"XCOORD":406134.60000000003,"YCOORD":135534.55},"geometry":{"type":"Point","coordinates":[-76.92929366297044,38.88763815178771]}},{"type":"Feature","properties":{"OBJECTID":177,"GIS_ID":"pow_597","NAME":"Kingdom Hall of Jehovah's Witnesses","WEB_URL":null,"RELIGION":"CHRISTIAN","ADDRESS":"5113 14TH STREET NW","ADDRID":255043,"XCOORD":397133.96,"YCOORD":142754.63},"geometry":{"type":"Point","coordinates":[-77.03306698134372,38.952695713881]}},{"type":"Feature","properties":{"OBJECTID":178,"GIS_ID":"pow_598","NAME":"Masjid-ul Allah","WEB_URL":null,"RELIGION":"ISLAM","ADDRESS":"531 KENNEDY STREET NW","ADDRID":246689,"XCOORD":398173.02,"YCOORD":143189.06},"geometry":{"type":"Point","coordinates":[-77.02108079741515,38.95661195178223]}},{"type":"Feature","properties":{"OBJECTID":179,"GIS_ID":"pow_599","NAME":"Friendship Baptist Church","WEB_URL":"http://www.friendshipbaptistdc.org/","RELIGION":"CHRISTIAN","ADDRESS":"900 DELAWARE AVENUE SW","ADDRID":276854,"XCOORD":398915.56,"YCOORD":134565.2},"geometry":{"type":"Point","coordinates":[-77.01250022617516,38.87892660240621]}},{"type":"Feature","properties":{"OBJECTID":180,"GIS_ID":"pow_600","NAME":"Jehovah's Witnesses Hall","WEB_URL":null,"RELIGION":"CHRISTIAN","ADDRESS":"3126 SOUTH DAKOTA AVENUE NE","ADDRID":39911,"XCOORD":402475.16000000003,"YCOORD":140322.76},"geometry":{"type":"Point","coordinates":[-76.97145583596404,38.930789914235525]}},{"type":"Feature","properties":{"OBJECTID":181,"GIS_ID":"pow_601","NAME":"Emanuel Church of God in Christ","WEB_URL":"http://www.emmanuelchurch-dc.org/","RELIGION":"CHRISTIAN","ADDRESS":"2600 MINNESOTA AVENUE SE","ADDRID":46158,"XCOORD":402657.02,"YCOORD":134071},"geometry":{"type":"Point","coordinates":[-76.9693825941876,38.87447130868578]}},{"type":"Feature","properties":{"OBJECTID":182,"GIS_ID":"pow_602","NAME":"Greater First Baptist","WEB_URL":"http://www.greaterfirstbaptist.org/","RELIGION":"CHRISTIAN","ADDRESS":"2701 13TH STREET NW","ADDRID":231841,"XCOORD":397462.11,"YCOORD":139682.51},"geometry":{"type":"Point","coordinates":[-77.02926984305114,38.92502216026554]}},{"type":"Feature","properties":{"OBJECTID":183,"GIS_ID":"pow_603","NAME":"Potomac Baptist","WEB_URL":null,"RELIGION":"CHRISTIAN","ADDRESS":"3340 MINNESOTA AVENUE SE","ADDRID":35813,"XCOORD":403560,"YCOORD":134930.61000000002},"geometry":{"type":"Point","coordinates":[-76.9589721376242,38.882211822327626]}},{"type":"Feature","properties":{"OBJECTID":184,"GIS_ID":"pow_605","NAME":"Sharon Baptist","WEB_URL":"http://www.sharonbaptistchurchofwashingtondc.com/","RELIGION":"CHRISTIAN","ADDRESS":"3825 26TH STREET NE","ADDRID":29943,"XCOORD":402618.94,"YCOORD":141006.09},"geometry":{"type":"Point","coordinates":[-76.96979498898342,38.93694514159707]}},{"type":"Feature","properties":{"OBJECTID":185,"GIS_ID":"pow_606","NAME":"Russian Orothodox-of St John The Baptist","WEB_URL":"http://www.stjohndc.org/","RELIGION":"CHRISTIAN","ADDRESS":"4001 17TH STREET NW","ADDRID":258332,"XCOORD":396722.69,"YCOORD":141363.67},"geometry":{"type":"Point","coordinates":[-77.03780504084331,38.94016411611603]}},{"type":"Feature","properties":{"OBJECTID":186,"GIS_ID":"pow_607","NAME":"New Macedonia Baptist","WEB_URL":"http://www.tnmbc.org/","RELIGION":"CHRISTIAN","ADDRESS":"4115 ALABAMA AVENUE SE","ADDRID":26681,"XCOORD":405000.19,"YCOORD":133650.99},"geometry":{"type":"Point","coordinates":[-76.94238279646873,38.8706774889665]}},{"type":"Feature","properties":{"OBJECTID":187,"GIS_ID":"pow_608","NAME":"St Judah Spiritual Baptist","WEB_URL":null,"RELIGION":"CHRISTIAN","ADDRESS":"43 ANACOSTIA ROAD NE","ADDRID":24092,"XCOORD":404248.46,"YCOORD":135934},"geometry":{"type":"Point","coordinates":[-76.95103121304328,38.891247684172605]}},{"type":"Feature","properties":{"OBJECTID":188,"GIS_ID":"pow_609","NAME":"New Bible Baptist","WEB_URL":null,"RELIGION":"CHRISTIAN","ADDRESS":"4421 JAY STREET NE","ADDRID":21682,"XCOORD":405413.62,"YCOORD":137048.52},"geometry":{"type":"Point","coordinates":[-76.93759188982956,38.90128128401057]}},{"type":"Feature","properties":{"OBJECTID":189,"GIS_ID":"pow_610","NAME":"Pilgrim Rest Baptist","WEB_URL":"http://www.pilgrimrestbaptistdc.org/","RELIGION":"CHRISTIAN","ADDRESS":"4611 SHERIFF ROAD NE","ADDRID":19329,"XCOORD":405553.39,"YCOORD":137189.07},"geometry":{"type":"Point","coordinates":[-76.93597942915456,38.90254653645558]}},{"type":"Feature","properties":{"OBJECTID":190,"GIS_ID":"pow_611","NAME":"Progress For Christ Baptist","WEB_URL":"http://www.progressforchrist.org/","RELIGION":"CHRISTIAN","ADDRESS":"501 E STREET SE","ADDRID":15241,"XCOORD":400064.47000000003,"YCOORD":134963.77},"geometry":{"type":"Point","coordinates":[-76.999259241828,38.882517743611864]}},{"type":"Feature","properties":{"OBJECTID":191,"GIS_ID":"pow_613","NAME":"Good Samaritan Baptist","WEB_URL":null,"RELIGION":"CHRISTIAN","ADDRESS":"5100 E STREET SE","ADDRID":13524,"XCOORD":406183.69,"YCOORD":134963.96},"geometry":{"type":"Point","coordinates":[-76.92873297626285,38.88249771560652]}},{"type":"Feature","properties":{"OBJECTID":192,"GIS_ID":"pow_614","NAME":"Mt Zion Baptist","WEB_URL":"","RELIGION":"CHRISTIAN","ADDRESS":"5101 14TH STREET NW","ADDRID":255034,"XCOORD":397127.58,"YCOORD":142693.34},"geometry":{"type":"Point","coordinates":[-77.03314032888854,38.952143576087366]}},{"type":"Feature","properties":{"OBJECTID":193,"GIS_ID":"pow_615","NAME":"Mount Joy Baptist","WEB_URL":"","RELIGION":"CHRISTIAN","ADDRESS":"514 4TH STREET SE","ADDRID":277597,"XCOORD":399971.89,"YCOORD":134918.62},"geometry":{"type":"Point","coordinates":[-77.00032625876727,38.8821110167502]}},{"type":"Feature","properties":{"OBJECTID":194,"GIS_ID":"pow_616","NAME":"Upper Room Baptist","WEB_URL":null,"RELIGION":"CHRISTIAN","ADDRESS":"60 BURNS STREET NE","ADDRID":288747,"XCOORD":404277.87,"YCOORD":135952.03},"geometry":{"type":"Point","coordinates":[-76.9506920982163,38.891409962532954]}},{"type":"Feature","properties":{"OBJECTID":195,"GIS_ID":"pow_617","NAME":"St Marks Baptist","WEB_URL":"http://stmarksmbc.net/","RELIGION":"CHRISTIAN","ADDRESS":"624 UNDERWOOD STREET NW","ADDRID":251442,"XCOORD":398073.51,"YCOORD":144493.92},"geometry":{"type":"Point","coordinates":[-77.02223254598734,38.96836624920944]}},{"type":"Feature","properties":{"OBJECTID":196,"GIS_ID":"pow_618","NAME":"St John United Baptist Church","WEB_URL":null,"RELIGION":"CHRISTIAN","ADDRESS":"6343 13TH STREET NW","ADDRID":253260,"XCOORD":397459.85000000003,"YCOORD":144369.76},"geometry":{"type":"Point","coordinates":[-77.02931326434873,38.96724622479553]}},{"type":"Feature","properties":{"OBJECTID":197,"GIS_ID":"pow_619","NAME":"Pilgrim Baptist","WEB_URL":"http://www.pilgrimbaptistdc.org/","RELIGION":"CHRISTIAN","ADDRESS":"700 I STREET NE","ADDRID":289,"XCOORD":400350.61,"YCOORD":137075.11000000002},"geometry":{"type":"Point","coordinates":[-76.99596029600777,38.90153741448264]}},{"type":"Feature","properties":{"OBJECTID":198,"GIS_ID":"pow_620","NAME":"Mt Bethel Baptist","WEB_URL":null,"RELIGION":"CHRISTIAN","ADDRESS":"75 RHODE ISLAND AVENUE NW","ADDRID":227379,"XCOORD":398988.64,"YCOORD":138704.35},"geometry":{"type":"Point","coordinates":[-77.0116640906419,38.91621365926695]}},{"type":"Feature","properties":{"OBJECTID":199,"GIS_ID":"pow_621","NAME":"New Hope Freewill Baptist","WEB_URL":null,"RELIGION":"CHRISTIAN","ADDRESS":"754 11TH STREET SE","ADDRID":79010,"XCOORD":400765.63,"YCOORD":134675.9},"geometry":{"type":"Point","coordinates":[-76.99117843353771,38.879924167683555]}},{"type":"Feature","properties":{"OBJECTID":200,"GIS_ID":"pow_622","NAME":"Portuguese Catholic Community","WEB_URL":null,"RELIGION":"CHRISTIAN","ADDRESS":"2200 CALIFORNIA STREET NW","ADDRID":235042,"XCOORD":395727.28,"YCOORD":138662.11000000002},"geometry":{"type":"Point","coordinates":[-77.04926996545284,38.915823341365076]}},{"type":"Feature","properties":{"OBJECTID":201,"GIS_ID":"pow_224","NAME":"Holy Christian House of Praise for all people","WEB_URL":"http://www.hchouseofpraise.org/","RELIGION":"CHRISTIAN","ADDRESS":"5110 NANNIE HELEN BURROUGHS AVENUE NE","ADDRID":288501,"XCOORD":406333.47000000003,"YCOORD":136763.48},"geometry":{"type":"Point","coordinates":[-76.92699012041398,38.898707395874474]}},{"type":"Feature","properties":{"OBJECTID":202,"GIS_ID":"pow_225","NAME":"Mentrotone Baptist Church","WEB_URL":null,"RELIGION":"CHRISTIAN","ADDRESS":"5126 B STREET SE","ADDRID":288519,"XCOORD":406344.72000000003,"YCOORD":135399.25},"geometry":{"type":"Point","coordinates":[-76.92687302827783,38.88641782708957]}},{"type":"Feature","properties":{"OBJECTID":203,"GIS_ID":"pow_226","NAME":"Holy Truth Church of God in Christ Jesus Apostolic Inc. ","WEB_URL":null,"RELIGION":"CHRISTIAN","ADDRESS":"514 58TH STREET NE","ADDRID":12642,"XCOORD":407109.69,"YCOORD":136510.52},"geometry":{"type":"Point","coordinates":[-76.91804448841485,38.89642270605913]}},{"type":"Feature","properties":{"OBJECTID":204,"GIS_ID":"pow_228","NAME":"Capital View Baptist Church","WEB_URL":null,"RELIGION":"CHRISTIAN","ADDRESS":"5201 AMES STREET NE","ADDRID":301932,"XCOORD":406274.71,"YCOORD":135864.89},"geometry":{"type":"Point","coordinates":[-76.9276757114135,38.89061298960706]}},{"type":"Feature","properties":{"OBJECTID":205,"GIS_ID":"pow_230","NAME":"Prayer Base Christian Training","WEB_URL":null,"RELIGION":"CHRISTIAN","ADDRESS":"5210 SHERIFF ROAD NE","ADDRID":11735,"XCOORD":406540.65,"YCOORD":137359.8},"geometry":{"type":"Point","coordinates":[-76.92459607498813,38.90407774108378]}},{"type":"Feature","properties":{"OBJECTID":206,"GIS_ID":"pow_231","NAME":"Apostolic Faith Church of God Inc.","WEB_URL":null,"RELIGION":"CHRISTIAN","ADDRESS":"5211 A STREET SE","ADDRID":11741,"XCOORD":406385.96,"YCOORD":135500.17},"geometry":{"type":"Point","coordinates":[-76.92639675833641,38.887326654074]}},{"type":"Feature","properties":{"OBJECTID":207,"GIS_ID":"pow_232","NAME":"St John Baptist (Marshall Heights)","WEB_URL":null,"RELIGION":"CHRISTIAN","ADDRESS":"5228 CALL PLACE SE","ADDRID":11347,"XCOORD":406377.46,"YCOORD":135159.51},"geometry":{"type":"Point","coordinates":[-76.9264978919377,38.88425792103121]}},{"type":"Feature","properties":{"OBJECTID":208,"GIS_ID":"pow_233","NAME":"Bethlehem Fire Baptized Holiness Church","WEB_URL":"http://www.fbhchurch.org/bethlehem.html","RELIGION":"CHRISTIAN","ADDRESS":"712 15TH STREET NE","ADDRID":288893,"XCOORD":401396.04000000004,"YCOORD":136841.5},"geometry":{"type":"Point","coordinates":[-76.98390858999545,38.89943193344477]}},{"type":"Feature","properties":{"OBJECTID":209,"GIS_ID":"pow_234","NAME":"Liberty Baptist","WEB_URL":null,"RELIGION":"CHRISTIAN","ADDRESS":"527 KENTUCKY AVENUE SE","ADDRID":11036,"XCOORD":401364.19,"YCOORD":134917.66},"geometry":{"type":"Point","coordinates":[-76.98427957880128,38.882101311457895]}},{"type":"Feature","properties":{"OBJECTID":210,"GIS_ID":"pow_235","NAME":"Christ Centered Missionary Baptist Church","WEB_URL":null,"RELIGION":"CHRISTIAN","ADDRESS":"5325 EAST CAPITOL STREET SE","ADDRID":288610,"XCOORD":406497.88,"YCOORD":135737.66},"geometry":{"type":"Point","coordinates":[-76.92510450662259,38.88946523324555]}},{"type":"Feature","properties":{"OBJECTID":211,"GIS_ID":"pow_236","NAME":"Christ Apostolic Church","WEB_URL":"http://www.cacgeorgiaavenue.org/","RELIGION":"CHRISTIAN","ADDRESS":"4408 GEORGIA AVENUE NW","ADDRID":252657,"XCOORD":397708.28,"YCOORD":141844.13},"geometry":{"type":"Point","coordinates":[-77.02643817164677,38.94449536291059]}},{"type":"Feature","properties":{"OBJECTID":212,"GIS_ID":"pow_237","NAME":"Dominion Church","WEB_URL":"http://dominionchurchofwashington.com/","RELIGION":"CHRISTIAN","ADDRESS":"5335 1ST PLACE NE","ADDRID":10010,"XCOORD":399633.51,"YCOORD":143068.56},"geometry":{"type":"Point","coordinates":[-77.00423054655651,38.95552828002611]}},{"type":"Feature","properties":{"OBJECTID":213,"GIS_ID":"pow_238","NAME":"First National Baptist","WEB_URL":null,"RELIGION":"CHRISTIAN","ADDRESS":"5400 D STREET SE","ADDRID":9412,"XCOORD":406609.42,"YCOORD":135043.9},"geometry":{"type":"Point","coordinates":[-76.92382551453956,38.883214748861924]}},{"type":"Feature","properties":{"OBJECTID":214,"GIS_ID":"pow_239","NAME":"Buddhist Congregational","WEB_URL":"http://www.giachoangtemple.com/","RELIGION":"BUDDHIST","ADDRESS":"5401 16TH STREET NW","ADDRID":255872,"XCOORD":396897.76,"YCOORD":143047.63},"geometry":{"type":"Point","coordinates":[-77.03579327925243,38.95533433400456]}},{"type":"Feature","properties":{"OBJECTID":215,"GIS_ID":"pow_240","NAME":"True Believers Pentecostal Glarious Church of God","WEB_URL":"http://www.truebelieversdc.org/","RELIGION":"CHRISTIAN","ADDRESS":"5670 CENTRAL AVENUE SE","ADDRID":288700,"XCOORD":407052.2,"YCOORD":135358.74},"geometry":{"type":"Point","coordinates":[-76.91871903230633,38.886047507853355]}},{"type":"Feature","properties":{"OBJECTID":216,"GIS_ID":"pow_241","NAME":"Brazilian Baptist Church","WEB_URL":"http://www.ibbwdc.org/","RELIGION":"CHRISTIAN","ADDRESS":"5671 WESTERN AVENUE NW","ADDRID":264763,"XCOORD":393224.65,"YCOORD":144266.69},"geometry":{"type":"Point","coordinates":[-77.0781825119746,38.966295281524715]}},{"type":"Feature","properties":{"OBJECTID":217,"GIS_ID":"pow_242","NAME":"Bahai Faith Washington Center","WEB_URL":"http://www.dcbahai.org/","RELIGION":"CHRISTIAN","ADDRESS":"5713 16TH STREET NW","ADDRID":255981,"XCOORD":396876.14,"YCOORD":143466.58000000002},"geometry":{"type":"Point","coordinates":[-77.03604462087661,38.959108269059]}},{"type":"Feature","properties":{"OBJECTID":218,"GIS_ID":"pow_244","NAME":"Mt Calvary Holy Church-Deliverance","WEB_URL":null,"RELIGION":"CHRISTIAN","ADDRESS":"5900 CHILLUM PLACE NE","ADDRID":288734,"XCOORD":399449.05,"YCOORD":143769.54},"geometry":{"type":"Point","coordinates":[-77.00635925758847,38.96184279430658]}},{"type":"Feature","properties":{"OBJECTID":219,"GIS_ID":"pow_245","NAME":"New Redeemer Baptist","WEB_URL":null,"RELIGION":"CHRISTIAN","ADDRESS":"5714 GEORGIA AVENUE NW","ADDRID":253133,"XCOORD":397520.46,"YCOORD":143455.06},"geometry":{"type":"Point","coordinates":[-77.02861057297227,38.95900654945608]}},{"type":"Feature","properties":{"OBJECTID":220,"GIS_ID":"pow_247","NAME":"Beulah Baptist","WEB_URL":"http://www.beulahbaptistchurch.org/","RELIGION":"CHRISTIAN","ADDRESS":"5820 DIX STREET NE","ADDRID":151038,"XCOORD":407220.48,"YCOORD":136320.97},"geometry":{"type":"Point","coordinates":[-76.9167693363881,38.89471426776505]}},{"type":"Feature","properties":{"OBJECTID":221,"GIS_ID":"pow_248","NAME":"Macedonia Holy Church On-Rock","WEB_URL":null,"RELIGION":"CHRISTIAN","ADDRESS":"707 DIVISION AVENUE NE","ADDRID":76617,"XCOORD":406509.28,"YCOORD":136767.56},"geometry":{"type":"Point","coordinates":[-76.92496334717087,38.898742865790574]}},{"type":"Feature","properties":{"OBJECTID":222,"GIS_ID":"pow_249","NAME":"The Church of Jesus Christ of Latter Day Saints-Mount Pleasant (Spanish) Branch","WEB_URL":null,"RELIGION":"CHRISTIAN","ADDRESS":"4901 16TH STREET NW","ADDRID":255779,"XCOORD":396876.06,"YCOORD":142457.98},"geometry":{"type":"Point","coordinates":[-77.03604094932162,38.950022530218625]}},{"type":"Feature","properties":{"OBJECTID":223,"GIS_ID":"pow_250","NAME":"Bethlehem Church of God","WEB_URL":null,"RELIGION":"CHRISTIAN","ADDRESS":"5898 EASTERN AVENUE NE","ADDRID":6171,"XCOORD":400221.57,"YCOORD":143710.19},"geometry":{"type":"Point","coordinates":[-76.99744578789488,38.96130829951843]}},{"type":"Feature","properties":{"OBJECTID":224,"GIS_ID":"pow_251","NAME":"Riggs Park Baptist","WEB_URL":null,"RELIGION":"CHRISTIAN","ADDRESS":"5998 CHILLUM PLACE NE","ADDRID":285291,"XCOORD":399358.96,"YCOORD":143908.78},"geometry":{"type":"Point","coordinates":[-77.00739886410402,38.96309704243677]}},{"type":"Feature","properties":{"OBJECTID":225,"GIS_ID":"pow_252","NAME":"Bethel Pentecostal Tabernacle","WEB_URL":null,"RELIGION":"CHRISTIAN","ADDRESS":"60 I STREET SW","ADDRID":276677,"XCOORD":399026.13,"YCOORD":134575.9},"geometry":{"type":"Point","coordinates":[-77.01122594525876,38.879023121678856]}},{"type":"Feature","properties":{"OBJECTID":226,"GIS_ID":"pow_253","NAME":"Progressive National Baptist Conventino, Inc.","WEB_URL":"http://www.pnbc.org/","RELIGION":"CHRISTIAN","ADDRESS":"601 50TH STREET NE","ADDRID":289784,"XCOORD":406151.54000000004,"YCOORD":136534.58000000002},"geometry":{"type":"Point","coordinates":[-76.92908945598248,38.89664667384327]}},{"type":"Feature","properties":{"OBJECTID":227,"GIS_ID":"pow_254","NAME":"Mount Carmel Miracle Temple of God","WEB_URL":null,"RELIGION":"CHRISTIAN","ADDRESS":"607 KENNEDY STREET NW","ADDRID":246733,"XCOORD":398152.47000000003,"YCOORD":143188.21},"geometry":{"type":"Point","coordinates":[-77.0213178876896,38.95660425176425]}},{"type":"Feature","properties":{"OBJECTID":228,"GIS_ID":"pow_255","NAME":"New Community Church","WEB_URL":"http://www.newcommunitychurchdc.org/","RELIGION":"CHRISTIAN","ADDRESS":"614 S STREET NW","ADDRID":279855,"XCOORD":398205.59,"YCOORD":138450.21},"geometry":{"type":"Point","coordinates":[-77.02069263158542,38.913923030591036]}},{"type":"Feature","properties":{"OBJECTID":229,"GIS_ID":"pow_256","NAME":"United Pentecostal Assembly Inc.","WEB_URL":null,"RELIGION":"CHRISTIAN","ADDRESS":"619 16TH STREET NE","ADDRID":3999,"XCOORD":401575.25,"YCOORD":136672.91},"geometry":{"type":"Point","coordinates":[-76.98184302514781,38.89791291085335]}},{"type":"Feature","properties":{"OBJECTID":230,"GIS_ID":"pow_258","NAME":"God's Shepherd For Salavation","WEB_URL":null,"RELIGION":"CHRISTIAN","ADDRESS":"6216 3RD STREET NW","ADDRID":285581,"XCOORD":398577.63,"YCOORD":144180.69},"geometry":{"type":"Point","coordinates":[-77.01641472719079,38.96554555771957]}},{"type":"Feature","properties":{"OBJECTID":231,"GIS_ID":"pow_259","NAME":"Lighthouse Full Gospel Mission Church","WEB_URL":null,"RELIGION":"CHRISTIAN","ADDRESS":"6217 DIX STREET NE","ADDRID":3461,"XCOORD":407676.79000000004,"YCOORD":136259.82},"geometry":{"type":"Point","coordinates":[-76.91150998114658,38.89415954013904]}},{"type":"Feature","properties":{"OBJECTID":232,"GIS_ID":"pow_260","NAME":"New Commandment Baptist","WEB_URL":null,"RELIGION":"CHRISTIAN","ADDRESS":"625 PARK ROAD NW","ADDRID":228789,"XCOORD":398024.65,"YCOORD":140595.48},"geometry":{"type":"Point","coordinates":[-77.02278512487527,38.933247923577795]}},{"type":"Feature","properties":{"OBJECTID":233,"GIS_ID":"pow_261","NAME":"United Triumphant Church","WEB_URL":null,"RELIGION":"CHRISTIAN","ADDRESS":"626 4TH STREET NE","ADDRID":3157,"XCOORD":399927.68,"YCOORD":136692.74},"geometry":{"type":"Point","coordinates":[-77.00083598020771,38.89809295441026]}},{"type":"Feature","properties":{"OBJECTID":234,"GIS_ID":"pow_262","NAME":"Full Gospel Tabernacle Church","WEB_URL":null,"RELIGION":"CHRISTIAN","ADDRESS":"632 11TH STREET NE","ADDRID":151089,"XCOORD":400712.68,"YCOORD":136707.07},"geometry":{"type":"Point","coordinates":[-76.99178657408669,38.898221758673294]}},{"type":"Feature","properties":{"OBJECTID":235,"GIS_ID":"pow_263","NAME":"New Bethel Church Of God In Christ","WEB_URL":null,"RELIGION":"CHRISTIAN","ADDRESS":"6440 PINEY BRANCH ROAD NW","ADDRID":254030,"XCOORD":397690.07,"YCOORD":144503.23},"geometry":{"type":"Point","coordinates":[-77.02665718884933,38.96844919094432]}},{"type":"Feature","properties":{"OBJECTID":236,"GIS_ID":"pow_264","NAME":"People's Community Church","WEB_URL":null,"RELIGION":"CHRISTIAN","ADDRESS":"653 11TH STREET NE","ADDRID":1325,"XCOORD":400757.07,"YCOORD":136762.2},"geometry":{"type":"Point","coordinates":[-76.991274789533,38.8987183526199]}},{"type":"Feature","properties":{"OBJECTID":237,"GIS_ID":"pow_265","NAME":"Iglesia Pentecostes Aposento Alto","WEB_URL":null,"RELIGION":"CHRISTIAN","ADDRESS":"6905 4TH STREET NW","ADDRID":249129,"XCOORD":398462.95,"YCOORD":145117.39},"geometry":{"type":"Point","coordinates":[-77.0177400971164,38.973983383676234]}},{"type":"Feature","properties":{"OBJECTID":238,"GIS_ID":"pow_267","NAME":"The New Solid Rock Perfecting Church Inc","WEB_URL":null,"RELIGION":"CHRISTIAN","ADDRESS":"701 15TH STREET NE","ADDRID":327,"XCOORD":401443.95,"YCOORD":136779.66},"geometry":{"type":"Point","coordinates":[-76.98335640853057,38.898874778996905]}},{"type":"Feature","properties":{"OBJECTID":239,"GIS_ID":"pow_268","NAME":"Christ Memorial Baptist","WEB_URL":null,"RELIGION":"CHRISTIAN","ADDRESS":"702 JEFFERSON STREET NW","ADDRID":250210,"XCOORD":398039.81,"YCOORD":143021.42},"geometry":{"type":"Point","coordinates":[-77.0226172087133,38.95510151889877]}},{"type":"Feature","properties":{"OBJECTID":240,"GIS_ID":"pow_269","NAME":"Christian Conquest Word Of God","WEB_URL":"","RELIGION":"CHRISTIAN","ADDRESS":"7101 7TH STREET NW","ADDRID":300069,"XCOORD":398032.03,"YCOORD":145353.65},"geometry":{"type":"Point","coordinates":[-77.02271366284103,38.97611080820473]}},{"type":"Feature","properties":{"OBJECTID":241,"GIS_ID":"pow_270","NAME":"New Second Baptist","WEB_URL":null,"RELIGION":"CHRISTIAN","ADDRESS":"7205 GEORGIA AVENUE NW","ADDRID":254723,"XCOORD":397738.37,"YCOORD":145531.05000000002},"geometry":{"type":"Point","coordinates":[-77.0261032338668,38.977708160442084]}},{"type":"Feature","properties":{"OBJECTID":242,"GIS_ID":"pow_273","NAME":"Moorish Science Temple 71","WEB_URL":null,"RELIGION":"CHRISTIAN","ADDRESS":"732 WEBSTER STREET NW","ADDRID":249840,"XCOORD":398006.73,"YCOORD":141779.96},"geometry":{"type":"Point","coordinates":[-77.02299524799577,38.943918029189604]}},{"type":"Feature","properties":{"OBJECTID":243,"GIS_ID":"pow_274","NAME":"Little Mount Zion Fire Baptized Holiness Church","WEB_URL":"http://www.fbhchurch.org/littlemtzion.html","RELIGION":"CHRISTIAN","ADDRESS":"736 50TH STREET NE","ADDRID":78462,"XCOORD":406085.97000000003,"YCOORD":136835.09},"geometry":{"type":"Point","coordinates":[-76.92984266176444,38.8993542327281]}},{"type":"Feature","properties":{"OBJECTID":244,"GIS_ID":"pow_275","NAME":"New Southern Rock Baptist","WEB_URL":"http://www.newsouthernrockbaptistchurch.org/aboutourpastor.html","RELIGION":"CHRISTIAN","ADDRESS":"750 BUCHANAN STREET NW","ADDRID":285402,"XCOORD":397982.13,"YCOORD":142005.55000000002},"geometry":{"type":"Point","coordinates":[-77.02327967995772,38.94595015197107]}},{"type":"Feature","properties":{"OBJECTID":245,"GIS_ID":"pow_276","NAME":"Bethesda New Life Gospel Church","WEB_URL":"http://www.bnlgchurch.org/","RELIGION":"CHRISTIAN","ADDRESS":"750 KENILWORTH AVENUE NE","ADDRID":78861,"XCOORD":404642.31,"YCOORD":137001.22},"geometry":{"type":"Point","coordinates":[-76.94648417990004,38.900859600233325]}},{"type":"Feature","properties":{"OBJECTID":246,"GIS_ID":"pow_277","NAME":"Ethiopian Evangelical Church","WEB_URL":"http://www.eecdc.org/","RELIGION":"CHRISTIAN","ADDRESS":"7930 EASTERN AVENUE NW","ADDRID":253649,"XCOORD":397466.87,"YCOORD":146481.22},"geometry":{"type":"Point","coordinates":[-77.02924006459219,38.986266757868535]}},{"type":"Feature","properties":{"OBJECTID":247,"GIS_ID":"pow_278","NAME":"Johnson Memorial Baptist","WEB_URL":null,"RELIGION":"CHRISTIAN","ADDRESS":"800 RIDGE ROAD SE","ADDRID":289024,"XCOORD":404923.72000000003,"YCOORD":134434.84},"geometry":{"type":"Point","coordinates":[-76.9432583809927,38.87773915416169]}},{"type":"Feature","properties":{"OBJECTID":248,"GIS_ID":"pow_279","NAME":"Galatians Baptist","WEB_URL":null,"RELIGION":"CHRISTIAN","ADDRESS":"806 F STREET NE","ADDRID":151157,"XCOORD":400477.44,"YCOORD":136630.07},"geometry":{"type":"Point","coordinates":[-76.99449845258748,38.89752827380738]}},{"type":"Feature","properties":{"OBJECTID":249,"GIS_ID":"pow_280","NAME":"Scripture Cathedral","WEB_URL":"http://www.scripturecathedral.com/","RELIGION":"CHRISTIAN","ADDRESS":"810 O STREET NW","ADDRID":279953,"XCOORD":397947.15,"YCOORD":137826.66},"geometry":{"type":"Point","coordinates":[-77.02367069541779,38.90830531323699]}},{"type":"Feature","properties":{"OBJECTID":250,"GIS_ID":"pow_281","NAME":"Christian Love Baptist","WEB_URL":null,"RELIGION":"CHRISTIAN","ADDRESS":"818 BLADENSBURG ROAD NE","ADDRID":80503,"XCOORD":401474.55,"YCOORD":137050.54},"geometry":{"type":"Point","coordinates":[-76.98300306998534,38.901314912765606]}},{"type":"Feature","properties":{"OBJECTID":251,"GIS_ID":"pow_282","NAME":"United Holiness Deliverance Church Of God","WEB_URL":null,"RELIGION":"CHRISTIAN","ADDRESS":"825 KENNEDY STREET NW","ADDRID":254484,"XCOORD":397818.78,"YCOORD":143181.53},"geometry":{"type":"Point","coordinates":[-77.02516776466197,38.956543311145374]}},{"type":"Feature","properties":{"OBJECTID":252,"GIS_ID":"pow_283","NAME":"Trinity Holy Tabernacle","WEB_URL":null,"RELIGION":"CHRISTIAN","ADDRESS":"829 9TH STREET NE","ADDRID":81023,"XCOORD":400567.23,"YCOORD":137035.91},"geometry":{"type":"Point","coordinates":[-76.99346303690466,38.901184173846325]}},{"type":"Feature","properties":{"OBJECTID":253,"GIS_ID":"pow_284","NAME":"Zion Hill Baptist","WEB_URL":null,"RELIGION":"CHRISTIAN","ADDRESS":"841 SHEPHERD STREET NW","ADDRID":301935,"XCOORD":397855,"YCOORD":141337.06},"geometry":{"type":"Point","coordinates":[-77.02474411362546,38.9399279001566]}},{"type":"Feature","properties":{"OBJECTID":254,"GIS_ID":"pow_285","NAME":"Gideon Baptist","WEB_URL":null,"RELIGION":"CHRISTIAN","ADDRESS":"901 INGRAHAM STREET NW","ADDRID":254659,"XCOORD":397755.04000000004,"YCOORD":142934.42},"geometry":{"type":"Point","coordinates":[-77.02590234569176,38.95431711783922]}},{"type":"Feature","properties":{"OBJECTID":255,"GIS_ID":"pow_286","NAME":"Exodus Missionary Baptist","WEB_URL":null,"RELIGION":"CHRISTIAN","ADDRESS":"901 RITTENHOUSE STREET NW","ADDRID":254177,"XCOORD":397723.94,"YCOORD":144153.44},"geometry":{"type":"Point","coordinates":[-77.02626519245987,38.9652982850661]}},{"type":"Feature","properties":{"OBJECTID":256,"GIS_ID":"pow_287","NAME":"Contee AME Zion","WEB_URL":null,"RELIGION":"CHRISTIAN","ADDRESS":"903 DIVISION AVENUE NE","ADDRID":81767,"XCOORD":406597.2,"YCOORD":137128.2},"geometry":{"type":"Point","coordinates":[-76.92394634292933,38.90199098411234]}},{"type":"Feature","properties":{"OBJECTID":257,"GIS_ID":"pow_288","NAME":"First Mystery Church Of God","WEB_URL":null,"RELIGION":"CHRISTIAN","ADDRESS":"909 WEBSTER STREET NW","ADDRID":252342,"XCOORD":397763.12,"YCOORD":141811.89},"geometry":{"type":"Point","coordinates":[-77.02580546572159,38.94420507715201]}},{"type":"Feature","properties":{"OBJECTID":258,"GIS_ID":"pow_290","NAME":"Brotherhood of the Cross-Star","WEB_URL":null,"RELIGION":"CHRISTIAN","ADDRESS":"916 RITTENHOUSE STREET NW","ADDRID":254264,"XCOORD":397644.61,"YCOORD":144094.18},"geometry":{"type":"Point","coordinates":[-77.02718035845056,38.964764247012425]}},{"type":"Feature","properties":{"OBJECTID":259,"GIS_ID":"pow_291","NAME":"Salem Baptist Church","WEB_URL":"http://salembaptistchurchdc.org/","RELIGION":"CHRISTIAN","ADDRESS":"917 N STREET NW","ADDRID":239733,"XCOORD":397833.04000000004,"YCOORD":137744.37},"geometry":{"type":"Point","coordinates":[-77.02498607119266,38.90756374238539]}},{"type":"Feature","properties":{"OBJECTID":260,"GIS_ID":"pow_293","NAME":"New Birth Missionary Baptist","WEB_URL":null,"RELIGION":"CHRISTIAN","ADDRESS":"930 49TH STREET NE","ADDRID":82763,"XCOORD":405900.95,"YCOORD":137181.78},"geometry":{"type":"Point","coordinates":[-76.9319726103394,38.90247860118663]}},{"type":"Feature","properties":{"OBJECTID":261,"GIS_ID":"pow_294","NAME":"Way Back To Pentecost","WEB_URL":null,"RELIGION":"CHRISTIAN","ADDRESS":"945 R STREET NW","ADDRID":239702,"XCOORD":397768.13,"YCOORD":138328.68},"geometry":{"type":"Point","coordinates":[-77.02573634506237,38.912827245028254]}},{"type":"Feature","properties":{"OBJECTID":262,"GIS_ID":"pow_295","NAME":"Downtown Clusters Congregation","WEB_URL":"http://www.downtowncluster.org/","RELIGION":"CHRISTIAN","ADDRESS":"1313 NEW YORK AVENUE NW","ADDRID":279043,"XCOORD":397292.44,"YCOORD":136903.07},"geometry":{"type":"Point","coordinates":[-77.0312155570436,38.899983515181674]}},{"type":"Feature","properties":{"OBJECTID":263,"GIS_ID":"pow_296","NAME":"United House of Prayer - H Street","WEB_URL":null,"RELIGION":"CHRISTIAN","ADDRESS":"1314 H STREET NE","ADDRID":68276,"XCOORD":401065.76,"YCOORD":136959.33000000002},"geometry":{"type":"Point","coordinates":[-76.98771590918773,38.9004938508732]}},{"type":"Feature","properties":{"OBJECTID":264,"GIS_ID":"pow_297","NAME":"Macedonia Church of God in Christ","WEB_URL":"http://www.cogicdcjurisdiction.org/#!local-churches/c1w6k","RELIGION":"CHRISTIAN","ADDRESS":"1320 FARRAGUT STREET NW","ADDRID":255088,"XCOORD":397247.12,"YCOORD":142524.07},"geometry":{"type":"Point","coordinates":[-77.03176056098991,38.950619128496385]}},{"type":"Feature","properties":{"OBJECTID":265,"GIS_ID":"pow_298","NAME":"Anacostia Full Gospel","WEB_URL":null,"RELIGION":"CHRISTIAN","ADDRESS":"1320 U STREET SE","ADDRID":67782,"XCOORD":401166.92,"YCOORD":133163.58000000002},"geometry":{"type":"Point","coordinates":[-76.98655615211776,38.86630013950013]}},{"type":"Feature","properties":{"OBJECTID":266,"GIS_ID":"pow_299","NAME":"National Spiritual Science Center","WEB_URL":null,"RELIGION":"CHRISTIAN","ADDRESS":"7750 16TH STREET NW","ADDRID":256418,"XCOORD":396804.08,"YCOORD":146373.03},"geometry":{"type":"Point","coordinates":[-77.03688958324472,38.98528999681959]}},{"type":"Feature","properties":{"OBJECTID":267,"GIS_ID":"pow_300","NAME":"Purity Baptist","WEB_URL":null,"RELIGION":"CHRISTIAN","ADDRESS":"1325 MARYLAND AVENUE NE","ADDRID":67591,"XCOORD":401103.78,"YCOORD":136700.77},"geometry":{"type":"Point","coordinates":[-76.98727801950758,38.8981646020768]}},{"type":"Feature","properties":{"OBJECTID":268,"GIS_ID":"pow_301","NAME":"Evening Light Apostolic Church","WEB_URL":"http://www.thelordslight.com/","RELIGION":"CHRISTIAN","ADDRESS":"1327 CONSTITUTION AVENUE NE","ADDRID":67449,"XCOORD":401102.45,"YCOORD":135997.55},"geometry":{"type":"Point","coordinates":[-76.98729447971073,38.891829739032495]}},{"type":"Feature","properties":{"OBJECTID":269,"GIS_ID":"pow_302","NAME":"Mount Zion UMC","WEB_URL":"http://www.mtzionumcdc.org","RELIGION":"CHRISTIAN","ADDRESS":"1334 29TH STREET NW","ADDRID":223532,"XCOORD":394936.60000000003,"YCOORD":137795.33000000002},"geometry":{"type":"Point","coordinates":[-77.05838070733513,38.90801089317845]}},{"type":"Feature","properties":{"OBJECTID":270,"GIS_ID":"pow_303","NAME":"Old Way Baptist","WEB_URL":"http://www.owbcdc.org/","RELIGION":"CHRISTIAN","ADDRESS":"1335 MICHIGAN AVENUE NE","ADDRID":67013,"XCOORD":401175.17,"YCOORD":141508.9},"geometry":{"type":"Point","coordinates":[-76.98644681501095,38.94147771907906]}},{"type":"Feature","properties":{"OBJECTID":271,"GIS_ID":"pow_307","NAME":"Ethiopian Orthodox Tewha","WEB_URL":"http://www.dskmariam.org/","RELIGION":"CHRISTIAN","ADDRESS":"1350 BUCHANAN STREET NW","ADDRID":259641,"XCOORD":397239.04000000004,"YCOORD":142007.61000000002},"geometry":{"type":"Point","coordinates":[-77.03185169596279,38.945966687556535]}},{"type":"Feature","properties":{"OBJECTID":272,"GIS_ID":"pow_309","NAME":"Carron Baptist","WEB_URL":null,"RELIGION":"CHRISTIAN","ADDRESS":"1354 1ST STREET SW","ADDRID":276511,"XCOORD":398967.84,"YCOORD":133993.52},"geometry":{"type":"Point","coordinates":[-77.01189685135843,38.873776744611355]}},{"type":"Feature","properties":{"OBJECTID":273,"GIS_ID":"pow_310","NAME":"Open Door Baptist","WEB_URL":null,"RELIGION":"CHRISTIAN","ADDRESS":"136 56TH STREET SE","ADDRID":65973,"XCOORD":406877.95,"YCOORD":135410.84},"geometry":{"type":"Point","coordinates":[-76.92072690528249,38.88651822471463]}},{"type":"Feature","properties":{"OBJECTID":274,"GIS_ID":"pow_311","NAME":"Greater Tried Stone Baptist","WEB_URL":null,"RELIGION":"CHRISTIAN","ADDRESS":"1363 OTIS PLACE NW","ADDRID":230270,"XCOORD":397225.32,"YCOORD":140764.4},"geometry":{"type":"Point","coordinates":[-77.03200493655136,38.93476744518081]}},{"type":"Feature","properties":{"OBJECTID":275,"GIS_ID":"pow_312","NAME":"Church Of God Of Prophecy","WEB_URL":"http://www.abbashousecogop.org/","RELIGION":"CHRISTIAN","ADDRESS":"1371 SPRING ROAD NW","ADDRID":277020,"XCOORD":397210.94,"YCOORD":141029.85},"geometry":{"type":"Point","coordinates":[-77.03217187187971,38.93715865286209]}},{"type":"Feature","properties":{"OBJECTID":276,"GIS_ID":"pow_313","NAME":"Church of God of Prophecy - Capitol Hill","WEB_URL":null,"RELIGION":"CHRISTIAN","ADDRESS":"1400 E STREET NE","ADDRID":149978,"XCOORD":401275.8,"YCOORD":136495.32},"geometry":{"type":"Point","coordinates":[-76.98529537186828,38.896313600814764]}},{"type":"Feature","properties":{"OBJECTID":277,"GIS_ID":"pow_314","NAME":"New Morning Star Baptist","WEB_URL":"http://www.newmorningstarbaptist.org/","RELIGION":"CHRISTIAN","ADDRESS":"5016 SHERIFF ROAD NE","ADDRID":14988,"XCOORD":406177.29000000004,"YCOORD":137326.72},"geometry":{"type":"Point","coordinates":[-76.92878549568039,38.903782373360045]}},{"type":"Feature","properties":{"OBJECTID":278,"GIS_ID":"pow_315","NAME":"St Paul's Episcopal","WEB_URL":"http://www.stpauls-kst.com/","RELIGION":"CHRISTIAN","ADDRESS":"2430 K STREET NW","ADDRID":295850,"XCOORD":395431.75,"YCOORD":137158.01},"geometry":{"type":"Point","coordinates":[-77.05266764186298,38.902272404459]}},{"type":"Feature","properties":{"OBJECTID":279,"GIS_ID":"pow_316","NAME":"Saint Paul's Lutheran","WEB_URL":"http://www.stpaulslutherandc.com/","RELIGION":"CHRISTIAN","ADDRESS":"4900 CONNECTICUT AVENUE NW","ADDRID":295434,"XCOORD":393905.87,"YCOORD":142873.31},"geometry":{"type":"Point","coordinates":[-77.07030958832685,38.95374834956889]}},{"type":"Feature","properties":{"OBJECTID":280,"GIS_ID":"pow_317","NAME":"St. Philip the Evangelist Episcopal Church","WEB_URL":"http://www.stphilipanacostia.com/","RELIGION":"CHRISTIAN","ADDRESS":"2001 14TH STREET SE","ADDRID":53134,"XCOORD":401228.99,"YCOORD":133091.83000000002},"geometry":{"type":"Point","coordinates":[-76.98584106314577,38.86565370130943]}},{"type":"Feature","properties":{"OBJECTID":281,"GIS_ID":"pow_319","NAME":"Takoma Park Baptist","WEB_URL":"http://www.takomaparkbaptistchurch.org/","RELIGION":"CHRISTIAN","ADDRESS":"635 ASPEN STREET NW","ADDRID":250882,"XCOORD":398042.45,"YCOORD":144960.48},"geometry":{"type":"Point","coordinates":[-77.02259228772193,38.97256906473394]}},{"type":"Feature","properties":{"OBJECTID":282,"GIS_ID":"pow_320","NAME":"Temple Micah","WEB_URL":"http://www.templemicah.org/","RELIGION":"JEWISH","ADDRESS":"2829 WISCONSIN AVENUE NW","ADDRID":262655,"XCOORD":393684.66000000003,"YCOORD":139896.53},"geometry":{"type":"Point","coordinates":[-77.07283426142679,38.92693108931873]}},{"type":"Feature","properties":{"OBJECTID":283,"GIS_ID":"pow_321","NAME":"Temple Sinai","WEB_URL":"http://www.templesinaidc.org/","RELIGION":"JEWISH","ADDRESS":"3100 MILITARY ROAD NW","ADDRID":261370,"XCOORD":394547.72000000003,"YCOORD":143629.18},"geometry":{"type":"Point","coordinates":[-77.06291064836334,38.96056164298461]}},{"type":"Feature","properties":{"OBJECTID":284,"GIS_ID":"pow_322","NAME":"Church of Two Worlds","WEB_URL":"","RELIGION":"CHRISTIAN","ADDRESS":"3038 Q STREET NW","ADDRID":304052,"XCOORD":394708.36,"YCOORD":138049.2},"geometry":{"type":"Point","coordinates":[-77.06101415389837,38.91029649674388]}},{"type":"Feature","properties":{"OBJECTID":285,"GIS_ID":"pow_324","NAME":"United Church","WEB_URL":"http://www.theunitedchurch.org/","RELIGION":"CHRISTIAN","ADDRESS":"1920 G STREET NW","ADDRID":293216,"XCOORD":396123.45,"YCOORD":136697.6},"geometry":{"type":"Point","coordinates":[-77.04469073757267,38.898128188870075]}},{"type":"Feature","properties":{"OBJECTID":286,"GIS_ID":"pow_325","NAME":"Third Baptist","WEB_URL":"","RELIGION":"CHRISTIAN","ADDRESS":"1546 5TH STREET NW","ADDRID":279234,"XCOORD":398332.04000000004,"YCOORD":138119.38},"geometry":{"type":"Point","coordinates":[-77.01923380296468,38.91094305066179]}},{"type":"Feature","properties":{"OBJECTID":287,"GIS_ID":"pow_327","NAME":"Tifereth Israel Congregation","WEB_URL":"http://www.tifereth-israel.org/","RELIGION":"JEWISH","ADDRESS":"7701 16TH STREET NW","ADDRID":258084,"XCOORD":396898.68,"YCOORD":146176.77},"geometry":{"type":"Point","coordinates":[-77.03579682226368,38.98352238409881]}},{"type":"Feature","properties":{"OBJECTID":288,"GIS_ID":"pow_328","NAME":"Trinity Episcopal","WEB_URL":"http://www.trinitychurchdc.org/","RELIGION":"CHRISTIAN","ADDRESS":"7005 PINEY BRANCH ROAD NW","ADDRID":251254,"XCOORD":398201.48,"YCOORD":145287.97},"geometry":{"type":"Point","coordinates":[-77.02075795136136,38.97551951115139]}},{"type":"Feature","properties":{"OBJECTID":289,"GIS_ID":"pow_329","NAME":"Ukrainian Catholic National Shrine of the Holy Family","WEB_URL":"http://www.ucns-holyfamily.org/","RELIGION":"CHRISTIAN","ADDRESS":"4250 HAREWOOD ROAD NE","ADDRID":288146,"XCOORD":399700.52,"YCOORD":141299.54},"geometry":{"type":"Point","coordinates":[-77.00345666711905,38.93959247723565]}},{"type":"Feature","properties":{"OBJECTID":290,"GIS_ID":"pow_330","NAME":"Agape 1 Church of Christ","WEB_URL":"http://agape1church.org/Home_Page.html","RELIGION":"CHRISTIAN","ADDRESS":"2002 14TH STREET SE","ADDRID":53105,"XCOORD":401296.85000000003,"YCOORD":133099.09},"geometry":{"type":"Point","coordinates":[-76.98505912262436,38.86571900497534]}},{"type":"Feature","properties":{"OBJECTID":291,"GIS_ID":"pow_331","NAME":"Union Temple Baptist","WEB_URL":"http://www.uniontemple.com/","RELIGION":"CHRISTIAN","ADDRESS":"1225 W STREET SE","ADDRID":70732,"XCOORD":400958.87,"YCOORD":132965.09},"geometry":{"type":"Point","coordinates":[-76.98895373727686,38.86451231068399]}},{"type":"Feature","properties":{"OBJECTID":292,"GIS_ID":"pow_332","NAME":"Unity Of Washington DC","WEB_URL":"http://www.unitywdc.org/","RELIGION":"CHRISTIAN","ADDRESS":"1225 R STREET NW","ADDRID":278969,"XCOORD":397484.27,"YCOORD":138337.04},"geometry":{"type":"Point","coordinates":[-77.0290093575534,38.91290178793517]}},{"type":"Feature","properties":{"OBJECTID":293,"GIS_ID":"pow_333","NAME":"Universalist National Memorial","WEB_URL":"http://www.universalist.org/","RELIGION":"CHRISTIAN","ADDRESS":"1810 16TH STREET NW","ADDRID":241913,"XCOORD":396801.60000000003,"YCOORD":138497.86000000002},"geometry":{"type":"Point","coordinates":[-77.03688148275575,38.9143482892347]}},{"type":"Feature","properties":{"OBJECTID":294,"GIS_ID":"pow_334","NAME":"Vermont Avenue Baptist","WEB_URL":"http://www.vabc.org/","RELIGION":"CHRISTIAN","ADDRESS":"1630 VERMONT AVENUE NW","ADDRID":243277,"XCOORD":397504.62,"YCOORD":138219.47},"geometry":{"type":"Point","coordinates":[-77.02877428903261,38.91184273546309]}},{"type":"Feature","properties":{"OBJECTID":295,"GIS_ID":"pow_335","NAME":"Ward Memorial AME","WEB_URL":"http://wardamecdc.org/","RELIGION":"CHRISTIAN","ADDRESS":"241 42ND STREET NE","ADDRID":289769,"XCOORD":405004.69,"YCOORD":136257.58000000002},"geometry":{"type":"Point","coordinates":[-76.94231196033084,38.89415863321218]}},{"type":"Feature","properties":{"OBJECTID":296,"GIS_ID":"pow_336","NAME":"Christ Church on Capitol Hill","WEB_URL":"http://www.washingtonparish.org/","RELIGION":"CHRISTIAN","ADDRESS":"620 G STREET SE","ADDRID":280026,"XCOORD":400216.59,"YCOORD":134874.52},"geometry":{"type":"Point","coordinates":[-76.99750603053049,38.88171372067209]}},{"type":"Feature","properties":{"OBJECTID":297,"GIS_ID":"pow_337","NAME":"Washington Seventh Day Baptist Church","WEB_URL":"http://www.washingtonsdb.com/","RELIGION":"CHRISTIAN","ADDRESS":"4700 16TH STREET NW","ADDRID":258723,"XCOORD":396802.52,"YCOORD":142186.07},"geometry":{"type":"Point","coordinates":[-77.03688806003368,38.94757282483071]}},{"type":"Feature","properties":{"OBJECTID":298,"GIS_ID":"pow_338","NAME":"Wesley United Methodist Church","WEB_URL":"http://www.wesleydc.org/","RELIGION":"CHRISTIAN","ADDRESS":"5312 CONNECTICUT AVENUE NW","ADDRID":301282,"XCOORD":393703.31,"YCOORD":143493.29},"geometry":{"type":"Point","coordinates":[-77.07265219220432,38.959331862958926]}},{"type":"Feature","properties":{"OBJECTID":299,"GIS_ID":"pow_339","NAME":"Western  Presbyterian","WEB_URL":"http://www.westernpresbyterian.net/","RELIGION":"CHRISTIAN","ADDRESS":"2401 VIRGINIA AVENUE NW","ADDRID":218135,"XCOORD":395492.61,"YCOORD":136743.52},"geometry":{"type":"Point","coordinates":[-77.05196329355458,38.898538844288474]}},{"type":"Feature","properties":{"OBJECTID":300,"GIS_ID":"pow_340","NAME":"Westminster Presbyterian","WEB_URL":"http://www.westminsterdc.org/","RELIGION":"CHRISTIAN","ADDRESS":"400 I STREET SW","ADDRID":150785,"XCOORD":398419.75,"YCOORD":134576.48},"geometry":{"type":"Point","coordinates":[-77.01821435841794,38.87902746560099]}},{"type":"Feature","properties":{"OBJECTID":301,"GIS_ID":"pow_341","NAME":"Washington Hebrew Congregation","WEB_URL":"http://www.whctemple.org/","RELIGION":"CHRISTIAN","ADDRESS":"3935 MACOMB STREET NW","ADDRID":223083,"XCOORD":393203.2,"YCOORD":140663.41},"geometry":{"type":"Point","coordinates":[-77.07839431554731,38.93383578717077]}},