{"type":"FeatureCollection","features":[{"type":"Feature","properties":{"OBJECTID":1,"TAG":"DC2346","TYPE":2,"COLOR":1,"LOCATION":"NB 16TH ST & IRVING ST NW,  NORTH EAST CORNER, RAISED ISLAND"},"geometry":{"type":"Point","coordinates":[-77.0361347870413,38.92882781132058]}},{"type":"Feature","properties":{"OBJECTID":2,"TAG":"DC2750","TYPE":2,"COLOR":1,"LOCATION":"SB 16TH ST & COLUMBIA RD NW, RAISED ISLAND NW CORNER"},"geometry":{"type":"Point","coordinates":[-77.03677000944204,38.92662192719746]}},{"type":"Feature","properties":{"OBJECTID":3,"TAG":"DC2676","TYPE":1,"COLOR":2,"LOCATION":"EB CANAL RD NORTH SIDE @ ENTRANCE TO GU SOUTHWEST QUADRANT BLDG"},"geometry":{"type":"Point","coordinates":[-77.07450791440944,38.905814691784606]}},{"type":"Feature","properties":{"OBJECTID":4,"TAG":"DC2211","TYPE":1,"COLOR":2,"LOCATION":"KEY BRIDGE, VA SIDE, CENTER PAINTED GORE"},"geometry":{"type":"Point","coordinates":[-77.07038122108953,38.901199936078434]}},{"type":"Feature","properties":{"OBJECTID":5,"TAG":"DC2342","TYPE":2,"COLOR":1,"LOCATION":"EB THEODORE ROOSELT BRIDGE, VA SIDE RAISED CONCRETE GORE ON RIGHT"},"geometry":{"type":"Point","coordinates":[-77.06400229920705,38.89145091114292]}},{"type":"Feature","properties":{"OBJECTID":6,"TAG":"DC2873","TYPE":2,"COLOR":1,"LOCATION":"NB POTOMA RIVER EXPRESSWAY @ INDEPENDENCE AVE/ROCK CREEK NW, LEFT SHOULDER"},"geometry":{"type":"Point","coordinates":[-77.05230115893579,38.89136664379986]}},{"type":"Feature","properties":{"OBJECTID":7,"TAG":"DC2879","TYPE":2,"COLOR":1,"LOCATION":"EB CONSTITUTION AVE NW @ HENRY BEACON DR, SE CORNER"},"geometry":{"type":"Point","coordinates":[-77.04740208231344,38.89195435113216]}},{"type":"Feature","properties":{"OBJECTID":8,"TAG":"DC2712","TYPE":1,"COLOR":2,"LOCATION":"NB I-395 HOV LANES/14TH ST BRIDGE, RIGHT SHOULDER BEHIND GUARDRAIL, VA SIDE"},"geometry":{"type":"Point","coordinates":[-77.04324107441545,38.874049712973125]}},{"type":"Feature","properties":{"OBJECTID":9,"TAG":"DC2863","TYPE":2,"COLOR":1,"LOCATION":"NB I-395/MAIN 14TH ST BRIDGE, RIGHT MEDIAN, VA SIDE"},"geometry":{"type":"Point","coordinates":[-77.04228960165263,38.87299144794839]}},{"type":"Feature","properties":{"OBJECTID":10,"TAG":"DC2344","TYPE":2,"COLOR":1,"LOCATION":"WB K ST, NORTH SIDE @ ROCK CREEK RAMP RAISED ISLAND, NW"},"geometry":{"type":"Point","coordinates":[-77.05606969802386,38.90274885868902]}},{"type":"Feature","properties":{"OBJECTID":11,"TAG":"DC2858","TYPE":2,"COLOR":1,"LOCATION":"EB RAMP FROM WHITEHURST FRWY TO EB K ST NW, LEFT MEDIAN"},"geometry":{"type":"Point","coordinates":[-77.05639030214898,38.9022291022866]}},{"type":"Feature","properties":{"OBJECTID":12,"TAG":"DC2854","TYPE":2,"COLOR":1,"LOCATION":"WB PENSYLVANIA AVE, L ST @ 25TH ST NW, NE CORNER"},"geometry":{"type":"Point","coordinates":[-77.05307810970558,38.9037894511986]}},{"type":"Feature","properties":{"OBJECTID":13,"TAG":"DC2868","TYPE":2,"COLOR":1,"LOCATION":"SB 23RD ST NW, CENTER MEDIAN BETWEEN Q ST & P ST NW"},"geometry":{"type":"Point","coordinates":[-77.04871480508686,38.911003040416524]}},{"type":"Feature","properties":{"OBJECTID":14,"TAG":"DC2360","TYPE":2,"COLOR":1,"LOCATION":"SB CONNECTICUT AVE NW, UNITS ON Q ST OVERPASS, FACING SB CONNECTICUT AVE TRAFFIC"},"geometry":{"type":"Point","coordinates":[-77.04375953261955,38.91036333708306]}},{"type":"Feature","properties":{"OBJECTID":15,"TAG":"DC2348","TYPE":2,"COLOR":1,"LOCATION":"EB MASS AVE @ SCOTT CIRCE NW, ISLAND BEFORE CIRCLE, RELOCATION TO EB NEW YORK AVE"},"geometry":{"type":"Point","coordinates":[-77.03756636994616,38.90770031020114]}},{"type":"Feature","properties":{"OBJECTID":16,"TAG":"DC2354","TYPE":2,"COLOR":1,"LOCATION":"BOARD DEAD GOING BACK TO YARD FOR CHARGE"},"geometry":{"type":"Point","coordinates":[-77.03213412479074,38.90698524441294]}},{"type":"Feature","properties":{"OBJECTID":17,"TAG":"DC2874","TYPE":2,"COLOR":1,"LOCATION":"SB NEW HAMPSHIRE AVE NW @ N CAPITAL ST, RAISED ISLAND GRASS EAST SIDE"},"geometry":{"type":"Point","coordinates":[-77.02953902295359,38.90458949172079]}},{"type":"Feature","properties":{"OBJECTID":18,"TAG":"DC2343","TYPE":2,"COLOR":1,"LOCATION":"EB PENNSYLVANIA AVE @ 13TH ST, NW"},"geometry":{"type":"Point","coordinates":[-77.02906767151057,38.89530483658401]}},{"type":"Feature","properties":{"OBJECTID":19,"TAG":"DC2876","TYPE":2,"COLOR":1,"LOCATION":"PSI YARD (MD)"},"geometry":{"type":"Point","coordinates":[-77.02100653291697,38.89306690354847]}},{"type":"Feature","properties":{"OBJECTID":20,"TAG":"DC2210","TYPE":1,"COLOR":2,"LOCATION":"SB I-395, 3RD ST TUNNEL @ SPLIT TO NB/SB I-395, RIGHT SHOULDER BEHIND GUARDRAIL, SW"},"geometry":{"type":"Point","coordinates":[-77.01330338555542,38.883946222716176]}},{"type":"Feature","properties":{"OBJECTID":21,"TAG":"DC2650","TYPE":1,"COLOR":2,"LOCATION":"SE/SW FREEWAY @ 7TH ST & FRONTAGE RD LEFT SHOULDER NW, PANEL FROM 2204"},"geometry":{"type":"Point","coordinates":[-77.02256556588283,38.88296057099804]}},{"type":"Feature","properties":{"OBJECTID":22,"TAG":"DC2648","TYPE":1,"COLOR":2,"LOCATION":"EB SE/SW FREEWAY @ MAINE AVE EXIT SW, RIGHT SHOULDER, GRASS"},"geometry":{"type":"Point","coordinates":[-77.02449609568849,38.88210718673266]}},{"type":"Feature","properties":{"OBJECTID":23,"TAG":"DC2875","TYPE":2,"COLOR":1,"LOCATION":"NB S. CAPITAL ST @ I ST SE, RAISED CENTER ISLAND"},"geometry":{"type":"Point","coordinates":[-77.00924522520951,38.879441041527706]}},{"type":"Feature","properties":{"OBJECTID":24,"TAG":"DC2202","TYPE":1,"COLOR":2,"LOCATION":"EB SE/SW FREEWAY @ SPLIT TO 11TH ST BRIDGE, I-295, SE"},"geometry":{"type":"Point","coordinates":[-76.99656962027721,38.878391510093834]}},{"type":"Feature","properties":{"OBJECTID":25,"TAG":"DC2208","TYPE":1,"COLOR":2,"LOCATION":"WB SE/SW FREEWAY @ MERGE WITH 11TH ST BRIDGE FLYOVER, GRASS GORE, SE"},"geometry":{"type":"Point","coordinates":[-76.99598195154785,38.87963818096516]}},{"type":"Feature","properties":{"OBJECTID":26,"TAG":"DC2862","TYPE":2,"COLOR":1,"LOCATION":"WB PENSYLVANIA AVE @ 8TH ST SE, CENTER MEDIAN. GRASS"},"geometry":{"type":"Point","coordinates":[-76.99463846941288,38.88440616817606]}},{"type":"Feature","properties":{"OBJECTID":27,"TAG":"DC2880","TYPE":2,"COLOR":1,"LOCATION":"EB PENNSYLVANIA AVE SE @ 8TH ST, CENTER MEDIAN GRASS"},"geometry":{"type":"Point","coordinates":[-76.99505827599094,38.883640672082315]}},{"type":"Feature","properties":{"OBJECTID":28,"TAG":"DC2359","TYPE":2,"COLOR":1,"LOCATION":"EB H ST NE, CENTER MEDIAN BETWEEN NORTH CAPITAL ST & 3RD ST NE"},"geometry":{"type":"Point","coordinates":[-76.97737196378702,38.88656939074162]}},{"type":"Feature","properties":{"OBJECTID":29,"TAG":"DC2341","TYPE":2,"COLOR":1,"LOCATION":"SB 14TH ST NW @ THOMAS CIRCLE, BETWEEN N ST & THOMAS CIR, RIGHT SIDEWALK"},"geometry":{"type":"Point","coordinates":[-76.98341584301853,38.88974180510122]}},{"type":"Feature","properties":{"OBJECTID":30,"TAG":"DC2338","TYPE":2,"COLOR":1,"LOCATION":null},"geometry":{"type":"Point","coordinates":[-76.96880732537561,38.88982630710107]}},{"type":"Feature","properties":{"OBJECTID":31,"TAG":"DC2853","TYPE":2,"COLOR":1,"LOCATION":"EB  NEW YORK AVE, RIGHT SHOULDER LAYBY, 300' WEST OF PENN ST NE"},"geometry":{"type":"Point","coordinates":[-76.97860121295241,38.89341546608204]}},{"type":"Feature","properties":{"OBJECTID":32,"TAG":"DC2349","TYPE":2,"COLOR":1,"LOCATION":"WB H ST, BETWEEN N CAPITAL ST & 3RD ST NE"},"geometry":{"type":"Point","coordinates":[-77.00409780727382,38.900197572070475]}},{"type":"Feature","properties":{"OBJECTID":33,"TAG":"DC2881","TYPE":2,"COLOR":1,"LOCATION":"EB H ST NE, CENTER MEDIAN BETWEEN  NORTH CAPITAL ST & 3RD ST NE"},"geometry":{"type":"Point","coordinates":[-77.00611306817673,38.90019748396411]}},{"type":"Feature","properties":{"OBJECTID":34,"TAG":"DC2213","TYPE":1,"COLOR":2,"LOCATION":"SB I-395, 3RD ST TUNNEL, 200' SOUTH OF NEW YORK AVE, RAISED MEDIAN, NW"},"geometry":{"type":"Point","coordinates":[-77.01557442332954,38.90400226708582]}},{"type":"Feature","properties":{"OBJECTID":35,"TAG":"DC2877","TYPE":2,"COLOR":1,"LOCATION":"WEST VIRGINIA AVE"},"geometry":{"type":"Point","coordinates":[-77.00222280397047,38.9099742431649]}},{"type":"Feature","properties":{"OBJECTID":36,"TAG":"DC2348","TYPE":2,"COLOR":1,"LOCATION":null},"geometry":{"type":"Point","coordinates":[-77.00065516545142,38.90999613475878]}},{"type":"Feature","properties":{"OBJECTID":37,"TAG":"DC2350","TYPE":2,"COLOR":1,"LOCATION":"EB RHODE ISLAND AVE NE,  RAISED CENTE MEDIAN"},"geometry":{"type":"Point","coordinates":[-76.99835946328604,38.92010079328179]}},{"type":"Feature","properties":{"OBJECTID":38,"TAG":"DC2356","TYPE":2,"COLOR":1,"LOCATION":"WB RHODE ISLAND AVE NE, RAISED CENTER MEDIAN"},"geometry":{"type":"Point","coordinates":[-76.99673554423543,38.921434928372605]}},{"type":"Feature","properties":{"OBJECTID":39,"TAG":"DC2205","TYPE":1,"COLOR":2,"LOCATION":"WB NEW YORK AVE @ SERVICE ROAD, OLD WASHINGTON TIMES WAREHOUSE, NE"},"geometry":{"type":"Point","coordinates":[-76.96176809306793,38.91751370974834]}},{"type":"Feature","properties":{"OBJECTID":40,"TAG":"DC2206","TYPE":1,"COLOR":2,"LOCATION":"EB NEW YORK AVE, RIGHT SHOULDER 500' EAST OF OFF-RAMP TO NB S. DAKOTA AVE, NE"},"geometry":{"type":"Point","coordinates":[-76.94153695933684,38.90488541547331]}},{"type":"Feature","properties":{"OBJECTID":41,"TAG":"DC2860","TYPE":2,"COLOR":1,"LOCATION":"SB DC 295 PRIOR TO BENNING RD"},"geometry":{"type":"Point","coordinates":[-76.95049918194141,38.8978031483522]}},{"type":"Feature","properties":{"OBJECTID":42,"TAG":"DC2852","TYPE":2,"COLOR":1,"LOCATION":"SB DC 295 200'  PRIOR TO EAST CAPITAL ST EXIT, WEST, RIGHT SHOULDER"},"geometry":{"type":"Point","coordinates":[-76.9566043608014,38.89183460309064]}},{"type":"Feature","properties":{"OBJECTID":43,"TAG":"DC2847","TYPE":1,"COLOR":2,"LOCATION":null},"geometry":{"type":"Point","coordinates":[-76.9588450506526,38.888751504311756]}},{"type":"Feature","properties":{"OBJECTID":44,"TAG":"DC2866","TYPE":2,"COLOR":1,"LOCATION":"SB WISCONSIN AVE NW @ CALVERT ST NW, RAISED ISLAND, NW CORNER"},"geometry":{"type":"Point","coordinates":[-76.96561329235381,38.897436754479095]}},{"type":"Feature","properties":{"OBJECTID":45,"TAG":"DC2851","TYPE":2,"COLOR":1,"LOCATION":"WB PENNSYLVANIA AVE @ FAIRLAWN AVE NE, RAISED ISLAND"},"geometry":{"type":"Point","coordinates":[-76.97307125753355,38.89814526462074]}},{"type":"Feature","properties":{"OBJECTID":46,"TAG":"DC2851","TYPE":2,"COLOR":1,"LOCATION":"WB PENNSYLVANIA AVE @ FAIRLAWN AVE NE, RAISED ISLAND"},"geometry":{"type":"Point","coordinates":[-76.9728990294582,38.87453899291838]}},{"type":"Feature","properties":{"OBJECTID":47,"TAG":"DC2203","TYPE":1,"COLOR":2,"LOCATION":"NB I-295, 1500' AFTER S. CAPITAL ST, ON-RAMP, LEFT SHOULDER, SE"},"geometry":{"type":"Point","coordinates":[-76.97793568209802,38.87351207732423]}},{"type":"Feature","properties":{"OBJECTID":48,"TAG":"DC2713","TYPE":1,"COLOR":2,"LOCATION":"NB S CAPITAL ST @ 100' N OF HOWARD RD ON-RAMP TO S CAPITAL ST BRIDGE, BEHIND RAIL"},"geometry":{"type":"Point","coordinates":[-77.00125648434877,38.86713529258306]}},{"type":"Feature","properties":{"OBJECTID":49,"TAG":"DC2353","TYPE":2,"COLOR":1,"LOCATION":"EB S CAPITAL ST @ SPLIT TO SUITLAND PKWY SE, GRASS GORE"},"geometry":{"type":"Point","coordinates":[-77.0008739569509,38.86414501607487]}},{"type":"Feature","properties":{"OBJECTID":50,"TAG":"DC2201","TYPE":1,"COLOR":2,"LOCATION":"SB I-295, PRIOR TO THE S. CAPITAL EXIT, RIGHT SHOULDER BEHIND GUARDRAIL, SE"},"geometry":{"type":"Point","coordinates":[-77.00748420439756,38.85299527721184]}},{"type":"Feature","properties":{"OBJECTID":51,"TAG":"DC2861","TYPE":2,"COLOR":1,"LOCATION":"NB GEORGIA AVE NW @ TAYLOR ST NW, RAISED ISLAND, NE SIDE"},"geometry":{"type":"Point","coordinates":[-77.024690739014,38.9405331066174]}},{"type":"Feature","properties":{"OBJECTID":52,"TAG":"DC2857","TYPE":2,"COLOR":1,"LOCATION":"SB GEORGIA AVE @ KANSAS AVE NW, SW CORNER"},"geometry":{"type":"Point","coordinates":[-77.025383774063,38.94255337375539]}},{"type":"Feature","properties":{"OBJECTID":53,"TAG":"DC2856","TYPE":2,"COLOR":1,"LOCATION":"NB CONNECTICUT AVE NW @ TILDEN ST NW, EAST SIDE GRASS MEDIAN"},"geometry":{"type":"Point","coordinates":[-77.0611323652107,38.94091397600224]}},{"type":"Feature","properties":{"OBJECTID":54,"TAG":"DC2345","TYPE":2,"COLOR":1,"LOCATION":"SB CONNECTICUT AVE @ VEAZEY TERRACE, UDC, SW CORNER, NW"},"geometry":{"type":"Point","coordinates":[-77.06398976221189,38.94401604630994]}},{"type":"Feature","properties":{"OBJECTID":55,"TAG":"DC2357","TYPE":2,"COLOR":1,"LOCATION":"SB WISCONSIN AVE @ RIVER ROAD NW, NW CORNER"},"geometry":{"type":"Point","coordinates":[-77.08056358574203,38.94859563742406]}},{"type":"Feature","properties":{"OBJECTID":56,"TAG":"DC2207","TYPE":2,"COLOR":1,"LOCATION":"SB MASSACHUSETTS AVE, @ WARD CIRCLE, NW"},"geometry":{"type":"Point","coordinates":[-77.0853087531154,38.93770779490928]}},{"type":"Feature","properties":{"OBJECTID":57,"TAG":"DC2867","TYPE":2,"COLOR":1,"LOCATION":"EB MACARTHUR BLVD @ LITTLE FALLS RD NW, CENTER MEDIAN, GRASS"},"geometry":{"type":"Point","coordinates":[-77.11195068673516,38.93777273935125]}},{"type":"Feature","properties":{"OBJECTID":58,"TAG":"DC2748","TYPE":2,"COLOR":1,"LOCATION":"UNITS ON MACARTHUR BLVD MEDIAN NW, FACING SB ARIZONA AVE"},"geometry":{"type":"Point","coordinates":[-77.10403677627556,38.927425564105874]}},{"type":"Feature","properties":{"OBJECTID":59,"TAG":"DC2749","TYPE":2,"COLOR":1,"LOCATION":"EB CANAL RD NW, NORTH SIDE, EAST OF ARIZONA AVE"},"geometry":{"type":"Point","coordinates":[-77.105547878778,38.923961328328666]}},{"type":"Feature","properties":{"OBJECTID":60,"TAG":"DC2347","TYPE":2,"COLOR":1,"LOCATION":"EB RESERVOIR RD @ MACARTHER BLD NW, SOUTH WEST  CORNER RAISED ISLAND"},"geometry":{"type":"Point","coordinates":[-77.09319723568244,38.915095361699514]}},{"type":"Feature","properties":{"OBJECTID":61,"TAG":"DC2878","TYPE":2,"COLOR":1,"LOCATION":"SB FOXHALL RD @ RESERVOIR RD NW, RAISED ISLAND"},"geometry":{"type":"Point","coordinates":[-77.08529456911518,38.912691720361664]}},{"type":"Feature","properties":{"OBJECTID":62,"TAG":"DC2355","TYPE":2,"COLOR":1,"LOCATION":"EB NEW YORK AVE @ H ST & 13TH ST NW, SW CORNER RAISED ISLAND"},"geometry":{"type":"Point","coordinates":[-77.0297936519304,38.89978917076725]}}]}