{
"type": "FeatureCollection",
"crs": { "type": "name", "properties": { "name": "urn:ogc:def:crs:OGC:1.3:CRS84" } },
                                                                                
"features": [
{ "type": "Feature", "properties": { "OBJECTID": 1, "TAG": "DC2346", "TYPE": "PDMS 92x54", "COLOR": "Red", "LOCATION": "NB 16TH ST & IRVING ST NW,  NORTH EAST CORNER, RAISED ISLAND" }, "geometry": { "type": "Point", "coordinates": [ -77.036134787041306, 38.928827811320581 ] } },
{ "type": "Feature", "properties": { "OBJECTID": 2, "TAG": "DC2750", "TYPE": "PDMS 92x54", "COLOR": "Red", "LOCATION": "SB 16TH ST & COLUMBIA RD NW, RAISED ISLAND NW CORNER" }, "geometry": { "type": "Point", "coordinates": [ -77.036770009442037, 38.926621927197459 ] } },
{ "type": "Feature", "properties": { "OBJECTID": 3, "TAG": "DC2676", "TYPE": "PDMS 126x74", "COLOR": "Orange", "LOCATION": "EB CANAL RD NORTH SIDE @ ENTRANCE TO GU SOUTHWEST QUADRANT BLDG" }, "geometry": { "type": "Point", "coordinates": [ -77.074507914409438, 38.905814691784606 ] } },
{ "type": "Feature", "properties": { "OBJECTID": 4, "TAG": "DC2211", "TYPE": "PDMS 126x74", "COLOR": "Orange", "LOCATION": "KEY BRIDGE, VA SIDE, CENTER PAINTED GORE" }, "geometry": { "type": "Point", "coordinates": [ -77.070381221089534, 38.901199936078434 ] } },
{ "type": "Feature", "properties": { "OBJECTID": 5, "TAG": "DC2342", "TYPE": "PDMS 92x54", "COLOR": "Red", "LOCATION": "EB THEODORE ROOSELT BRIDGE, VA SIDE RAISED CONCRETE GORE ON RIGHT" }, "geometry": { "type": "Point", "coordinates": [ -77.064002299207047, 38.891450911142918 ] } },
{ "type": "Feature", "properties": { "OBJECTID": 6, "TAG": "DC2873", "TYPE": "PDMS 92x54", "COLOR": "Red", "LOCATION": "NB POTOMA RIVER EXPRESSWAY @ INDEPENDENCE AVE\/ROCK CREEK NW, LEFT SHOULDER" }, "geometry": { "type": "Point", "coordinates": [ -77.052301158935791, 38.891366643799863 ] } },
{ "type": "Feature", "properties": { "OBJECTID": 7, "TAG": "DC2879", "TYPE": "PDMS 92x54", "COLOR": "Red", "LOCATION": "EB CONSTITUTION AVE NW @ HENRY BEACON DR, SE CORNER" }, "geometry": { "type": "Point", "coordinates": [ -77.04740208231344, 38.891954351132163 ] } },
{ "type": "Feature", "properties": { "OBJECTID": 8, "TAG": "DC2712", "TYPE": "PDMS 126x74", "COLOR": "Orange", "LOCATION": "NB I-395 HOV LANES\/14TH ST BRIDGE, RIGHT SHOULDER BEHIND GUARDRAIL, VA SIDE" }, "geometry": { "type": "Point", "coordinates": [ -77.043241074415448, 38.874049712973125 ] } },
{ "type": "Feature", "properties": { "OBJECTID": 9, "TAG": "DC2863", "TYPE": "PDMS 92x54", "COLOR": "Red", "LOCATION": "NB I-395\/MAIN 14TH ST BRIDGE, RIGHT MEDIAN, VA SIDE" }, "geometry": { "type": "Point", "coordinates": [ -77.042289601652627, 38.872991447948387 ] } },
{ "type": "Feature", "properties": { "OBJECTID": 10, "TAG": "DC2344", "TYPE": "PDMS 92x54", "COLOR": "Red", "LOCATION": "WB K ST, NORTH SIDE @ ROCK CREEK RAMP RAISED ISLAND, NW" }, "geometry": { "type": "Point", "coordinates": [ -77.056069698023862, 38.902748858689023 ] } },
{ "type": "Feature", "properties": { "OBJECTID": 11, "TAG": "DC2858", "TYPE": "PDMS 92x54", "COLOR": "Red", "LOCATION": "EB RAMP FROM WHITEHURST FRWY TO EB K ST NW, LEFT MEDIAN" }, "geometry": { "type": "Point", "coordinates": [ -77.056390302148984, 38.902229102286597 ] } },
{ "type": "Feature", "properties": { "OBJECTID": 12, "TAG": "DC2854", "TYPE": "PDMS 92x54", "COLOR": "Red", "LOCATION": "WB PENSYLVANIA AVE, L ST @ 25TH ST NW, NE CORNER" }, "geometry": { "type": "Point", "coordinates": [ -77.053078109705581, 38.903789451198598 ] } },
{ "type": "Feature", "properties": { "OBJECTID": 13, "TAG": "DC2868", "TYPE": "PDMS 92x54", "COLOR": "Red", "LOCATION": "SB 23RD ST NW, CENTER MEDIAN BETWEEN Q ST & P ST NW" }, "geometry": { "type": "Point", "coordinates": [ -77.04871480508686, 38.911003040416524 ] } },
{ "type": "Feature", "properties": { "OBJECTID": 14, "TAG": "DC2360", "TYPE": "PDMS 92x54", "COLOR": "Red", "LOCATION": "SB CONNECTICUT AVE NW, UNITS ON Q ST OVERPASS, FACING SB CONNECTICUT AVE TRAFFIC" }, "geometry": { "type": "Point", "coordinates": [ -77.043759532619546, 38.910363337083062 ] } },
{ "type": "Feature", "properties": { "OBJECTID": 15, "TAG": "DC2348", "TYPE": "PDMS 92x54", "COLOR": "Red", "LOCATION": "EB MASS AVE @ SCOTT CIRCE NW, ISLAND BEFORE CIRCLE, RELOCATION TO EB NEW YORK AVE" }, "geometry": { "type": "Point", "coordinates": [ -77.037566369946163, 38.907700310201143 ] } },
{ "type": "Feature", "properties": { "OBJECTID": 16, "TAG": "DC2354", "TYPE": "PDMS 92x54", "COLOR": "Red", "LOCATION": "BOARD DEAD GOING BACK TO YARD FOR CHARGE" }, "geometry": { "type": "Point", "coordinates": [ -77.032134124790744, 38.906985244412937 ] } },
{ "type": "Feature", "properties": { "OBJECTID": 17, "TAG": "DC2874", "TYPE": "PDMS 92x54", "COLOR": "Red", "LOCATION": "SB NEW HAMPSHIRE AVE NW @ N CAPITAL ST, RAISED ISLAND GRASS EAST SIDE" }, "geometry": { "type": "Point", "coordinates": [ -77.029539022953585, 38.904589491720792 ] } },
{ "type": "Feature", "properties": { "OBJECTID": 18, "TAG": "DC2343", "TYPE": "PDMS 92x54", "COLOR": "Red", "LOCATION": "EB PENNSYLVANIA AVE @ 13TH ST, NW" }, "geometry": { "type": "Point", "coordinates": [ -77.029067671510575, 38.89530483658401 ] } },
{ "type": "Feature", "properties": { "OBJECTID": 19, "TAG": "DC2876", "TYPE": "PDMS 92x54", "COLOR": "Red", "LOCATION": "PSI YARD (MD)" }, "geometry": { "type": "Point", "coordinates": [ -77.021006532916971, 38.893066903548473 ] } },
{ "type": "Feature", "properties": { "OBJECTID": 20, "TAG": "DC2210", "TYPE": "PDMS 126x74", "COLOR": "Orange", "LOCATION": "SB I-395, 3RD ST TUNNEL @ SPLIT TO NB\/SB I-395, RIGHT SHOULDER BEHIND GUARDRAIL, SW" }, "geometry": { "type": "Point", "coordinates": [ -77.013303385555417, 38.883946222716176 ] } },
{ "type": "Feature", "properties": { "OBJECTID": 21, "TAG": "DC2650", "TYPE": "PDMS 126x74", "COLOR": "Orange", "LOCATION": "SE\/SW FREEWAY @ 7TH ST & FRONTAGE RD LEFT SHOULDER NW, PANEL FROM 2204" }, "geometry": { "type": "Point", "coordinates": [ -77.022565565882829, 38.882960570998037 ] } },
{ "type": "Feature", "properties": { "OBJECTID": 22, "TAG": "DC2648", "TYPE": "PDMS 126x74", "COLOR": "Orange", "LOCATION": "EB SE\/SW FREEWAY @ MAINE AVE EXIT SW, RIGHT SHOULDER, GRASS" }, "geometry": { "type": "Point", "coordinates": [ -77.024496095688491, 38.882107186732661 ] } },
{ "type": "Feature", "properties": { "OBJECTID": 23, "TAG": "DC2875", "TYPE": "PDMS 92x54", "COLOR": "Red", "LOCATION": "NB S. CAPITAL ST @ I ST SE, RAISED CENTER ISLAND" }, "geometry": { "type": "Point", "coordinates": [ -77.009245225209511, 38.879441041527706 ] } },
{ "type": "Feature", "properties": { "OBJECTID": 24, "TAG": "DC2202", "TYPE": "PDMS 126x74", "COLOR": "Orange", "LOCATION": "EB SE\/SW FREEWAY @ SPLIT TO 11TH ST BRIDGE, I-295, SE" }, "geometry": { "type": "Point", "coordinates": [ -76.996569620277214, 38.878391510093834 ] } },
{ "type": "Feature", "properties": { "OBJECTID": 25, "TAG": "DC2208", "TYPE": "PDMS 126x74", "COLOR": "Orange", "LOCATION": "WB SE\/SW FREEWAY @ MERGE WITH 11TH ST BRIDGE FLYOVER, GRASS GORE, SE" }, "geometry": { "type": "Point", "coordinates": [ -76.995981951547847, 38.879638180965159 ] } },
{ "type": "Feature", "properties": { "OBJECTID": 26, "TAG": "DC2862", "TYPE": "PDMS 92x54", "COLOR": "Red", "LOCATION": "WB PENSYLVANIA AVE @ 8TH ST SE, CENTER MEDIAN. GRASS" }, "geometry": { "type": "Point", "coordinates": [ -76.994638469412877, 38.884406168176064 ] } },
{ "type": "Feature", "properties": { "OBJECTID": 27, "TAG": "DC2880", "TYPE": "PDMS 92x54", "COLOR": "Red", "LOCATION": "EB PENNSYLVANIA AVE SE @ 8TH ST, CENTER MEDIAN GRASS" }, "geometry": { "type": "Point", "coordinates": [ -76.995058275990942, 38.883640672082315 ] } },
{ "type": "Feature", "properties": { "OBJECTID": 28, "TAG": "DC2359", "TYPE": "PDMS 92x54", "COLOR": "Red", "LOCATION": "EB H ST NE, CENTER MEDIAN BETWEEN NORTH CAPITAL ST & 3RD ST NE" }, "geometry": { "type": "Point", "coordinates": [ -76.977371963787022, 38.88656939074162 ] } },
{ "type": "Feature", "properties": { "OBJECTID": 29, "TAG": "DC2341", "TYPE": "PDMS 92x54", "COLOR": "Red", "LOCATION": "SB 14TH ST NW @ THOMAS CIRCLE, BETWEEN N ST & THOMAS CIR, RIGHT SIDEWALK" }, "geometry": { "type": "Point", "coordinates": [ -76.983415843018534, 38.889741805101217 ] } },
{ "type": "Feature", "properties": { "OBJECTID": 30, "TAG": "DC2338", "TYPE": "PDMS 92x54", "COLOR": "Red", "LOCATION": null }, "geometry": { "type": "Point", "coordinates": [ -76.968807325375607, 38.889826307101067 ] } },
{ "type": "Feature", "properties": { "OBJECTID": 31, "TAG": "DC2853", "TYPE": "PDMS 92x54", "COLOR": "Red", "LOCATION": "EB  NEW YORK AVE, RIGHT SHOULDER LAYBY, 300 WEST OF PENN ST NE" }, "geometry": { "type": "Point", "coordinates": [ -76.978601212952412, 38.89341546608204 ] } },
{ "type": "Feature", "properties": { "OBJECTID": 32, "TAG": "DC2349", "TYPE": "PDMS 92x54", "COLOR": "Red", "LOCATION": "WB H ST, BETWEEN N CAPITAL ST & 3RD ST NE" }, "geometry": { "type": "Point", "coordinates": [ -77.004097807273823, 38.900197572070475 ] } },
{ "type": "Feature", "properties": { "OBJECTID": 33, "TAG": "DC2881", "TYPE": "PDMS 92x54", "COLOR": "Red", "LOCATION": "EB H ST NE, CENTER MEDIAN BETWEEN  NORTH CAPITAL ST & 3RD ST NE" }, "geometry": { "type": "Point", "coordinates": [ -77.006113068176731, 38.900197483964106 ] } },
{ "type": "Feature", "properties": { "OBJECTID": 34, "TAG": "DC2213", "TYPE": "PDMS 126x74", "COLOR": "Orange", "LOCATION": "SB I-395, 3RD ST TUNNEL, 200 SOUTH OF NEW YORK AVE, RAISED MEDIAN, NW" }, "geometry": { "type": "Point", "coordinates": [ -77.015574423329539, 38.904002267085822 ] } },
{ "type": "Feature", "properties": { "OBJECTID": 35, "TAG": "DC2877", "TYPE": "PDMS 92x54", "COLOR": "Red", "LOCATION": "WEST VIRGINIA AVE" }, "geometry": { "type": "Point", "coordinates": [ -77.002222803970469, 38.909974243164903 ] } },
{ "type": "Feature", "properties": { "OBJECTID": 36, "TAG": "DC2348", "TYPE": "PDMS 92x54", "COLOR": "Red", "LOCATION": null }, "geometry": { "type": "Point", "coordinates": [ -77.00065516545142, 38.909996134758778 ] } },
{ "type": "Feature", "properties": { "OBJECTID": 37, "TAG": "DC2350", "TYPE": "PDMS 92x54", "COLOR": "Red", "LOCATION": "EB RHODE ISLAND AVE NE,  RAISED CENTE MEDIAN" }, "geometry": { "type": "Point", "coordinates": [ -76.998359463286036, 38.92010079328179 ] } },
{ "type": "Feature", "properties": { "OBJECTID": 38, "TAG": "DC2356", "TYPE": "PDMS 92x54", "COLOR": "Red", "LOCATION": "WB RHODE ISLAND AVE NE, RAISED CENTER MEDIAN" }, "geometry": { "type": "Point", "coordinates": [ -76.996735544235435, 38.921434928372605 ] } },
{ "type": "Feature", "properties": { "OBJECTID": 39, "TAG": "DC2205", "TYPE": "PDMS 126x74", "COLOR": "Orange", "LOCATION": "WB NEW YORK AVE @ SERVICE ROAD, OLD WASHINGTON TIMES WAREHOUSE, NE" }, "geometry": { "type": "Point", "coordinates": [ -76.961768093067931, 38.917513709748341 ] } },
{ "type": "Feature", "properties": { "OBJECTID": 40, "TAG": "DC2206", "TYPE": "PDMS 126x74", "COLOR": "Orange", "LOCATION": "EB NEW YORK AVE, RIGHT SHOULDER 500 EAST OF OFF-RAMP TO NB S. DAKOTA AVE, NE" }, "geometry": { "type": "Point", "coordinates": [ -76.941536959336844, 38.904885415473309 ] } },
{ "type": "Feature", "properties": { "OBJECTID": 41, "TAG": "DC2860", "TYPE": "PDMS 92x54", "COLOR": "Red", "LOCATION": "SB DC 295 PRIOR TO BENNING RD" }, "geometry": { "type": "Point", "coordinates": [ -76.95049918194141, 38.897803148352203 ] } },
{ "type": "Feature", "properties": { "OBJECTID": 42, "TAG": "DC2852", "TYPE": "PDMS 92x54", "COLOR": "Red", "LOCATION": "SB DC 295 200  PRIOR TO EAST CAPITAL ST EXIT, WEST, RIGHT SHOULDER" }, "geometry": { "type": "Point", "coordinates": [ -76.956604360801407, 38.891834603090643 ] } },
{ "type": "Feature", "properties": { "OBJECTID": 43, "TAG": "DC2847", "TYPE": "PDMS 126x74", "COLOR": "Orange", "LOCATION": null }, "geometry": { "type": "Point", "coordinates": [ -76.958845050652599, 38.888751504311756 ] } },
{ "type": "Feature", "properties": { "OBJECTID": 44, "TAG": "DC2866", "TYPE": "PDMS 92x54", "COLOR": "Red", "LOCATION": "SB WISCONSIN AVE NW @ CALVERT ST NW, RAISED ISLAND, NW CORNER" }, "geometry": { "type": "Point", "coordinates": [ -76.965613292353808, 38.897436754479095 ] } },
{ "type": "Feature", "properties": { "OBJECTID": 45, "TAG": "DC2851", "TYPE": "PDMS 92x54", "COLOR": "Red", "LOCATION": "WB PENNSYLVANIA AVE @ FAIRLAWN AVE NE, RAISED ISLAND" }, "geometry": { "type": "Point", "coordinates": [ -76.973071257533547, 38.898145264620737 ] } },
{ "type": "Feature", "properties": { "OBJECTID": 46, "TAG": "DC2851", "TYPE": "PDMS 92x54", "COLOR": "Red", "LOCATION": "WB PENNSYLVANIA AVE @ FAIRLAWN AVE NE, RAISED ISLAND" }, "geometry": { "type": "Point", "coordinates": [ -76.972899029458205, 38.874538992918382 ] } },
{ "type": "Feature", "properties": { "OBJECTID": 47, "TAG": "DC2203", "TYPE": "PDMS 126x74", "COLOR": "Orange", "LOCATION": "NB I-295, 1500 AFTER S. CAPITAL ST, ON-RAMP, LEFT SHOULDER, SE" }, "geometry": { "type": "Point", "coordinates": [ -76.977935682098021, 38.873512077324229 ] } },
{ "type": "Feature", "properties": { "OBJECTID": 48, "TAG": "DC2713", "TYPE": "PDMS 126x74", "COLOR": "Orange", "LOCATION": "NB S CAPITAL ST @ 100 N OF HOWARD RD ON-RAMP TO S CAPITAL ST BRIDGE, BEHIND RAIL" }, "geometry": { "type": "Point", "coordinates": [ -77.001256484348772, 38.867135292583058 ] } },
{ "type": "Feature", "properties": { "OBJECTID": 49, "TAG": "DC2353", "TYPE": "PDMS 92x54", "COLOR": "Red", "LOCATION": "EB S CAPITAL ST @ SPLIT TO SUITLAND PKWY SE, GRASS GORE" }, "geometry": { "type": "Point", "coordinates": [ -77.000873956950898, 38.864145016074872 ] } },
{ "type": "Feature", "properties": { "OBJECTID": 50, "TAG": "DC2201", "TYPE": "PDMS 126x74", "COLOR": "Orange", "LOCATION": "SB I-295, PRIOR TO THE S. CAPITAL EXIT, RIGHT SHOULDER BEHIND GUARDRAIL, SE" }, "geometry": { "type": "Point", "coordinates": [ -77.007484204397556, 38.852995277211839 ] } },
{ "type": "Feature", "properties": { "OBJECTID": 51, "TAG": "DC2861", "TYPE": "PDMS 92x54", "COLOR": "Red", "LOCATION": "NB GEORGIA AVE NW @ TAYLOR ST NW, RAISED ISLAND, NE SIDE" }, "geometry": { "type": "Point", "coordinates": [ -77.024690739014005, 38.940533106617401 ] } },
{ "type": "Feature", "properties": { "OBJECTID": 52, "TAG": "DC2857", "TYPE": "PDMS 92x54", "COLOR": "Red", "LOCATION": "SB GEORGIA AVE @ KANSAS AVE NW, SW CORNER" }, "geometry": { "type": "Point", "coordinates": [ -77.025383774063002, 38.942553373755388 ] } },
{ "type": "Feature", "properties": { "OBJECTID": 53, "TAG": "DC2856", "TYPE": "PDMS 92x54", "COLOR": "Red", "LOCATION": "NB CONNECTICUT AVE NW @ TILDEN ST NW, EAST SIDE GRASS MEDIAN" }, "geometry": { "type": "Point", "coordinates": [ -77.061132365210696, 38.940913976002243 ] } },
{ "type": "Feature", "properties": { "OBJECTID": 54, "TAG": "DC2345", "TYPE": "PDMS 92x54", "COLOR": "Red", "LOCATION": "SB CONNECTICUT AVE @ VEAZEY TERRACE, UDC, SW CORNER, NW" }, "geometry": { "type": "Point", "coordinates": [ -77.063989762211889, 38.94401604630994 ] } },
{ "type": "Feature", "properties": { "OBJECTID": 55, "TAG": "DC2357", "TYPE": "PDMS 92x54", "COLOR": "Red", "LOCATION": "SB WISCONSIN AVE @ RIVER ROAD NW, NW CORNER" }, "geometry": { "type": "Point", "coordinates": [ -77.080563585742027, 38.948595637424063 ] } },
{ "type": "Feature", "properties": { "OBJECTID": 56, "TAG": "DC2207", "TYPE": "PDMS 92x54", "COLOR": "Red", "LOCATION": "SB MASSACHUSETTS AVE, @ WARD CIRCLE, NW" }, "geometry": { "type": "Point", "coordinates": [ -77.085308753115399, 38.937707794909279 ] } },
{ "type": "Feature", "properties": { "OBJECTID": 57, "TAG": "DC2867", "TYPE": "PDMS 92x54", "COLOR": "Red", "LOCATION": "EB MACARTHUR BLVD @ LITTLE FALLS RD NW, CENTER MEDIAN, GRASS" }, "geometry": { "type": "Point", "coordinates": [ -77.111950686735156, 38.937772739351253 ] } },
{ "type": "Feature", "properties": { "OBJECTID": 58, "TAG": "DC2748", "TYPE": "PDMS 92x54", "COLOR": "Red", "LOCATION": "UNITS ON MACARTHUR BLVD MEDIAN NW, FACING SB ARIZONA AVE" }, "geometry": { "type": "Point", "coordinates": [ -77.104036776275564, 38.927425564105874 ] } },
{ "type": "Feature", "properties": { "OBJECTID": 59, "TAG": "DC2749", "TYPE": "PDMS 92x54", "COLOR": "Red", "LOCATION": "EB CANAL RD NW, NORTH SIDE, EAST OF ARIZONA AVE" }, "geometry": { "type": "Point", "coordinates": [ -77.105547878777998, 38.923961328328666 ] } },
{ "type": "Feature", "properties": { "OBJECTID": 60, "TAG": "DC2347", "TYPE": "PDMS 92x54", "COLOR": "Red", "LOCATION": "EB RESERVOIR RD @ MACARTHER BLD NW, SOUTH WEST  CORNER RAISED ISLAND" }, "geometry": { "type": "Point", "coordinates": [ -77.093197235682439, 38.915095361699514 ] } },
{ "type": "Feature", "properties": { "OBJECTID": 61, "TAG": "DC2878", "TYPE": "PDMS 92x54", "COLOR": "Red", "LOCATION": "SB FOXHALL RD @ RESERVOIR RD NW, RAISED ISLAND" }, "geometry": { "type": "Point", "coordinates": [ -77.085294569115177, 38.912691720361664 ] } },
{ "type": "Feature", "properties": { "OBJECTID": 62, "TAG": "DC2355", "TYPE": "PDMS 92x54", "COLOR": "Red", "LOCATION": "EB NEW YORK AVE @ H ST & 13TH ST NW, SW CORNER RAISED ISLAND" }, "geometry": { "type": "Point", "coordinates": [ -77.029793651930405, 38.899789170767249 ] } }
]
}
