{"type":"FeatureCollection","features":[{"type":"Feature","properties":{"OBJECTID":1,"ORGANIZATION":"Adventure Camp DC","CAMP_NAME":"Adventure Camp on Capitol Hill","URL":"http://www.adventurecampdc.com/","ADDRESS":"1922 C STREET NE","REGIS_OPEN":"Open as of 2/11/16","CAMP_TYPE":"Non-DC Government Camp","UPDATE_DATE":"2016-01-15T00:00:00.000Z","X":402042.03,"Y":136192.39,"WARD":"Ward 7","ZIPCODE":"20002","ADDRID":53797},"geometry":{"type":"Point","coordinates":[-76.97646347988228,38.893583250246536]}},{"type":"Feature","properties":{"OBJECTID":2,"ORGANIZATION":"Alliance Française de Washington","CAMP_NAME":"Summer Camp 2015","URL":"http://francedc.org/kids-teens-camps/","ADDRESS":"2142 WYOMING AVENUE NW","REGIS_OPEN":"Open as of 2/11/16","CAMP_TYPE":"Non-DC Government Camp","UPDATE_DATE":"2016-01-15T00:00:00.000Z","X":395779.01,"Y":138795.24,"WARD":"Ward 2","ZIPCODE":"20008","ADDRID":277149},"geometry":{"type":"Point","coordinates":[-77.04867429822173,38.917022870620215]}},{"type":"Feature","properties":{"OBJECTID":3,"ORGANIZATION":"Beauvoir School","CAMP_NAME":"Numerous camps","URL":"http://summer.beauvoirschool.org/","ADDRESS":"3500 WOODLEY ROAD NW","REGIS_OPEN":"Januray 6, 2016","CAMP_TYPE":"Non-DC Government Camp","UPDATE_DATE":"2016-01-15T00:00:00.000Z","X":394115.17,"Y":140251.87,"WARD":"Ward 3","ZIPCODE":"20016","ADDRID":300818},"geometry":{"type":"Point","coordinates":[-77.06787243200367,38.93013509123675]}},{"type":"Feature","properties":{"OBJECTID":4,"ORGANIZATION":"Bricks4Kidz","CAMP_NAME":" ","URL":"http://www.bricks4kidz.com/washingtondc/program-events/camps/","ADDRESS":"1130 6TH STREET NW","REGIS_OPEN":"Not indicated on website","CAMP_TYPE":"Non-DC Government Camp","UPDATE_DATE":"2016-01-20T00:00:00.000Z","X":398254.12,"Y":137469.11,"WARD":"Ward 6","ZIPCODE":"20001","ADDRID":238644},"geometry":{"type":"Point","coordinates":[-77.02013056422405,38.905085041463224]}},{"type":"Feature","properties":{"OBJECTID":5,"ORGANIZATION":"Busy Bees","CAMP_NAME":" ","URL":"http://busybeesdc.com/","ADDRESS":"1453 PENNSYLVANIA AVENUE SE","REGIS_OPEN":"Open as of 2/11/16","CAMP_TYPE":"Non-DC Government Camp","UPDATE_DATE":"2016-01-22T00:00:00.000Z","X":401400.58,"Y":134609.69,"WARD":"Ward 6","ZIPCODE":"20003","ADDRID":62886},"geometry":{"type":"Point","coordinates":[-76.98386080045742,38.87932694015906]}},{"type":"Feature","properties":{"OBJECTID":6,"ORGANIZATION":"Capitol Hill Arts Workshop","CAMP_NAME":"Capitol Hill Arts Workshop (CHAW) Summer Camp 2016","URL":"http://chaw.org/","ADDRESS":"545 7TH STREET SE","REGIS_OPEN":"Open as of 2/11/16","CAMP_TYPE":"Non-DC Government Camp","UPDATE_DATE":"2016-01-20T00:00:00.000Z","X":400312.38,"Y":134850.72,"WARD":"Ward 6","ZIPCODE":"20003","ADDRID":8551},"geometry":{"type":"Point","coordinates":[-76.99640203852597,38.88149929222918]}},{"type":"Feature","properties":{"OBJECTID":7,"ORGANIZATION":"Children’s Art Studio","CAMP_NAME":" ","URL":"http://childrensartstudio.org/camps-2/","ADDRESS":"4723 WISCONSIN AVENUE NW","REGIS_OPEN":"Open as of 2/11/16","CAMP_TYPE":"Non-DC Government Camp","UPDATE_DATE":"2016-01-15T00:00:00.000Z","X":392998.42,"Y":142646.61,"WARD":"Ward 3","ZIPCODE":"20016","ADDRID":300800},"geometry":{"type":"Point","coordinates":[-77.08077641885932,38.95169941034894]}},{"type":"Feature","properties":{"OBJECTID":8,"ORGANIZATION":"Circle Yoga","CAMP_NAME":"2016 Circle Yoga Summer Camp","URL":"http://circleyoga.com/budding-yogis/summer-camp/","ADDRESS":"3838 NORTHAMPTON STREET NW","REGIS_OPEN":"Open as of 2/11/16","CAMP_TYPE":"Non-DC Government Camp","UPDATE_DATE":"2016-01-15T00:00:00.000Z","X":393334.05,"Y":144207.88,"WARD":"Ward 3","ZIPCODE":"20015","ADDRID":303169},"geometry":{"type":"Point","coordinates":[-77.07691958287845,38.965766343886784]}},{"type":"Feature","properties":{"OBJECTID":9,"ORGANIZATION":"Cleveland Park Club","CAMP_NAME":"Camp at Cleveland Park Club","URL":"http://clevelandparkclub.org/en/Camp.html","ADDRESS":"3433 33RD PLACE NW","REGIS_OPEN":"1-Mar-16","CAMP_TYPE":"Non-DC Government Camp","UPDATE_DATE":"2016-01-15T00:00:00.000Z","X":394357.98,"Y":140889.33,"WARD":"Ward 3","ZIPCODE":"20008","ADDRID":221035},"geometry":{"type":"Point","coordinates":[-77.06507732977917,38.93587911697559]}},{"type":"Feature","properties":{"OBJECTID":10,"ORGANIZATION":"CommuniKids","CAMP_NAME":"Several camps","URL":"http://communikids.com/programs-events/","ADDRESS":"4719 WISCONSIN AVENUE NW","REGIS_OPEN":"Not indicated on website","CAMP_TYPE":"Non-DC Government Camp","UPDATE_DATE":"2016-01-15T00:00:00.000Z","X":393005.31,"Y":142627.07,"WARD":"Ward 3","ZIPCODE":"20016","ADDRID":300798},"geometry":{"type":"Point","coordinates":[-77.08069673274322,38.95152344365042]}},{"type":"Feature","properties":{"OBJECTID":11,"ORGANIZATION":"DAR Museum","CAMP_NAME":"Time Travelers Camp: Colonial Apprentice","URL":"http://www.dar.org/museum/education/summer-camp","ADDRESS":"1776 D STREET NW","REGIS_OPEN":"Open as of 2/11/16","CAMP_TYPE":"Non-DC Government Camp","UPDATE_DATE":"2016-01-15T00:00:00.000Z","X":396530.26,"Y":136235.36,"WARD":"Ward 2","ZIPCODE":"20006","ADDRID":279384},"geometry":{"type":"Point","coordinates":[-77.03999874109077,38.893965861891445]}},{"type":"Feature","properties":{"OBJECTID":12,"ORGANIZATION":"DC United","CAMP_NAME":"D.C. United","URL":"http://www.dcunited.com","ADDRESS":"2400 EAST CAPITOL STREET SE","REGIS_OPEN":"Not indicated on website","CAMP_TYPE":"DC Government Camp","UPDATE_DATE":"2016-01-15T00:00:00.000Z","X":402438.25,"Y":135772.32,"WARD":"Ward 7","ZIPCODE":"20003","ADDRID":293222},"geometry":{"type":"Point","coordinates":[-76.97189767996738,38.88979809346226]}},{"type":"Feature","properties":{"OBJECTID":13,"ORGANIZATION":"DPR","CAMP_NAME":"Turkey Thicket","URL":" ","ADDRESS":"1100 MICHIGAN AVENUE NE","REGIS_OPEN":" February 22, 2016 at 12:00pm","CAMP_TYPE":"DC DPR Camp","UPDATE_DATE":null,"X":400641.56,"Y":141130.75,"WARD":"Ward 5","ZIPCODE":"20017","ADDRID":74603},"geometry":{"type":"Point","coordinates":[-76.99260230753028,38.93807178423246]}},{"type":"Feature","properties":{"OBJECTID":14,"ORGANIZATION":"DPR","CAMP_NAME":"Deanwood","URL":" ","ADDRESS":"1350 49TH STREET NE","REGIS_OPEN":" February 22, 2016 at 12:00pm","CAMP_TYPE":"DC DPR Camp","UPDATE_DATE":null,"X":405884.39,"Y":137844.91,"WARD":"Ward 7","ZIPCODE":"20019","ADDRID":307551},"geometry":{"type":"Point","coordinates":[-76.93215784256401,38.90845241862821]}},{"type":"Feature","properties":{"OBJECTID":15,"ORGANIZATION":"DPR","CAMP_NAME":"Barry Farm","URL":" ","ADDRESS":"1230 SUMNER ROAD SE","REGIS_OPEN":" February 22, 2016 at 12:00pm","CAMP_TYPE":"DC DPR Camp","UPDATE_DATE":null,"X":400320.84,"Y":132501.09,"WARD":"Ward 8","ZIPCODE":"20020","ADDRID":285960},"geometry":{"type":"Point","coordinates":[-76.99630563057333,38.86033286820143]}},{"type":"Feature","properties":{"OBJECTID":16,"ORGANIZATION":"DPR","CAMP_NAME":"Deanwood","URL":" ","ADDRESS":"1350 49TH STREET NE","REGIS_OPEN":" February 22, 2016 at 12:00pm","CAMP_TYPE":"DC DPR Camp","UPDATE_DATE":null,"X":405884.39,"Y":137844.91,"WARD":"Ward 7","ZIPCODE":"20019","ADDRID":307551},"geometry":{"type":"Point","coordinates":[-76.93215784256401,38.90845241862821]}},{"type":"Feature","properties":{"OBJECTID":17,"ORGANIZATION":"DPR","CAMP_NAME":"Harry Thomas","URL":" ","ADDRESS":"1743 LINCOLN ROAD NE","REGIS_OPEN":" February 22, 2016 at 12:00pm","CAMP_TYPE":"DC DPR Camp","UPDATE_DATE":null,"X":399317.62,"Y":138457.86,"WARD":"Ward 5","ZIPCODE":"20002","ADDRID":296786},"geometry":{"type":"Point","coordinates":[-77.0078704376956,38.913993511783154]}},{"type":"Feature","properties":{"OBJECTID":18,"ORGANIZATION":"DPR","CAMP_NAME":"Takoma","URL":" ","ADDRESS":"300 VAN BUREN STREET NW","REGIS_OPEN":" February 22, 2016 at 12:00pm","CAMP_TYPE":"DC DPR Camp","UPDATE_DATE":null,"X":398435.64,"Y":144552.48,"WARD":"Ward 4","ZIPCODE":"20012","ADDRID":296168},"geometry":{"type":"Point","coordinates":[-77.0180539695569,38.96889449179711]}},{"type":"Feature","properties":{"OBJECTID":19,"ORGANIZATION":"DPR","CAMP_NAME":"Chevy Chase Community","URL":" ","ADDRESS":"5601 CONNECTICUT AVENUE NW","REGIS_OPEN":" February 22, 2016 at 12:00pm","CAMP_TYPE":"DC DPR Camp","UPDATE_DATE":null,"X":393490.74,"Y":144141.13,"WARD":"Ward 3","ZIPCODE":"20015","ADDRID":263959},"geometry":{"type":"Point","coordinates":[-77.07511092995016,38.965166218868454]}},{"type":"Feature","properties":{"OBJECTID":20,"ORGANIZATION":"DPR","CAMP_NAME":"Hillcrest","URL":" ","ADDRESS":"3100 DENVER STREET SE","REGIS_OPEN":" February 22, 2016 at 12:00pm","CAMP_TYPE":"DC DPR Camp","UPDATE_DATE":null,"X":403243.37,"Y":132310.93,"WARD":"Ward 7","ZIPCODE":"20020","ADDRID":296174},"geometry":{"type":"Point","coordinates":[-76.96263375755142,38.85861390612158]}},{"type":"Feature","properties":{"OBJECTID":21,"ORGANIZATION":"DPR","CAMP_NAME":"Emery","URL":" ","ADDRESS":"5701 GEORGIA AVENUE NW","REGIS_OPEN":" February 22, 2016 at 12:00pm","CAMP_TYPE":"DC DPR Camp","UPDATE_DATE":null,"X":397586.25,"Y":143414.65,"WARD":"Ward 4","ZIPCODE":"20011","ADDRID":309352},"geometry":{"type":"Point","coordinates":[-77.02785136290227,38.95864270895283]}},{"type":"Feature","properties":{"OBJECTID":22,"ORGANIZATION":"DPR","CAMP_NAME":"Hillcrest","URL":" ","ADDRESS":"3100 DENVER STREET SE","REGIS_OPEN":" February 22, 2016 at 12:00pm","CAMP_TYPE":"DC DPR Camp","UPDATE_DATE":null,"X":403243.37,"Y":132310.93,"WARD":"Ward 7","ZIPCODE":"20020","ADDRID":296174},"geometry":{"type":"Point","coordinates":[-76.96263375755142,38.85861390612158]}},{"type":"Feature","properties":{"OBJECTID":23,"ORGANIZATION":"DPR","CAMP_NAME":"Lamond","URL":" ","ADDRESS":"20 TUCKERMAN STREET NE","REGIS_OPEN":" February 22, 2016 at 12:00pm","CAMP_TYPE":"DC DPR Camp","UPDATE_DATE":null,"X":399286.43,"Y":144429.41,"WARD":"Ward 4","ZIPCODE":"20011","ADDRID":296166},"geometry":{"type":"Point","coordinates":[-77.00823628646452,38.96778695103824]}},{"type":"Feature","properties":{"OBJECTID":24,"ORGANIZATION":"DPR","CAMP_NAME":"Ferebee Hope","URL":" ","ADDRESS":"3999 8TH STREET SE","REGIS_OPEN":" February 22, 2016 at 12:00pm","CAMP_TYPE":"DC DPR Camp","UPDATE_DATE":null,"X":400419.94,"Y":129394.95,"WARD":"Ward 8","ZIPCODE":"20032","ADDRID":294588},"geometry":{"type":"Point","coordinates":[-76.99516571575832,38.83235134195328]}},{"type":"Feature","properties":{"OBJECTID":25,"ORGANIZATION":"DPR","CAMP_NAME":"Therapeutic Recreation","URL":" ","ADDRESS":"3030 G STREET SE","REGIS_OPEN":" February 22, 2016 at 12:00pm","CAMP_TYPE":"DC DPR Camp","UPDATE_DATE":null,"X":403192.75,"Y":134782.54,"WARD":"Ward 7","ZIPCODE":"20019","ADDRID":288770},"geometry":{"type":"Point","coordinates":[-76.96320549929074,38.88087936028152]}},{"type":"Feature","properties":{"OBJECTID":26,"ORGANIZATION":"DPR","CAMP_NAME":"Langdon Park","URL":" ","ADDRESS":"2901 20TH STREET NE","REGIS_OPEN":" February 22, 2016 at 12:00pm","CAMP_TYPE":"DC DPR Camp","UPDATE_DATE":null,"X":402099.41,"Y":139883.09,"WARD":"Ward 5","ZIPCODE":"20018","ADDRID":287283},"geometry":{"type":"Point","coordinates":[-76.97579077027649,38.926830207509276]}},{"type":"Feature","properties":{"OBJECTID":27,"ORGANIZATION":"DPR","CAMP_NAME":"Barry Farm","URL":" ","ADDRESS":"1230 SUMNER ROAD SE","REGIS_OPEN":" February 22, 2016 at 12:00pm","CAMP_TYPE":"DC DPR Camp","UPDATE_DATE":null,"X":400320.84,"Y":132501.09,"WARD":"Ward 8","ZIPCODE":"20020","ADDRID":285960},"geometry":{"type":"Point","coordinates":[-76.99630563057333,38.86033286820143]}},{"type":"Feature","properties":{"OBJECTID":28,"ORGANIZATION":"DPR","CAMP_NAME":"Bald Eagle","URL":" ","ADDRESS":"100 JOLIET STREET SW","REGIS_OPEN":" February 22, 2016 at 12:00pm","CAMP_TYPE":"DC DPR Camp","UPDATE_DATE":null,"X":399117.53,"Y":127901.54,"WARD":"Ward 8","ZIPCODE":"20032","ADDRID":301277},"geometry":{"type":"Point","coordinates":[-77.01016401193681,38.81889765596578]}},{"type":"Feature","properties":{"OBJECTID":29,"ORGANIZATION":"DPR","CAMP_NAME":"Chevy Chase Community","URL":" ","ADDRESS":"5601 CONNECTICUT AVENUE NW","REGIS_OPEN":" February 22, 2016 at 12:00pm","CAMP_TYPE":"DC DPR Camp","UPDATE_DATE":null,"X":393490.74,"Y":144141.13,"WARD":"Ward 3","ZIPCODE":"20015","ADDRID":263959},"geometry":{"type":"Point","coordinates":[-77.07511092995016,38.965166218868454]}},{"type":"Feature","properties":{"OBJECTID":30,"ORGANIZATION":"DPR","CAMP_NAME":"Deanwood","URL":" ","ADDRESS":"1350 49TH STREET NE","REGIS_OPEN":" February 22, 2016 at 12:00pm","CAMP_TYPE":"DC DPR Camp","UPDATE_DATE":null,"X":405884.39,"Y":137844.91,"WARD":"Ward 7","ZIPCODE":"20019","ADDRID":307551},"geometry":{"type":"Point","coordinates":[-76.93215784256401,38.90845241862821]}},{"type":"Feature","properties":{"OBJECTID":31,"ORGANIZATION":"DPR","CAMP_NAME":"Emery","URL":" ","ADDRESS":"5701 GEORGIA AVENUE NW","REGIS_OPEN":" February 22, 2016 at 12:00pm","CAMP_TYPE":"DC DPR Camp","UPDATE_DATE":null,"X":397586.25,"Y":143414.65,"WARD":"Ward 4","ZIPCODE":"20011","ADDRID":309352},"geometry":{"type":"Point","coordinates":[-77.02785136290227,38.95864270895283]}},{"type":"Feature","properties":{"OBJECTID":32,"ORGANIZATION":"DPR","CAMP_NAME":"Fort Stanton","URL":" ","ADDRESS":"1800 ERIE STREET SE","REGIS_OPEN":" February 22, 2016 at 12:00pm","CAMP_TYPE":"DC DPR Camp","UPDATE_DATE":null,"X":401883.19,"Y":132207.7,"WARD":"Ward 8","ZIPCODE":"20020","ADDRID":302145},"geometry":{"type":"Point","coordinates":[-76.97830536834437,38.857687929818475]}},{"type":"Feature","properties":{"OBJECTID":33,"ORGANIZATION":"DPR","CAMP_NAME":"Fort Stevens","URL":" ","ADDRESS":"1327 VAN BUREN STREET NW","REGIS_OPEN":" February 22, 2016 at 12:00pm","CAMP_TYPE":"DC DPR Camp","UPDATE_DATE":null,"X":397305.72,"Y":144706.25,"WARD":"Ward 4","ZIPCODE":"20012","ADDRID":290152},"geometry":{"type":"Point","coordinates":[-77.03109310413618,38.97027694886603]}},{"type":"Feature","properties":{"OBJECTID":34,"ORGANIZATION":"DPR","CAMP_NAME":"Kennedy","URL":" ","ADDRESS":"1401 7TH STREET NW","REGIS_OPEN":" February 22, 2016 at 12:00pm","CAMP_TYPE":"DC DPR Camp","UPDATE_DATE":null,"X":398132.08,"Y":137903.46,"WARD":"Ward 6","ZIPCODE":"20001","ADDRID":279127},"geometry":{"type":"Point","coordinates":[-77.02153874704132,38.90899756675505]}},{"type":"Feature","properties":{"OBJECTID":35,"ORGANIZATION":"DPR","CAMP_NAME":"Lamond","URL":" ","ADDRESS":"20 TUCKERMAN STREET NE","REGIS_OPEN":" February 22, 2016 at 12:00pm","CAMP_TYPE":"DC DPR Camp","UPDATE_DATE":null,"X":399286.43,"Y":144429.41,"WARD":"Ward 4","ZIPCODE":"20011","ADDRID":296166},"geometry":{"type":"Point","coordinates":[-77.00823628646452,38.96778695103824]}},{"type":"Feature","properties":{"OBJECTID":36,"ORGANIZATION":"DPR","CAMP_NAME":"North Michigan Park","URL":" ","ADDRESS":"1333 EMERSON STREET NE","REGIS_OPEN":" February 22, 2016 at 12:00pm","CAMP_TYPE":"DC DPR Camp","UPDATE_DATE":null,"X":401180.45,"Y":142451.51,"WARD":"Ward 5","ZIPCODE":"20017","ADDRID":296163},"geometry":{"type":"Point","coordinates":[-76.98638428927671,38.9499690101533]}},{"type":"Feature","properties":{"OBJECTID":37,"ORGANIZATION":"DPR","CAMP_NAME":"Palisades","URL":" ","ADDRESS":"5200 SHERIER PLACE NW","REGIS_OPEN":" February 22, 2016 at 12:00pm","CAMP_TYPE":"DC DPR Camp","UPDATE_DATE":null,"X":390931.96,"Y":139636.31,"WARD":"Ward 3","ZIPCODE":"20016","ADDRID":268352},"geometry":{"type":"Point","coordinates":[-77.10457645119848,38.9245628498433]}},{"type":"Feature","properties":{"OBJECTID":38,"ORGANIZATION":"DPR","CAMP_NAME":"Parkview","URL":" ","ADDRESS":"693 OTIS PLACE NW","REGIS_OPEN":" February 22, 2016 at 12:00pm","CAMP_TYPE":"DC DPR Camp","UPDATE_DATE":null,"X":398148.9,"Y":140791.13,"WARD":"Ward 1","ZIPCODE":"20010","ADDRID":295160},"geometry":{"type":"Point","coordinates":[-77.02135260660532,38.93501066874128]}},{"type":"Feature","properties":{"OBJECTID":39,"ORGANIZATION":"DPR","CAMP_NAME":"Raymond","URL":" ","ADDRESS":"3725 10TH STREET NW","REGIS_OPEN":" February 22, 2016 at 12:00pm","CAMP_TYPE":"DC DPR Camp","UPDATE_DATE":null,"X":397662.94,"Y":140952.42,"WARD":"Ward 4","ZIPCODE":"20010","ADDRID":310493},"geometry":{"type":"Point","coordinates":[-77.02695814839882,38.936462459087316]}},{"type":"Feature","properties":{"OBJECTID":40,"ORGANIZATION":"DPR","CAMP_NAME":"Ridge Road","URL":" ","ADDRESS":"800 RIDGE ROAD SE","REGIS_OPEN":" February 22, 2016 at 12:00pm","CAMP_TYPE":"DC DPR Camp","UPDATE_DATE":null,"X":404923.72,"Y":134434.84,"WARD":"Ward 7","ZIPCODE":"20019","ADDRID":289024},"geometry":{"type":"Point","coordinates":[-76.9432583809927,38.87773915416169]}},{"type":"Feature","properties":{"OBJECTID":41,"ORGANIZATION":"DPR","CAMP_NAME":"Riggs LaSalle","URL":" ","ADDRESS":"501 RIGGS ROAD NE","REGIS_OPEN":" February 22, 2016 at 12:00pm","CAMP_TYPE":"DC DPR Camp","UPDATE_DATE":null,"X":400010.18,"Y":143562.69,"WARD":"Ward 4","ZIPCODE":"20011","ADDRID":294489},"geometry":{"type":"Point","coordinates":[-76.99988483141722,38.95997960935011]}},{"type":"Feature","properties":{"OBJECTID":42,"ORGANIZATION":"DPR","CAMP_NAME":"Sherwood","URL":" ","ADDRESS":"640 10TH STREET NE","REGIS_OPEN":" February 22, 2016 at 12:00pm","CAMP_TYPE":"DC DPR Camp","UPDATE_DATE":null,"X":400605.76,"Y":136743.84,"WARD":"Ward 6","ZIPCODE":"20002","ADDRID":301075},"geometry":{"type":"Point","coordinates":[-76.99301910558036,38.89855307631047]}},{"type":"Feature","properties":{"OBJECTID":43,"ORGANIZATION":"DPR","CAMP_NAME":"Stead","URL":" ","ADDRESS":"1625 P STREET NW","REGIS_OPEN":" February 22, 2016 at 12:00pm","CAMP_TYPE":"DC DPR Camp","UPDATE_DATE":null,"X":396737.09,"Y":138018.79,"WARD":"Ward 2","ZIPCODE":"20036","ADDRID":295822},"geometry":{"type":"Point","coordinates":[-77.03762303945996,38.910032426794764]}},{"type":"Feature","properties":{"OBJECTID":44,"ORGANIZATION":"DPR","CAMP_NAME":"Trinidad","URL":" ","ADDRESS":"1310 CHILDRESS STREET NE","REGIS_OPEN":" February 22, 2016 at 12:00pm","CAMP_TYPE":"DC DPR Camp","UPDATE_DATE":null,"X":401496.88,"Y":137620.38,"WARD":"Ward 5","ZIPCODE":"20002","ADDRID":68509},"geometry":{"type":"Point","coordinates":[-76.98274439903977,38.90644819538894]}},{"type":"Feature","properties":{"OBJECTID":45,"ORGANIZATION":"DPR","CAMP_NAME":"Turkey Thicket","URL":" ","ADDRESS":"100 MICHIGAN AVENUE NE","REGIS_OPEN":" February 22, 2016 at 12:00pm","CAMP_TYPE":"DC DPR Camp","UPDATE_DATE":null,"X":399463.27,"Y":139950.92,"WARD":"Ward 5","ZIPCODE":"20017","ADDRID":146162},"geometry":{"type":"Point","coordinates":[-77.00619219477444,38.927443584431]}},{"type":"Feature","properties":{"OBJECTID":46,"ORGANIZATION":"DPR","CAMP_NAME":"Raymond","URL":" ","ADDRESS":"3725 10TH STREET NW","REGIS_OPEN":" February 22, 2016 at 12:00pm","CAMP_TYPE":"DC DPR Camp","UPDATE_DATE":null,"X":397662.94,"Y":140952.42,"WARD":"Ward 4","ZIPCODE":"20010","ADDRID":310493},"geometry":{"type":"Point","coordinates":[-77.02695814839882,38.936462459087316]}},{"type":"Feature","properties":{"OBJECTID":47,"ORGANIZATION":"DPR","CAMP_NAME":"Joe Cole","URL":" ","ADDRESS":"1299 NEAL STREET NE","REGIS_OPEN":" February 22, 2016 at 12:00pm","CAMP_TYPE":"DC DPR Camp","UPDATE_DATE":null,"X":400997.43,"Y":137362.43,"WARD":"Ward 5","ZIPCODE":"20002","ADDRID":294512},"geometry":{"type":"Point","coordinates":[-76.9885030510634,38.90412519953248]}},{"type":"Feature","properties":{"OBJECTID":48,"ORGANIZATION":"DPR","CAMP_NAME":"Ridge Road","URL":" ","ADDRESS":"800 RIDGE ROAD SE","REGIS_OPEN":" February 22, 2016 at 12:00pm","CAMP_TYPE":"DC DPR Camp","UPDATE_DATE":null,"X":404923.72,"Y":134434.84,"WARD":"Ward 7","ZIPCODE":"20019","ADDRID":289024},"geometry":{"type":"Point","coordinates":[-76.9432583809927,38.87773915416169]}},{"type":"Feature","properties":{"OBJECTID":49,"ORGANIZATION":"DPR","CAMP_NAME":"Riggs LaSalle","URL":" ","ADDRESS":"501 RIGGS ROAD NE","REGIS_OPEN":" February 22, 2016 at 12:00pm","CAMP_TYPE":"DC DPR Camp","UPDATE_DATE":null,"X":400010.18,"Y":143562.69,"WARD":"Ward 4","ZIPCODE":"20011","ADDRID":294489},"geometry":{"type":"Point","coordinates":[-76.99988483141722,38.95997960935011]}},{"type":"Feature","properties":{"OBJECTID":50,"ORGANIZATION":"DPR","CAMP_NAME":"Bald Eagle","URL":" ","ADDRESS":"100 JOLIET STREET SW","REGIS_OPEN":" February 22, 2016 at 12:00pm","CAMP_TYPE":"DC DPR Camp","UPDATE_DATE":null,"X":399117.53,"Y":127901.54,"WARD":"Ward 8","ZIPCODE":"20032","ADDRID":301277},"geometry":{"type":"Point","coordinates":[-77.01016401193681,38.81889765596578]}},{"type":"Feature","properties":{"OBJECTID":51,"ORGANIZATION":"DPR","CAMP_NAME":"Banneker","URL":" ","ADDRESS":"2500 GEORGIA AVENUE NW","REGIS_OPEN":" February 22, 2016 at 12:00pm","CAMP_TYPE":"DC DPR Camp","UPDATE_DATE":null,"X":398041.68,"Y":139425.87,"WARD":"Ward 1","ZIPCODE":"20001","ADDRID":232292},"geometry":{"type":"Point","coordinates":[-77.02258537040541,38.92271174781959]}},{"type":"Feature","properties":{"OBJECTID":52,"ORGANIZATION":"DPR","CAMP_NAME":"Barry Farm","URL":" ","ADDRESS":"1230 SUMNER ROAD SE","REGIS_OPEN":" February 22, 2016 at 12:00pm","CAMP_TYPE":"DC DPR Camp","UPDATE_DATE":null,"X":400320.84,"Y":132501.09,"WARD":"Ward 8","ZIPCODE":"20020","ADDRID":285960},"geometry":{"type":"Point","coordinates":[-76.99630563057333,38.86033286820143]}},{"type":"Feature","properties":{"OBJECTID":53,"ORGANIZATION":"DPR","CAMP_NAME":"Benning Park","URL":" ","ADDRESS":"5100 SOUTHERN AVENUE SE","REGIS_OPEN":" February 22, 2016 at 12:00pm","CAMP_TYPE":"DC DPR Camp","UPDATE_DATE":null,"X":406339.46,"Y":134665.37,"WARD":"Ward 7","ZIPCODE":"20019","ADDRID":296175},"geometry":{"type":"Point","coordinates":[-76.9269404244556,38.87980679198983]}},{"type":"Feature","properties":{"OBJECTID":54,"ORGANIZATION":"DPR","CAMP_NAME":"Brentwood","URL":" ","ADDRESS":"2311 14TH STREET NE","REGIS_OPEN":" February 22, 2016 at 12:00pm","CAMP_TYPE":"DC DPR Camp","UPDATE_DATE":null,"X":401481.38,"Y":139241.02,"WARD":"Ward 5","ZIPCODE":"20018","ADDRID":286825},"geometry":{"type":"Point","coordinates":[-76.98291960666006,38.921047494004576]}},{"type":"Feature","properties":{"OBJECTID":55,"ORGANIZATION":"DPR","CAMP_NAME":"Chevy Chase Community","URL":" ","ADDRESS":"5601 CONNECTICUT AVENUE NW","REGIS_OPEN":" February 22, 2016 at 12:00pm","CAMP_TYPE":"DC DPR Camp","UPDATE_DATE":null,"X":393490.74,"Y":144141.13,"WARD":"Ward 3","ZIPCODE":"20015","ADDRID":263959},"geometry":{"type":"Point","coordinates":[-77.07511092995016,38.965166218868454]}},{"type":"Feature","properties":{"OBJECTID":56,"ORGANIZATION":"DPR","CAMP_NAME":"Chevy Chase Recreation","URL":" ","ADDRESS":"5500 41ST STREET NW","REGIS_OPEN":" February 22, 2016 at 12:00pm","CAMP_TYPE":"DC DPR Camp","UPDATE_DATE":null,"X":393004,"Y":143951.28,"WARD":"Ward 3","ZIPCODE":"20015","ADDRID":264727},"geometry":{"type":"Point","coordinates":[-77.08072535501519,38.9634522604825]}},{"type":"Feature","properties":{"OBJECTID":57,"ORGANIZATION":"DPR","CAMP_NAME":"Columbia Heights","URL":" ","ADDRESS":"1480 GIRARD STREET NW","REGIS_OPEN":" February 22, 2016 at 12:00pm","CAMP_TYPE":"DC DPR Camp","UPDATE_DATE":null,"X":396956.78,"Y":139707.59,"WARD":"Ward 1","ZIPCODE":"20009","ADDRID":284045},"geometry":{"type":"Point","coordinates":[-77.0350975408508,38.92524648392043]}},{"type":"Feature","properties":{"OBJECTID":58,"ORGANIZATION":"DPR","CAMP_NAME":"Deanwood","URL":" ","ADDRESS":"1350 49TH STREET NE","REGIS_OPEN":" February 22, 2016 at 12:00pm","CAMP_TYPE":"DC DPR Camp","UPDATE_DATE":null,"X":405884.39,"Y":137844.91,"WARD":"Ward 7","ZIPCODE":"20019","ADDRID":307551},"geometry":{"type":"Point","coordinates":[-76.93215784256401,38.90845241862821]}},{"type":"Feature","properties":{"OBJECTID":59,"ORGANIZATION":"DPR","CAMP_NAME":"Emery","URL":" ","ADDRESS":"5701 GEORGIA AVENUE NW","REGIS_OPEN":" February 22, 2016 at 12:00pm","CAMP_TYPE":"DC DPR Camp","UPDATE_DATE":null,"X":397586.25,"Y":143414.65,"WARD":"Ward 4","ZIPCODE":"20011","ADDRID":309352},"geometry":{"type":"Point","coordinates":[-77.02785136290227,38.95864270895283]}},{"type":"Feature","properties":{"OBJECTID":60,"ORGANIZATION":"DPR","CAMP_NAME":"Fort Stanton","URL":" ","ADDRESS":"1800 ERIE STREET SE","REGIS_OPEN":" February 22, 2016 at 12:00pm","CAMP_TYPE":"DC DPR Camp","UPDATE_DATE":null,"X":401883.19,"Y":132207.7,"WARD":"Ward 8","ZIPCODE":"20020","ADDRID":302145},"geometry":{"type":"Point","coordinates":[-76.97830536834437,38.857687929818475]}},{"type":"Feature","properties":{"OBJECTID":61,"ORGANIZATION":"DPR","CAMP_NAME":"Hillcrest","URL":" ","ADDRESS":"3100 DENVER STREET SE","REGIS_OPEN":" February 22, 2016 at 12:00pm","CAMP_TYPE":"DC DPR Camp","UPDATE_DATE":null,"X":403243.37,"Y":132310.93,"WARD":"Ward 7","ZIPCODE":"20020","ADDRID":296174},"geometry":{"type":"Point","coordinates":[-76.96263375755142,38.85861390612158]}},{"type":"Feature","properties":{"OBJECTID":62,"ORGANIZATION":"DPR","CAMP_NAME":"Mitchell Park","URL":" ","ADDRESS":"1801 23RD STREET NW","REGIS_OPEN":" February 22, 2016 at 12:00pm","CAMP_TYPE":"DC DPR Camp","UPDATE_DATE":null,"X":395663.99,"Y":138523.68,"WARD":"Ward 2","ZIPCODE":"20008","ADDRID":279395},"geometry":{"type":"Point","coordinates":[-77.04999887241604,38.9145760076708]}},{"type":"Feature","properties":{"OBJECTID":63,"ORGANIZATION":"DPR","CAMP_NAME":"Petworth","URL":" ","ADDRESS":"801 TAYLOR STREET NW","REGIS_OPEN":" February 22, 2016 at 12:00pm","CAMP_TYPE":"DC DPR Camp","UPDATE_DATE":null,"X":397919.04,"Y":141457.96,"WARD":"Ward 4","ZIPCODE":"20011","ADDRID":296169},"geometry":{"type":"Point","coordinates":[-77.0240058013211,38.94101715675945]}},{"type":"Feature","properties":{"OBJECTID":64,"ORGANIZATION":"DPR","CAMP_NAME":"Rose Park","URL":" ","ADDRESS":"2609 DUMBARTON STREET NW","REGIS_OPEN":" February 22, 2016 at 12:00pm","CAMP_TYPE":"DC DPR Camp","UPDATE_DATE":null,"X":395225.3,"Y":137793.13,"WARD":"Ward 2","ZIPCODE":"20007","ADDRID":309353},"geometry":{"type":"Point","coordinates":[-77.05505212889905,38.907992690665694]}},{"type":"Feature","properties":{"OBJECTID":65,"ORGANIZATION":"DPR","CAMP_NAME":"Sherwood","URL":" ","ADDRESS":"640 10TH STREET NE","REGIS_OPEN":" February 22, 2016 at 12:00pm","CAMP_TYPE":"DC DPR Camp","UPDATE_DATE":null,"X":400605.76,"Y":136743.84,"WARD":"Ward 6","ZIPCODE":"20002","ADDRID":301075},"geometry":{"type":"Point","coordinates":[-76.99301910558036,38.89855307631047]}},{"type":"Feature","properties":{"OBJECTID":66,"ORGANIZATION":"DPR","CAMP_NAME":"Stoddert","URL":" ","ADDRESS":"4001 CALVERT STREET NW","REGIS_OPEN":" February 22, 2016 at 12:00pm","CAMP_TYPE":"DC DPR Camp","UPDATE_DATE":null,"X":393143.05,"Y":139466.38,"WARD":"Ward 3","ZIPCODE":"20007","ADDRID":224730},"geometry":{"type":"Point","coordinates":[-77.0790761057948,38.92305210258978]}},{"type":"Feature","properties":{"OBJECTID":67,"ORGANIZATION":"DPR","CAMP_NAME":"Takoma","URL":" ","ADDRESS":"300 VAN BUREN STREET NW","REGIS_OPEN":" February 22, 2016 at 12:00pm","CAMP_TYPE":"DC DPR Camp","UPDATE_DATE":null,"X":398435.64,"Y":144552.48,"WARD":"Ward 4","ZIPCODE":"20012","ADDRID":296168},"geometry":{"type":"Point","coordinates":[-77.0180539695569,38.96889449179711]}},{"type":"Feature","properties":{"OBJECTID":68,"ORGANIZATION":"DPR","CAMP_NAME":"Trinidad","URL":" ","ADDRESS":"1310 CHILDRESS STREET NE","REGIS_OPEN":" February 22, 2016 at 12:00pm","CAMP_TYPE":"DC DPR Camp","UPDATE_DATE":null,"X":401496.88,"Y":137620.38,"WARD":"Ward 5","ZIPCODE":"20002","ADDRID":68509},"geometry":{"type":"Point","coordinates":[-76.98274439903977,38.90644819538894]}},{"type":"Feature","properties":{"OBJECTID":69,"ORGANIZATION":"DPR","CAMP_NAME":"Turkey Thicket","URL":" ","ADDRESS":"1100 MICHIGAN AVENUE NE","REGIS_OPEN":" February 22, 2016 at 12:00pm","CAMP_TYPE":"DC DPR Camp","UPDATE_DATE":null,"X":400641.56,"Y":141130.75,"WARD":"Ward 5","ZIPCODE":"20017","ADDRID":74603},"geometry":{"type":"Point","coordinates":[-76.99260230753028,38.93807178423246]}},{"type":"Feature","properties":{"OBJECTID":70,"ORGANIZATION":"DPR","CAMP_NAME":"Volta Park","URL":" ","ADDRESS":"1555 34TH STREET NW","REGIS_OPEN":" February 22, 2016 at 12:00pm","CAMP_TYPE":"DC DPR Camp","UPDATE_DATE":null,"X":394206.11,"Y":138028.79,"WARD":"Ward 2","ZIPCODE":"20007","ADDRID":279236},"geometry":{"type":"Point","coordinates":[-77.0668048520189,38.910109468909624]}},{"type":"Feature","properties":{"OBJECTID":71,"ORGANIZATION":"DPR","CAMP_NAME":"Fort Stanton","URL":" ","ADDRESS":"1800 ERIE STREET SE","REGIS_OPEN":" February 22, 2016 at 12:00pm","CAMP_TYPE":"DC DPR Camp","UPDATE_DATE":null,"X":401883.19,"Y":132207.7,"WARD":"Ward 8","ZIPCODE":"20020","ADDRID":302145},"geometry":{"type":"Point","coordinates":[-76.97830536834437,38.857687929818475]}},{"type":"Feature","properties":{"OBJECTID":72,"ORGANIZATION":"DPR","CAMP_NAME":"Joe Cole","URL":" ","ADDRESS":"1299 NEAL STREET NE","REGIS_OPEN":" February 22, 2016 at 12:00pm","CAMP_TYPE":"DC DPR Camp","UPDATE_DATE":null,"X":400997.43,"Y":137362.43,"WARD":"Ward 5","ZIPCODE":"20002","ADDRID":294512},"geometry":{"type":"Point","coordinates":[-76.9885030510634,38.90412519953248]}},{"type":"Feature","properties":{"OBJECTID":73,"ORGANIZATION":"DPR","CAMP_NAME":"Arboretum","URL":" ","ADDRESS":"2412 RAND PLACE NE","REGIS_OPEN":" February 22, 2016 at 12:00pm","CAMP_TYPE":"DC DPR Camp","UPDATE_DATE":null,"X":402500.41,"Y":138428.3,"WARD":"Ward 5","ZIPCODE":"20002","ADDRID":296167},"geometry":{"type":"Point","coordinates":[-76.97117152271163,38.91372393474667]}},{"type":"Feature","properties":{"OBJECTID":74,"ORGANIZATION":"DPR","CAMP_NAME":"Barry Farm","URL":" ","ADDRESS":"1230 SUMNER ROAD SE","REGIS_OPEN":" February 22, 2016 at 12:00pm","CAMP_TYPE":"DC DPR Camp","UPDATE_DATE":null,"X":400320.84,"Y":132501.09,"WARD":"Ward 8","ZIPCODE":"20020","ADDRID":285960},"geometry":{"type":"Point","coordinates":[-76.99630563057333,38.86033286820143]}},{"type":"Feature","properties":{"OBJECTID":75,"ORGANIZATION":"DPR","CAMP_NAME":"Benning Park","URL":" ","ADDRESS":"5100 SOUTHERN AVENUE SE","REGIS_OPEN":" February 22, 2016 at 12:00pm","CAMP_TYPE":"DC DPR Camp","UPDATE_DATE":null,"X":406339.46,"Y":134665.37,"WARD":"Ward 7","ZIPCODE":"20019","ADDRID":296175},"geometry":{"type":"Point","coordinates":[-76.9269404244556,38.87980679198983]}},{"type":"Feature","properties":{"OBJECTID":76,"ORGANIZATION":"DPR","CAMP_NAME":"Brentwood","URL":" ","ADDRESS":"2311 14TH STREET NE","REGIS_OPEN":" February 22, 2016 at 12:00pm","CAMP_TYPE":"DC DPR Camp","UPDATE_DATE":null,"X":401481.38,"Y":139241.02,"WARD":"Ward 5","ZIPCODE":"20018","ADDRID":286825},"geometry":{"type":"Point","coordinates":[-76.98291960666006,38.921047494004576]}},{"type":"Feature","properties":{"OBJECTID":77,"ORGANIZATION":"DPR","CAMP_NAME":"Columbia Heights","URL":" ","ADDRESS":"1480 GIRARD STREET NW","REGIS_OPEN":" February 22, 2016 at 12:00pm","CAMP_TYPE":"DC DPR Camp","UPDATE_DATE":null,"X":396956.78,"Y":139707.59,"WARD":"Ward 1","ZIPCODE":"20009","ADDRID":284045},"geometry":{"type":"Point","coordinates":[-77.0350975408508,38.92524648392043]}},{"type":"Feature","properties":{"OBJECTID":78,"ORGANIZATION":"DPR","CAMP_NAME":"Ferebee Hope","URL":" ","ADDRESS":"3999 8TH STREET SE","REGIS_OPEN":" February 22, 2016 at 12:00pm","CAMP_TYPE":"DC DPR Camp","UPDATE_DATE":null,"X":400419.94,"Y":129394.95,"WARD":"Ward 8","ZIPCODE":"20032","ADDRID":294588},"geometry":{"type":"Point","coordinates":[-76.99516571575832,38.83235134195328]}},{"type":"Feature","properties":{"OBJECTID":79,"ORGANIZATION":"DPR","CAMP_NAME":"Kalorama","URL":" ","ADDRESS":"1875 COLUMBIA ROAD NW","REGIS_OPEN":" February 22, 2016 at 12:00pm","CAMP_TYPE":"DC DPR Camp","UPDATE_DATE":null,"X":396153.39,"Y":139206.86,"WARD":"Ward 1","ZIPCODE":"20009","ADDRID":284143},"geometry":{"type":"Point","coordinates":[-77.0443596493498,38.92073259725133]}},{"type":"Feature","properties":{"OBJECTID":80,"ORGANIZATION":"DPR","CAMP_NAME":"King Greenleaf","URL":" ","ADDRESS":"201 N STREET SW","REGIS_OPEN":" February 22, 2016 at 12:00pm","CAMP_TYPE":"DC DPR Camp","UPDATE_DATE":null,"X":398889.94,"Y":134131.94,"WARD":"Ward 6","ZIPCODE":"20024","ADDRID":52917},"geometry":{"type":"Point","coordinates":[-77.01279479135377,38.875023592503524]}},{"type":"Feature","properties":{"OBJECTID":81,"ORGANIZATION":"DPR","CAMP_NAME":"Langdon Park","URL":" ","ADDRESS":"2901 20TH STREET NE","REGIS_OPEN":" February 22, 2016 at 12:00pm","CAMP_TYPE":"DC DPR Camp","UPDATE_DATE":null,"X":402099.41,"Y":139883.09,"WARD":"Ward 5","ZIPCODE":"20018","ADDRID":287283},"geometry":{"type":"Point","coordinates":[-76.97579077027649,38.926830207509276]}},{"type":"Feature","properties":{"OBJECTID":82,"ORGANIZATION":"DPR","CAMP_NAME":"Marvin Gaye","URL":" ","ADDRESS":"6201 BANKS PLACE NE","REGIS_OPEN":" February 22, 2016 at 12:00pm","CAMP_TYPE":"DC DPR Camp","UPDATE_DATE":null,"X":407607.38,"Y":135995.36,"WARD":"Ward 7","ZIPCODE":"20019","ADDRID":288795},"geometry":{"type":"Point","coordinates":[-76.91231301545378,38.891777790641335]}},{"type":"Feature","properties":{"OBJECTID":83,"ORGANIZATION":"DPR","CAMP_NAME":"Rosedale","URL":" ","ADDRESS":"1701 GALES STREET NE","REGIS_OPEN":" February 22, 2016 at 12:00pm","CAMP_TYPE":"DC DPR Camp","UPDATE_DATE":null,"X":401810.05,"Y":136662.58,"WARD":"Ward 6","ZIPCODE":"20002","ADDRID":307101},"geometry":{"type":"Point","coordinates":[-76.97913631139863,38.897819402449734]}},{"type":"Feature","properties":{"OBJECTID":84,"ORGANIZATION":"DPR","CAMP_NAME":"Upshur","URL":" ","ADDRESS":"4300 ARKANSAS AVENUE NW","REGIS_OPEN":" February 22, 2016 at 12:00pm","CAMP_TYPE":"DC DPR Camp","UPDATE_DATE":null,"X":397198.6,"Y":141713.95,"WARD":"Ward 4","ZIPCODE":"20011","ADDRID":295147},"geometry":{"type":"Point","coordinates":[-77.03231699744904,38.94332118654869]}},{"type":"Feature","properties":{"OBJECTID":85,"ORGANIZATION":"DPR","CAMP_NAME":"Hearst","URL":" ","ADDRESS":"3950 37TH STREET NW","REGIS_OPEN":" February 22, 2016 at 12:00pm","CAMP_TYPE":"DC DPR Camp","UPDATE_DATE":null,"X":393761.89,"Y":141428.28,"WARD":"Ward 3","ZIPCODE":"20008","ADDRID":294586},"geometry":{"type":"Point","coordinates":[-77.07195752763505,38.9407301065553]}},{"type":"Feature","properties":{"OBJECTID":86,"ORGANIZATION":"DPR","CAMP_NAME":"Banneker","URL":" ","ADDRESS":"2500 GEORGIA AVENUE NW","REGIS_OPEN":" February 22, 2016 at 12:00pm","CAMP_TYPE":"DC DPR Camp","UPDATE_DATE":null,"X":398041.68,"Y":139425.87,"WARD":"Ward 1","ZIPCODE":"20001","ADDRID":232292},"geometry":{"type":"Point","coordinates":[-77.02258537040541,38.92271174781959]}},{"type":"Feature","properties":{"OBJECTID":87,"ORGANIZATION":"DPR","CAMP_NAME":"Barry Farm","URL":" ","ADDRESS":"1230 SUMNER ROAD SE","REGIS_OPEN":" February 22, 2016 at 12:00pm","CAMP_TYPE":"DC DPR Camp","UPDATE_DATE":null,"X":400320.84,"Y":132501.09,"WARD":"Ward 8","ZIPCODE":"20020","ADDRID":285960},"geometry":{"type":"Point","coordinates":[-76.99630563057333,38.86033286820143]}},{"type":"Feature","properties":{"OBJECTID":88,"ORGANIZATION":"DPR","CAMP_NAME":"Benning Park","URL":" ","ADDRESS":"5100 SOUTHERN AVENUE SE","REGIS_OPEN":" February 22, 2016 at 12:00pm","CAMP_TYPE":"DC DPR Camp","UPDATE_DATE":null,"X":406339.46,"Y":134665.37,"WARD":"Ward 7","ZIPCODE":"20019","ADDRID":296175},"geometry":{"type":"Point","coordinates":[-76.9269404244556,38.87980679198983]}},{"type":"Feature","properties":{"OBJECTID":89,"ORGANIZATION":"DPR","CAMP_NAME":"Chevy Chase Community","URL":" ","ADDRESS":"5601 CONNECTICUT AVENUE NW","REGIS_OPEN":" February 22, 2016 at 12:00pm","CAMP_TYPE":"DC DPR Camp","UPDATE_DATE":null,"X":393490.74,"Y":144141.13,"WARD":"Ward 3","ZIPCODE":"20015","ADDRID":263959},"geometry":{"type":"Point","coordinates":[-77.07511092995016,38.965166218868454]}},{"type":"Feature","properties":{"OBJECTID":90,"ORGANIZATION":"DPR","CAMP_NAME":"Columbia Heights","URL":" ","ADDRESS":"1480 GIRARD STREET NW","REGIS_OPEN":" February 22, 2016 at 12:00pm","CAMP_TYPE":"DC DPR Camp","UPDATE_DATE":null,"X":396956.78,"Y":139707.59,"WARD":"Ward 1","ZIPCODE":"20009","ADDRID":284045},"geometry":{"type":"Point","coordinates":[-77.0350975408508,38.92524648392043]}},{"type":"Feature","properties":{"OBJECTID":91,"ORGANIZATION":"DPR","CAMP_NAME":"Deanwood","URL":" ","ADDRESS":"1350 49TH STREET NE","REGIS_OPEN":" February 22, 2016 at 12:00pm","CAMP_TYPE":"DC DPR Camp","UPDATE_DATE":null,"X":405884.39,"Y":137844.91,"WARD":"Ward 7","ZIPCODE":"20019","ADDRID":307551},"geometry":{"type":"Point","coordinates":[-76.93215784256401,38.90845241862821]}},{"type":"Feature","properties":{"OBJECTID":92,"ORGANIZATION":"DPR","CAMP_NAME":"Emery","URL":" ","ADDRESS":"5701 GEORGIA AVENUE NW","REGIS_OPEN":" February 22, 2016 at 12:00pm","CAMP_TYPE":"DC DPR Camp","UPDATE_DATE":null,"X":397586.25,"Y":143414.65,"WARD":"Ward 4","ZIPCODE":"20011","ADDRID":309352},"geometry":{"type":"Point","coordinates":[-77.02785136290227,38.95864270895283]}},{"type":"Feature","properties":{"OBJECTID":93,"ORGANIZATION":"DPR","CAMP_NAME":"Harry Thomas","URL":" ","ADDRESS":"1743 LINCOLN ROAD NE","REGIS_OPEN":" February 22, 2016 at 12:00pm","CAMP_TYPE":"DC DPR Camp","UPDATE_DATE":null,"X":399317.62,"Y":138457.86,"WARD":"Ward 5","ZIPCODE":"20002","ADDRID":296786},"geometry":{"type":"Point","coordinates":[-77.0078704376956,38.913993511783154]}},{"type":"Feature","properties":{"OBJECTID":94,"ORGANIZATION":"DPR","CAMP_NAME":"Hillcrest","URL":" ","ADDRESS":"3100 DENVER STREET SE","REGIS_OPEN":" February 22, 2016 at 12:00pm","CAMP_TYPE":"DC DPR Camp","UPDATE_DATE":null,"X":403243.37,"Y":132310.93,"WARD":"Ward 7","ZIPCODE":"20020","ADDRID":296174},"geometry":{"type":"Point","coordinates":[-76.96263375755142,38.85861390612158]}},{"type":"Feature","properties":{"OBJECTID":95,"ORGANIZATION":"DPR","CAMP_NAME":"Joe Cole","URL":" ","ADDRESS":"1299 NEAL STREET NE","REGIS_OPEN":" February 22, 2016 at 12:00pm","CAMP_TYPE":"DC DPR Camp","UPDATE_DATE":null,"X":400997.43,"Y":137362.43,"WARD":"Ward 5","ZIPCODE":"20002","ADDRID":294512},"geometry":{"type":"Point","coordinates":[-76.9885030510634,38.90412519953248]}},{"type":"Feature","properties":{"OBJECTID":96,"ORGANIZATION":"DPR","CAMP_NAME":"Randall","URL":" ","ADDRESS":"SOUTH CAPITOL STREET AND I STREET SW","REGIS_OPEN":" February 22, 2016 at 12:00pm","CAMP_TYPE":"DC DPR Camp","UPDATE_DATE":null,"X":399214.020317,"Y":134605.879514,"WARD":" ","ZIPCODE":" ","ADDRID":900101},"geometry":{"type":"Point","coordinates":[-77.00906058028313,38.87929337691044]}},{"type":"Feature","properties":{"OBJECTID":97,"ORGANIZATION":"DPR","CAMP_NAME":"Riggs LaSalle","URL":" ","ADDRESS":"501 RIGGS ROAD NE","REGIS_OPEN":" February 22, 2016 at 12:00pm","CAMP_TYPE":"DC DPR Camp","UPDATE_DATE":null,"X":400010.18,"Y":143562.69,"WARD":"Ward 4","ZIPCODE":"20011","ADDRID":294489},"geometry":{"type":"Point","coordinates":[-76.99988483141722,38.95997960935011]}},{"type":"Feature","properties":{"OBJECTID":98,"ORGANIZATION":"DPR","CAMP_NAME":"Rosedale","URL":" ","ADDRESS":"1701 GALES STREET NE","REGIS_OPEN":" February 22, 2016 at 12:00pm","CAMP_TYPE":"DC DPR Camp","UPDATE_DATE":null,"X":401810.05,"Y":136662.58,"WARD":"Ward 6","ZIPCODE":"20002","ADDRID":307101},"geometry":{"type":"Point","coordinates":[-76.97913631139863,38.897819402449734]}},{"type":"Feature","properties":{"OBJECTID":99,"ORGANIZATION":"DPR","CAMP_NAME":"Takoma","URL":" ","ADDRESS":"300 VAN BUREN STREET NW","REGIS_OPEN":" February 22, 2016 at 12:00pm","CAMP_TYPE":"DC DPR Camp","UPDATE_DATE":null,"X":398435.64,"Y":144552.48,"WARD":"Ward 4","ZIPCODE":"20012","ADDRID":296168},"geometry":{"type":"Point","coordinates":[-77.0180539695569,38.96889449179711]}},{"type":"Feature","properties":{"OBJECTID":100,"ORGANIZATION":"DPR","CAMP_NAME":"Takoma","URL":" ","ADDRESS":"300 VAN BUREN STREET NW","REGIS_OPEN":" February 22, 2016 at 12:00pm","CAMP_TYPE":"DC DPR Camp","UPDATE_DATE":null,"X":398435.64,"Y":144552.48,"WARD":"Ward 4","ZIPCODE":"20012","ADDRID":296168},"geometry":{"type":"Point","coordinates":[-77.0180539695569,38.96889449179711]}},{"type":"Feature","properties":{"OBJECTID":101,"ORGANIZATION":"DPR","CAMP_NAME":"SETLC","URL":" ","ADDRESS":"701 MISSISSIPPI AVENUE SE","REGIS_OPEN":" February 22, 2016 at 12:00pm","CAMP_TYPE":"DC DPR Camp","UPDATE_DATE":null,"X":400473.4,"Y":130079.58,"WARD":"Ward 8","ZIPCODE":"20032","ADDRID":295830},"geometry":{"type":"Point","coordinates":[-76.99454953173286,38.83851877593187]}},{"type":"Feature","properties":{"OBJECTID":102,"ORGANIZATION":"DPR","CAMP_NAME":"Rosedale","URL":" ","ADDRESS":"500 19TH STREET NE","REGIS_OPEN":" February 22, 2016 at 12:00pm","CAMP_TYPE":"DC DPR Camp","UPDATE_DATE":null,"X":401946.87,"Y":136540.64,"WARD":"Ward 6","ZIPCODE":"20002","ADDRID":290080},"geometry":{"type":"Point","coordinates":[-76.97755941751618,38.89672063018404]}},{"type":"Feature","properties":{"OBJECTID":103,"ORGANIZATION":"DPR","CAMP_NAME":"Therapeutic Recreation","URL":" ","ADDRESS":"3030 G STREET SE","REGIS_OPEN":" February 22, 2016 at 12:00pm","CAMP_TYPE":"DC DPR Camp","UPDATE_DATE":null,"X":403192.75,"Y":134782.54,"WARD":"Ward 7","ZIPCODE":"20019","ADDRID":288770},"geometry":{"type":"Point","coordinates":[-76.96320549929074,38.88087936028152]}},{"type":"Feature","properties":{"OBJECTID":104,"ORGANIZATION":"DPR","CAMP_NAME":"Guy Mason","URL":" ","ADDRESS":"3600 CALVERT STREET NW","REGIS_OPEN":" February 22, 2016 at 12:00pm","CAMP_TYPE":"DC DPR Camp","UPDATE_DATE":null,"X":393825.91,"Y":139366.57,"WARD":"Ward 3","ZIPCODE":"20007","ADDRID":295826},"geometry":{"type":"Point","coordinates":[-77.07120052233297,38.92215804545365]}},{"type":"Feature","properties":{"OBJECTID":105,"ORGANIZATION":"DPR","CAMP_NAME":"Raymond","URL":" ","ADDRESS":"3725 10TH STREET NW","REGIS_OPEN":" February 22, 2016 at 12:00pm","CAMP_TYPE":"DC DPR Camp","UPDATE_DATE":null,"X":397662.94,"Y":140952.42,"WARD":"Ward 4","ZIPCODE":"20010","ADDRID":310493},"geometry":{"type":"Point","coordinates":[-77.02695814839882,38.936462459087316]}},{"type":"Feature","properties":{"OBJECTID":106,"ORGANIZATION":"DPR","CAMP_NAME":"Jelleff","URL":" ","ADDRESS":"3265 S STREET NW","REGIS_OPEN":" February 22, 2016 at 12:00pm","CAMP_TYPE":"DC DPR Camp","UPDATE_DATE":null,"X":394201.67,"Y":138652.15,"WARD":"Ward 2","ZIPCODE":"20007","ADDRID":273636},"geometry":{"type":"Point","coordinates":[-77.06686130866552,38.91572487645692]}},{"type":"Feature","properties":{"OBJECTID":107,"ORGANIZATION":"East of the River Career Exposure Camp","CAMP_NAME":"East of the River: Career Exposure Camp","URL":"http://eotrbrightfutures.org/","ADDRESS":"2909 PENNSYLVANIA AVENUE SE","REGIS_OPEN":"Not indicated on website","CAMP_TYPE":"Non-DC Government Camp","UPDATE_DATE":"2016-01-15T00:00:00.000Z","X":402931.43,"Y":133727.08,"WARD":"Ward 7","ZIPCODE":"20020","ADDRID":43412},"geometry":{"type":"Point","coordinates":[-76.96622174048944,38.87137226709991]}},{"type":"Feature","properties":{"OBJECTID":108,"ORGANIZATION":"EDMUND BURKE SCHOOL","CAMP_NAME":"Summer in the City at Edmund Burke School","URL":"http://www.burkeschool.org/summer","ADDRESS":"4101 CONNECTICUT AVENUE NW","REGIS_OPEN":"Open as of 2/11/16","CAMP_TYPE":"Non-DC Government Camp","UPDATE_DATE":"2016-01-15T00:00:00.000Z","X":394621.92,"Y":141600.04,"WARD":"Ward 3","ZIPCODE":"20008","ADDRID":302397},"geometry":{"type":"Point","coordinates":[-77.06203861845803,38.94228305631014]}},{"type":"Feature","properties":{"OBJECTID":109,"ORGANIZATION":"Education Plus 2","CAMP_NAME":"Health and Wellness Camp","URL":"http://www.educationplus2.com/#!summer-camp/ck4g","ADDRESS":"1830 16TH STREET NW","REGIS_OPEN":"Not indicated on website","CAMP_TYPE":"Non-DC Government Camp","UPDATE_DATE":"2016-01-15T00:00:00.000Z","X":396796.22,"Y":138564.26,"WARD":"Ward 2","ZIPCODE":"20009","ADDRID":241908},"geometry":{"type":"Point","coordinates":[-77.03694382677925,38.91494642312254]}},{"type":"Feature","properties":{"OBJECTID":110,"ORGANIZATION":"Fillmore Arts Center","CAMP_NAME":"Fillmore Arts Camp (ages 6-14)","URL":"http://fillmoreartscenter.org/","ADDRESS":"1819 35TH STREET NW","REGIS_OPEN":"Open as of 2/11/16","CAMP_TYPE":"Non-DC Government Camp","UPDATE_DATE":"2016-01-15T00:00:00.000Z","X":394049.46,"Y":138629.13,"WARD":"Ward 2","ZIPCODE":"20007","ADDRID":274432},"geometry":{"type":"Point","coordinates":[-77.06861620212666,38.91551648717705]}},{"type":"Feature","properties":{"OBJECTID":111,"ORGANIZATION":"Fort Dupont Ice Arena","CAMP_NAME":"Fort Dupont Ice Arena Summer Camps","URL":"http://www.fdia.org/","ADDRESS":"3779 ELY PLACE SE","REGIS_OPEN":"Not indicated on website","CAMP_TYPE":"Non-DC Government Camp","UPDATE_DATE":"2016-01-15T00:00:00.000Z","X":404392.71,"Y":134968.68,"WARD":"Ward 7","ZIPCODE":"20019","ADDRID":301486},"geometry":{"type":"Point","coordinates":[-76.94937464555566,38.88255100612556]}},{"type":"Feature","properties":{"OBJECTID":112,"ORGANIZATION":"FourSoccer","CAMP_NAME":"FourSoccer Camp","URL":"http://www.foursoccer.com/#!online-registration/cjg9","ADDRESS":"2118 3RD STREET NE","REGIS_OPEN":"Open as of 2/11/16","CAMP_TYPE":"Non-DC Government Camp","UPDATE_DATE":"2016-01-15T00:00:00.000Z","X":399806.28,"Y":138982.75,"WARD":"Ward 5","ZIPCODE":"20002","ADDRID":311052},"geometry":{"type":"Point","coordinates":[-77.00223611292921,38.918722139738435]}},{"type":"Feature","properties":{"OBJECTID":113,"ORGANIZATION":"French Academy DC","CAMP_NAME":"French Academy","URL":"http://frenchacademy.us/french-for-kids-and-teens/french-youth-camps/index.html","ADDRESS":"5671 WESTERN AVENUE NW","REGIS_OPEN":"Open as of 2/11/16","CAMP_TYPE":"Non-DC Government Camp","UPDATE_DATE":"2016-01-15T00:00:00.000Z","X":393224.65,"Y":144266.69,"WARD":"Ward 3","ZIPCODE":"20015","ADDRID":264763},"geometry":{"type":"Point","coordinates":[-77.0781825119746,38.96629528152476]}},{"type":"Feature","properties":{"OBJECTID":114,"ORGANIZATION":"Georgetown Day School","CAMP_NAME":"Georgetown Day School Camps and Classes","URL":"http://www.gds.org/Page/GDS-Summer-Camps-for-2015#Hopper-Camps","ADDRESS":"4530 MACARTHUR BOULEVARD NW","REGIS_OPEN":"Open as of 2/11/16","CAMP_TYPE":"Non-DC Government Camp","UPDATE_DATE":"2016-01-15T00:00:00.000Z","X":392498.57,"Y":137771.15,"WARD":"Ward 3","ZIPCODE":"20007","ADDRID":275307},"geometry":{"type":"Point","coordinates":[-77.08648967336961,38.90777564410672]}},{"type":"Feature","properties":{"OBJECTID":115,"ORGANIZATION":"Girls Inc.","CAMP_NAME":" ","URL":"http://girlsincdc.org/","ADDRESS":"2401 4TH STREET NW","REGIS_OPEN":"Not indicated on website","CAMP_TYPE":"Non-DC Government Camp","UPDATE_DATE":"2016-01-15T00:00:00.000Z","X":398445.1,"Y":139341.15,"WARD":"Ward 1","ZIPCODE":"20059","ADDRID":302629},"geometry":{"type":"Point","coordinates":[-77.01793299287475,38.92194936925213]}},{"type":"Feature","properties":{"OBJECTID":116,"ORGANIZATION":"Girls Rock DC","CAMP_NAME":"Girls Rock DC","URL":"http://www.girlsrockdc.org/","ADDRESS":"1525 NEWTON STREET NW","REGIS_OPEN":"Not indicated on website","CAMP_TYPE":"Non-DC Government Camp","UPDATE_DATE":"2016-01-15T00:00:00.000Z","X":396900.55,"Y":140622.41,"WARD":"Ward 1","ZIPCODE":"20010","ADDRID":234587},"geometry":{"type":"Point","coordinates":[-77.03575013249826,38.93348727045768]}},{"type":"Feature","properties":{"OBJECTID":117,"ORGANIZATION":"GW","CAMP_NAME":"Digital Media Academy at George Washington University","URL":"https://www.digitalmediaacademy.org/washington-dc-tech-camps/george-washington-university/","ADDRESS":"2121 I STREET NW","REGIS_OPEN":"Not indicated on website","CAMP_TYPE":"Non-DC Government Camp","UPDATE_DATE":"2016-01-15T00:00:00.000Z","X":395865.51,"Y":137012.82,"WARD":"Ward 2","ZIPCODE":"20052","ADDRID":242496},"geometry":{"type":"Point","coordinates":[-77.04766613928172,38.90096662861053]}},{"type":"Feature","properties":{"OBJECTID":118,"ORGANIZATION":"Home Run Baseball Camp","CAMP_NAME":"Home Run Baseball Camp","URL":"https://www.register.homerunbaseballcamp.com/camps/90/93","ADDRESS":"4410 MASSACHUSETTS AVENUE NW","REGIS_OPEN":"Not indicated on website","CAMP_TYPE":"Non-DC Government Camp","UPDATE_DATE":"2016-01-20T00:00:00.000Z","X":392274.1,"Y":141070.36,"WARD":"Ward 3","ZIPCODE":"20016","ADDRID":298780},"geometry":{"type":"Point","coordinates":[-77.0891148214119,38.93749403466069]}},{"type":"Feature","properties":{"OBJECTID":119,"ORGANIZATION":"Hoop Education, LLC","CAMP_NAME":"Hooped","URL":"http://www.hoopeducation.com/","ADDRESS":"9612 GLENCREST LANE","REGIS_OPEN":"Not indicated on website","CAMP_TYPE":"Non-DC Government Camp","UPDATE_DATE":"2016-01-17T00:00:00.000Z","X":393206.492,"Y":149310.579,"WARD":" ","ZIPCODE":" ","ADDRID":0},"geometry":{"type":"Point","coordinates":[-77.07844204766495,39.01173151340762]}},{"type":"Feature","properties":{"OBJECTID":120,"ORGANIZATION":"Hustle & Muscle (H&M) Mat Club ","CAMP_NAME":"Wrestling Camp (Ages 6-19)","URL":"http://www.hustlemusclematclub.org/camps","ADDRESS":"ST. ALBANS SCHOOL ACTIVITIES BUILDING","REGIS_OPEN":"Open as of 2/11/16","CAMP_TYPE":"Non-DC Government Camp","UPDATE_DATE":"2016-01-14T00:00:00.000Z","X":393908.95,"Y":140025.38,"WARD":"Ward 3","ZIPCODE":"20016","ADDRID":304769},"geometry":{"type":"Point","coordinates":[-77.07024877028242,38.92809339379586]}},{"type":"Feature","properties":{"OBJECTID":121,"ORGANIZATION":"id Tech","CAMP_NAME":"id Tech Summer Camps","URL":"https://www.idtech.com/tech-camps/","ADDRESS":"4400 MASSACHUSETTS AVENUE NW","REGIS_OPEN":"Open as of 2/11/16","CAMP_TYPE":"Non-DC Government Camp","UPDATE_DATE":"2016-01-25T00:00:00.000Z","X":392334.76,"Y":141247.38,"WARD":"Ward 3","ZIPCODE":"20016","ADDRID":223994},"geometry":{"type":"Point","coordinates":[-77.08841713128702,38.93908921390882]}},{"type":"Feature","properties":{"OBJECTID":122,"ORGANIZATION":"Imagination Stage","CAMP_NAME":"The Children's Theatre Workshop","URL":"http://www.imaginationstage.org/classesacamps/find-a-camp","ADDRESS":"4908 AUBURN AVENUE","REGIS_OPEN":"Open as of 2/11/16","CAMP_TYPE":"Non-DC Government Camp","UPDATE_DATE":"2016-01-17T00:00:00.000Z","X":391383.621,"Y":146860.522,"WARD":" ","ZIPCODE":" ","ADDRID":0},"geometry":{"type":"Point","coordinates":[-77.09945859340827,38.98964495927426]}},{"type":"Feature","properties":{"OBJECTID":123,"ORGANIZATION":"Joy of Motion","CAMP_NAME":" ","URL":"http://www.joyofmotion.org/","ADDRESS":"1333 H STREET NE","REGIS_OPEN":"Not indicated on website","CAMP_TYPE":"Non-DC Government Camp","UPDATE_DATE":"2016-01-20T00:00:00.000Z","X":401108.85,"Y":136902.33,"WARD":"Ward 6","ZIPCODE":"20002","ADDRID":286066},"geometry":{"type":"Point","coordinates":[-76.98721924780708,38.899980321082474]}},{"type":"Feature","properties":{"OBJECTID":124,"ORGANIZATION":"Kicks Are For Kids","CAMP_NAME":"Kicks are for Kids Soccer Camp","URL":"http://www.kafksoccer.com/","ADDRESS":"1500 HARVARD STREET NW","REGIS_OPEN":"Not indicated on website","CAMP_TYPE":"Non-DC Government Camp","UPDATE_DATE":"2016-01-20T00:00:00.000Z","X":396879.53,"Y":139795.45,"WARD":"Ward 1","ZIPCODE":"20009","ADDRID":294269},"geometry":{"type":"Point","coordinates":[-77.0359888086203,38.92603768372002]}},{"type":"Feature","properties":{"OBJECTID":125,"ORGANIZATION":"Kids & Culture Camp","CAMP_NAME":"Kids & Culture Camp","URL":"http://www.kidsandculture.com/","ADDRESS":"766 B PRINCETON PLACE NW","REGIS_OPEN":"Not indicated on website","CAMP_TYPE":"Non-DC Government Camp","UPDATE_DATE":"2016-01-17T00:00:00.000Z","X":397963.36,"Y":140799.69,"WARD":"Ward 1","ZIPCODE":"20010","ADDRID":299758},"geometry":{"type":"Point","coordinates":[-77.02349262357596,38.935087369231226]}},{"type":"Feature","properties":{"OBJECTID":126,"ORGANIZATION":"Kids Elite, Inc. Sports","CAMP_NAME":"Kids Elite, Inc. Sports Camp","URL":"http://www.kidselitesports.org/","ADDRESS":"3950 CHESAPEAKE STREET NW","REGIS_OPEN":"Open as of 2/11/16","CAMP_TYPE":"Non-DC Government Camp","UPDATE_DATE":"2016-01-17T00:00:00.000Z","X":393258.18,"Y":142475.96,"WARD":"Ward 3","ZIPCODE":"20016","ADDRID":294587},"geometry":{"type":"Point","coordinates":[-77.07777800669857,38.95016418103334]}},{"type":"Feature","properties":{"OBJECTID":127,"ORGANIZATION":"Levine Music","CAMP_NAME":"Levine Music & Arts Day Camp","URL":"http://www.levinemusic.org/music-a-arts-day-camp","ADDRESS":"2801 UPTON STREET NW","REGIS_OPEN":"Not indicated on website","CAMP_TYPE":"Non-DC Government Camp","UPDATE_DATE":"2016-01-29T00:00:00.000Z","X":395100.4,"Y":141683.48,"WARD":"Ward 3","ZIPCODE":"20008","ADDRID":223094},"geometry":{"type":"Point","coordinates":[-77.05651993309354,38.94303750681614]}},{"type":"Feature","properties":{"OBJECTID":128,"ORGANIZATION":"Little Loft","CAMP_NAME":" ","URL":"http://www.littleloftstudios.com/dc/home","ADDRESS":"511 11TH STREET SE","REGIS_OPEN":"Open as of 2/11/16","CAMP_TYPE":"Non-DC Government Camp","UPDATE_DATE":"2016-01-17T00:00:00.000Z","X":400714.56,"Y":134940.76,"WARD":"Ward 6","ZIPCODE":"20003","ADDRID":150924},"geometry":{"type":"Point","coordinates":[-76.99176673758404,38.88231017288423]}},{"type":"Feature","properties":{"OBJECTID":129,"ORGANIZATION":"Little Red Playschool","CAMP_NAME":"Little Red Playschool Summer Camp","URL":"http://www.littleredplayschool.com/#!camp-and-classes","ADDRESS":"5013 SHERIER PLACE NW","REGIS_OPEN":"To register email:  barbara.elsas@gmail.com","CAMP_TYPE":"Non-DC Government Camp","UPDATE_DATE":"2016-01-17T00:00:00.000Z","X":391206.7,"Y":139543.57,"WARD":"Ward 3","ZIPCODE":"20016","ADDRID":268347},"geometry":{"type":"Point","coordinates":[-77.10140691778494,38.9237302110178]}},{"type":"Feature","properties":{"OBJECTID":130,"ORGANIZATION":"Lola's Laboratory","CAMP_NAME":"Lola's Lab Summer Camp at the National Theater","URL":"http://www.lolaslab.com/#!2016-Spring-Break-Camp-and-Summer-Camps/cuqq/ihvybl4j30","ADDRESS":"307 SOUTH IVY STREET","REGIS_OPEN":"Open as of 2/11/16","CAMP_TYPE":"Non-DC Government Camp","UPDATE_DATE":"2016-01-20T00:00:00.000Z","X":391948.065,"Y":133400.688,"WARD":" ","ZIPCODE":" ","ADDRID":0},"geometry":{"type":"Point","coordinates":[-77.09278547456954,38.86840001477112]}},{"type":"Feature","properties":{"OBJECTID":131,"ORGANIZATION":"Lowell School","CAMP_NAME":"Summer Camp","URL":"http://www.lowellschool.org/Page/Camp-Overview","ADDRESS":"1640 KALMIA ROAD NW","REGIS_OPEN":"Open as of 2/11/16","CAMP_TYPE":"Non-DC Government Camp","UPDATE_DATE":"2016-01-20T00:00:00.000Z","X":396672.58,"Y":146320.89,"WARD":"Ward 4","ZIPCODE":"20012","ADDRID":302442},"geometry":{"type":"Point","coordinates":[-77.0384071022827,38.98481982006677]}},{"type":"Feature","properties":{"OBJECTID":132,"ORGANIZATION":"Lowell School","CAMP_NAME":"Summer Stage","URL":"http://www.lowellschool.org/Page/Summer-Stage","ADDRESS":"1640 KALMIA ROAD NW","REGIS_OPEN":"Open as of 2/11/16","CAMP_TYPE":"Non-DC Government Camp","UPDATE_DATE":"2016-01-20T00:00:00.000Z","X":396672.58,"Y":146320.89,"WARD":"Ward 4","ZIPCODE":"20012","ADDRID":302442},"geometry":{"type":"Point","coordinates":[-77.0384071022827,38.98481982006677]}},{"type":"Feature","properties":{"OBJECTID":133,"ORGANIZATION":"Mad Science","CAMP_NAME":"Mad Science Washington","URL":"http://dc.madscience.org/camplocations.aspx","ADDRESS":"4755 WHITEHAVEN PARKWAY NW","REGIS_OPEN":"Open as of 2/11/16","CAMP_TYPE":"Non-DC Government Camp","UPDATE_DATE":"2016-01-20T00:00:00.000Z","X":391807.69,"Y":138686.13,"WARD":"Ward 3","ZIPCODE":"20007","ADDRID":301551},"geometry":{"type":"Point","coordinates":[-77.0944660534963,38.916011923267334]}},{"type":"Feature","properties":{"OBJECTID":134,"ORGANIZATION":"National Building Museum","CAMP_NAME":"National Building Museum Summer Camp","URL":"http://www.nbm.org/families-kids/summer-camp.html","ADDRESS":"401 F STREET NW","REGIS_OPEN":"Open as of 2/11/16","CAMP_TYPE":"Non-DC Government Camp","UPDATE_DATE":"2016-01-21T00:00:00.000Z","X":398477.49,"Y":136656.21,"WARD":"Ward 2","ZIPCODE":"20001","ADDRID":242924},"geometry":{"type":"Point","coordinates":[-77.01755352543518,38.89776256277635]}},{"type":"Feature","properties":{"OBJECTID":135,"ORGANIZATION":"National Park Service","CAMP_NAME":"Junior Ranger Camp","URL":"http://home.nps.gov/rocr/forkids/index.htm","ADDRESS":"3545 WILLIAMSBURG LANE NW","REGIS_OPEN":"\"Late Spring\"","CAMP_TYPE":"Non-DC Government Camp","UPDATE_DATE":"2016-01-29T00:00:00.000Z","X":395666.13,"Y":140898.22,"WARD":"Ward 3","ZIPCODE":"20008","ADDRID":293240},"geometry":{"type":"Point","coordinates":[-77.04998919069465,38.93596662784524]}},{"type":"Feature","properties":{"OBJECTID":136,"ORGANIZATION":"Nationals Youth Baseball Academy","CAMP_NAME":"Washington Nationals Summer Academy","URL":"http://mlb.mlb.com/was/youthbaseballacademy/enroll.jsp","ADDRESS":"1500 SOUTH CAPITOL STREET SE","REGIS_OPEN":"Open as of 2/11/16","CAMP_TYPE":"Non-DC Government Camp","UPDATE_DATE":"2016-01-20T00:00:00.000Z","X":399260.07,"Y":133837.02,"WARD":"Ward 6","ZIPCODE":"20003","ADDRID":303109},"geometry":{"type":"Point","coordinates":[-77.00852903633128,38.872367224165124]}},{"type":"Feature","properties":{"OBJECTID":137,"ORGANIZATION":"Northeast Performing Arts Group","CAMP_NAME":"Summer Arts Camp","URL":"http://neperformingartsgroup.weebly.com/summer-arts-camp.html","ADDRESS":"3431 BENNING ROAD NE","REGIS_OPEN":"Open as of 2/11/16","CAMP_TYPE":"Non-DC Government Camp","UPDATE_DATE":"2016-01-25T00:00:00.000Z","X":403771.79,"Y":136461.81,"WARD":"Ward 7","ZIPCODE":"20019","ADDRID":287893},"geometry":{"type":"Point","coordinates":[-76.9565227856647,38.896004565744235]}},{"type":"Feature","properties":{"OBJECTID":138,"ORGANIZATION":"Ohev Sholom - The National Synagogue","CAMP_NAME":"Camp Kibbutz","URL":"http://ostns.org/camp_about.php","ADDRESS":"1600 JONQUIL STREET NW","REGIS_OPEN":"Open as of 2/11/16","CAMP_TYPE":"Non-DC Government Camp","UPDATE_DATE":"2016-01-20T00:00:00.000Z","X":396800.1,"Y":146241.81,"WARD":"Ward 4","ZIPCODE":"20012","ADDRID":256412},"geometry":{"type":"Point","coordinates":[-77.03693490757148,38.98410792460548]}},{"type":"Feature","properties":{"OBJECTID":139,"ORGANIZATION":"RDUTennis, LLC","CAMP_NAME":"RDUTennis at American University","URL":"http://rdutennis.net/locations/sandhills/american-university/","ADDRESS":"125 MICHIGAN AVENUE NE","REGIS_OPEN":"Website is down","CAMP_TYPE":"Non-DC Government Camp","UPDATE_DATE":"2016-01-20T00:00:00.000Z","X":399628.64,"Y":139955.63,"WARD":"Ward 5","ZIPCODE":"20017","ADDRID":285983},"geometry":{"type":"Point","coordinates":[-77.00428504597872,38.92748609911532]}},{"type":"Feature","properties":{"OBJECTID":140,"ORGANIZATION":"Rock Creek Park Horse Center","CAMP_NAME":"Rock Creek Park Horse Camps","URL":"http://www.rockcreekhorsecenter.com/summer_camp.htm","ADDRESS":"5100 GLOVER ROAD NW","REGIS_OPEN":"Open as of 2/11/16","CAMP_TYPE":"Non-DC Government Camp","UPDATE_DATE":"2016-01-01T00:00:00.000Z","X":395588.83,"Y":143353.29,"WARD":"Ward 3","ZIPCODE":"20015","ADDRID":307497},"geometry":{"type":"Point","coordinates":[-77.05089655783104,38.95808220092447]}},{"type":"Feature","properties":{"OBJECTID":141,"ORGANIZATION":"Seaward Academy","CAMP_NAME":"Seaward Academy","URL":"http://seawardacademy.webs.com/seawardsummerschedule.htm","ADDRESS":"5304 C STREET SE","REGIS_OPEN":"Not indicated on website","CAMP_TYPE":"Non-DC Government Camp","UPDATE_DATE":"2016-01-20T00:00:00.000Z","X":406436.11,"Y":135223.91,"WARD":"Ward 7","ZIPCODE":"20019","ADDRID":310848},"geometry":{"type":"Point","coordinates":[-76.92582130957074,38.884837633481766]}},{"type":"Feature","properties":{"OBJECTID":142,"ORGANIZATION":"Shakespeare Theatre Company","CAMP_NAME":"Camp Shakespeare","URL":"http://www.shakespearetheatre.org/info/education/expand-your-knowledge/camp-shakespeare","ADDRESS":"516 8TH STREET SE","REGIS_OPEN":"Not indicated on website","CAMP_TYPE":"Non-DC Government Camp","UPDATE_DATE":"2016-01-20T00:00:00.000Z","X":400467.8,"Y":134917.26,"WARD":"Ward 6","ZIPCODE":"20003","ADDRID":12249},"geometry":{"type":"Point","coordinates":[-76.99461074574059,38.88209864155978]}},{"type":"Feature","properties":{"OBJECTID":143,"ORGANIZATION":"Sidwell","CAMP_NAME":"Sidwell Summer","URL":"http://www.sidwellsummer.org/","ADDRESS":"3825 WISCONSIN AVENUE NW","REGIS_OPEN":"Website is down","CAMP_TYPE":"Non-DC Government Camp","UPDATE_DATE":"2016-01-20T00:00:00.000Z","X":393586.23,"Y":141276.61,"WARD":"Ward 3","ZIPCODE":"20016","ADDRID":293241},"geometry":{"type":"Point","coordinates":[-77.07398230878256,38.939362554222086]}},{"type":"Feature","properties":{"OBJECTID":144,"ORGANIZATION":"Sitar Arts Center","CAMP_NAME":"Sitar Arts Center","URL":"http://www.sitarartscenter.org/programs/summer-sitar/","ADDRESS":"1700 KALORAMA ROAD NW","REGIS_OPEN":" February 22, 2016","CAMP_TYPE":"Non-DC Government Camp","UPDATE_DATE":"2016-01-20T00:00:00.000Z","X":396607.47,"Y":139227.85,"WARD":"Ward 1","ZIPCODE":"20009","ADDRID":218407},"geometry":{"type":"Point","coordinates":[-77.03912350884809,38.920923552466306]}},{"type":"Feature","properties":{"OBJECTID":145,"ORGANIZATION":"Smithsonian","CAMP_NAME":"Smithsonian Summer Camp","URL":"https://smithsonianassociates.org/camp/default.aspx","ADDRESS":"1100 JEFFERSON DRIVE SW","REGIS_OPEN":"Open as of 2/11/16","CAMP_TYPE":"Non-DC Government Camp","UPDATE_DATE":"2016-01-20T00:00:00.000Z","X":397668.39,"Y":135635.51,"WARD":"Ward 2","ZIPCODE":"20004","ADDRID":308882},"geometry":{"type":"Point","coordinates":[-77.0268772306523,38.88856594461495]}},{"type":"Feature","properties":{"OBJECTID":146,"ORGANIZATION":"Spy Museum","CAMP_NAME":"Spy Camp","URL":"http://www.spymuseum.org/education-programs/kids-families/spy-camp/","ADDRESS":"800 F STREET NW","REGIS_OPEN":"Open as of 2/11/16","CAMP_TYPE":"Non-DC Government Camp","UPDATE_DATE":"2016-01-20T00:00:00.000Z","X":397980.18,"Y":136570.17,"WARD":"Ward 2","ZIPCODE":"20004","ADDRID":238378},"geometry":{"type":"Point","coordinates":[-77.02328617914921,38.896986480914016]}},{"type":"Feature","properties":{"OBJECTID":147,"ORGANIZATION":"St. Albans School","CAMP_NAME":"St. Albans School","URL":"http://summer.stalbansschool.org/Page/Home","ADDRESS":"ST. ALBANS SCHOOL","REGIS_OPEN":"Open as of 2/11/16","CAMP_TYPE":"Non-DC Government Camp","UPDATE_DATE":"2016-01-20T00:00:00.000Z","X":393770.87,"Y":140062.49,"WARD":"Ward 3","ZIPCODE":"20016","ADDRID":302446},"geometry":{"type":"Point","coordinates":[-77.07184154694126,38.92842672414571]}},{"type":"Feature","properties":{"OBJECTID":148,"ORGANIZATION":"Stoddert’s Summer Cam","CAMP_NAME":"Stoddert Summer Camp","URL":"http://www.stoddert.org/summer-camp/","ADDRESS":"4001 CALVERT STREET NW","REGIS_OPEN":"Not indicated on website","CAMP_TYPE":"Non-DC Government Camp","UPDATE_DATE":"2016-01-20T00:00:00.000Z","X":393143.05,"Y":139466.38,"WARD":"Ward 3","ZIPCODE":"20007","ADDRID":224730},"geometry":{"type":"Point","coordinates":[-77.0790761057948,38.92305210258978]}},{"type":"Feature","properties":{"OBJECTID":149,"ORGANIZATION":"Studio Theatre","CAMP_NAME":"Summer Intensive","URL":"https://www.studiotheatre.org/acting-conservatory/young-actors","ADDRESS":"1501 14TH STREET NW","REGIS_OPEN":"Open as of 2/11/16","CAMP_TYPE":"Non-DC Government Camp","UPDATE_DATE":"2016-01-29T00:00:00.000Z","X":397254.04,"Y":138019.34,"WARD":"Ward 2","ZIPCODE":"20005","ADDRID":225563},"geometry":{"type":"Point","coordinates":[-77.03166270326518,38.91003914871169]}},{"type":"Feature","properties":{"OBJECTID":150,"ORGANIZATION":"Sugarfoots ","CAMP_NAME":"Sugarfoots Performing Arts Camp","URL":"http://sugarfoots.com/camp/","ADDRESS":"5738 7TH STREET NW","REGIS_OPEN":"Open as of 2/11/16","CAMP_TYPE":"Non-DC Government Camp","UPDATE_DATE":"2016-01-29T00:00:00.000Z","X":398033.23,"Y":143566.07,"WARD":"Ward 4","ZIPCODE":"20011","ADDRID":250374},"geometry":{"type":"Point","coordinates":[-77.02269468516633,38.96000785441397]}},{"type":"Feature","properties":{"OBJECTID":151,"ORGANIZATION":"The Art League","CAMP_NAME":"Art Camp","URL":"http://www.theartleague.org/content/art_camp","ADDRESS":"105 N. UNION STREET, ROOM 217","REGIS_OPEN":"Open as of 2/11/16","CAMP_TYPE":"Non-DC Government Camp","UPDATE_DATE":"2016-01-29T00:00:00.000Z","X":396541.704,"Y":126337.926,"WARD":" ","ZIPCODE":" ","ADDRID":0},"geometry":{"type":"Point","coordinates":[-77.03981705874568,38.80480549958666]}},{"type":"Feature","properties":{"OBJECTID":152,"ORGANIZATION":"The Kingsbury Day School","CAMP_NAME":"SUMMER STEAM/ESY PROGRAM","URL":"http://www.kingsbury.org/day-school/summercamps.cfm","ADDRESS":"5000 14TH STREET NW","REGIS_OPEN":"Open as of 2/11/16","CAMP_TYPE":"Non-DC Government Camp","UPDATE_DATE":"2016-01-17T00:00:00.000Z","X":397047.31,"Y":142564.4,"WARD":"Ward 4","ZIPCODE":"20011","ADDRID":255780},"geometry":{"type":"Point","coordinates":[-77.03406581883448,38.95098178320185]}},{"type":"Feature","properties":{"OBJECTID":153,"ORGANIZATION":"The Theatre Lab School of the Dramatic Arts","CAMP_NAME":" ","URL":"http://www.theatrelab.org/?q=content/summer-camps","ADDRESS":"733 8TH STREET NW","REGIS_OPEN":"Open as of 2/11/16","CAMP_TYPE":"Non-DC Government Camp","UPDATE_DATE":"2016-01-29T00:00:00.000Z","X":398031.33,"Y":136820.48,"WARD":"Ward 2","ZIPCODE":"20001","ADDRID":302138},"geometry":{"type":"Point","coordinates":[-77.02269725438731,38.899241480328534]}},{"type":"Feature","properties":{"OBJECTID":154,"ORGANIZATION":"THEARC","CAMP_NAME":"THEARC","URL":"http://www.thearcdc.org/news/summer-camps-activites-catalouge-thearc","ADDRESS":"1901 MISSISSIPPI AVENUE SE","REGIS_OPEN":"Not indicated on website","CAMP_TYPE":"Non-DC Government Camp","UPDATE_DATE":"2016-01-25T00:00:00.000Z","X":402142.37,"Y":130640.01,"WARD":"Ward 8","ZIPCODE":"20020","ADDRID":295845},"geometry":{"type":"Point","coordinates":[-76.9753241438703,38.84356490138586]}},{"type":"Feature","properties":{"OBJECTID":155,"ORGANIZATION":"Washington Performing Arts","CAMP_NAME":"Washington Performing Arts","URL":"http://www.washingtonperformingarts.org/education/kids/spaa/index.aspx","ADDRESS":"2000 L STREET NW","REGIS_OPEN":"Open as of 2/11/16","CAMP_TYPE":"Non-DC Government Camp","UPDATE_DATE":"2016-01-25T00:00:00.000Z","X":396028.64,"Y":137284.56,"WARD":"Ward 2","ZIPCODE":"20036","ADDRID":243349},"geometry":{"type":"Point","coordinates":[-77.04578709088626,38.90341531137656]}},{"type":"Feature","properties":{"OBJECTID":156,"ORGANIZATION":"Waterfront Academy","CAMP_NAME":"Waterfront Academy","URL":"http://www.waterfrontacademy.org/","ADDRESS":"60 I STREET SW","REGIS_OPEN":"Open as of 2/11/16","CAMP_TYPE":"Non-DC Government Camp","UPDATE_DATE":"2016-01-25T00:00:00.000Z","X":399026.13,"Y":134575.9,"WARD":"Ward 6","ZIPCODE":"20024","ADDRID":276677},"geometry":{"type":"Point","coordinates":[-77.01122594525876,38.87902312167882]}},{"type":"Feature","properties":{"OBJECTID":157,"ORGANIZATION":"Writopia Lab","CAMP_NAME":"Fiction and Fun Full-day CAmp","URL":"http://www.writopialab.org/dc-summer-full-day.html","ADDRESS":"4000 ALBEMARLE STREET NW","REGIS_OPEN":"Open as of 2/11/16","CAMP_TYPE":"Non-DC Government Camp","UPDATE_DATE":"2016-01-21T00:00:00.000Z","X":393164.44,"Y":142208.91,"WARD":"Ward 3","ZIPCODE":"20016","ADDRID":299723},"geometry":{"type":"Point","coordinates":[-77.07885675849035,38.947757796807664]}},{"type":"Feature","properties":{"OBJECTID":158,"ORGANIZATION":"Writopia Lab","CAMP_NAME":"Summer Half-Day Workshops","URL":"http://www.writopialab.org/dc-summer-schedule-2013.html","ADDRESS":"4000 ALBEMARLE STREET NW","REGIS_OPEN":"Open as of 2/11/16","CAMP_TYPE":"Non-DC Government Camp","UPDATE_DATE":"2016-01-21T00:00:00.000Z","X":393164.44,"Y":142208.91,"WARD":"Ward 3","ZIPCODE":"20016","ADDRID":299723},"geometry":{"type":"Point","coordinates":[-77.07885675849035,38.947757796807664]}},{"type":"Feature","properties":{"OBJECTID":159,"ORGANIZATION":"YMCA of Metropolitan Washington","CAMP_NAME":"YMCA of Metropolitan Washington day and overnight camps","URL":"http://ymcadc.org/index.cfm","ADDRESS":"1112 16TH STREET NW","REGIS_OPEN":"Open as of 2/11/16","CAMP_TYPE":"Non-DC Government Camp","UPDATE_DATE":"2016-01-25T00:00:00.000Z","X":396794.31,"Y":137378.28,"WARD":"Ward 2","ZIPCODE":"20036","ADDRID":242024},"geometry":{"type":"Point","coordinates":[-77.03696031325767,38.90426270043697]}}]}