{
"type": "FeatureCollection",
"crs": { "type": "name", "properties": { "name": "urn:ogc:def:crs:OGC:1.3:CRS84" } },
                                                                                
"features": [
{ "type": "Feature", "properties": { "OBJECTID": 1, "NAME": "Taft Junior High School", "ADDRESS": "1800 Perry Street NE", "FACUSE": "Special Education", "BLDG_NUM": 429, "WEB_URL": "http:\/\/www.k12.dc.us\/dcps\/schools\/results1.cfm?school_id=473", "LEVEL_": "SE", "STATUS": "Swing", "HIST": "H", "GIS_ID": "Dcps_429" }, "geometry": { "type": "Point", "coordinates": [ -76.978794136053281, 38.936991216156194 ] } },
{ "type": "Feature", "properties": { "OBJECTID": 2, "NAME": "Terrell Junior High School", "ADDRESS": "1000 1st Street, N.W.", "FACUSE": "Junior High School", "BLDG_NUM": 430, "WEB_URL": "http:\/\/www.k12.dc.us\/dcps\/schools\/results1.cfm?school_id=430", "LEVEL_": "JHS", "STATUS": "Active", "HIST": null, "GIS_ID": "Dcps_430" }, "geometry": { "type": "Point", "coordinates": [ -77.012465740252978, 38.904398206007826 ] } },
{ "type": "Feature", "properties": { "OBJECTID": 3, "NAME": "Evans Middle School", "ADDRESS": "5600 East Capitol Street, N.E", "FACUSE": "Middle School", "BLDG_NUM": 408, "WEB_URL": "http:\/\/www.k12.dc.us\/dcps\/schools\/results1.cfm?school_id=408", "LEVEL_": "MS", "STATUS": "Active", "HIST": null, "GIS_ID": "Dcps_408" }, "geometry": { "type": "Point", "coordinates": [ -76.920866991815004, 38.890410841612436 ] } },
{ "type": "Feature", "properties": { "OBJECTID": 4, "NAME": "Kramer Middle School", "ADDRESS": "1700 Q Street, S.E.", "FACUSE": "Middle School", "BLDG_NUM": 417, "WEB_URL": "http:\/\/www.k12.dc.us\/dcps\/schools\/results1.cfm?school_id=417", "LEVEL_": "MS", "STATUS": "Active", "HIST": "H", "GIS_ID": "Dcps_417" }, "geometry": { "type": "Point", "coordinates": [ -76.980197331979767, 38.871474781748219 ] } },
{ "type": "Feature", "properties": { "OBJECTID": 5, "NAME": "Douglas Special Education School", "ADDRESS": "2600 Douglass Road, S.E.", "FACUSE": "NOT USED", "BLDG_NUM": 406, "WEB_URL": " ", "LEVEL_": "Swing", "STATUS": "Swing", "HIST": null, "GIS_ID": "Dcps_406" }, "geometry": { "type": "Point", "coordinates": [ -76.988849943257108, 38.856211310062804 ] } },
{ "type": "Feature", "properties": { "OBJECTID": 6, "NAME": "LaSalle Elementary School", "ADDRESS": "501 Riggs Road, N.E.", "FACUSE": "Elementary School", "BLDG_NUM": 264, "WEB_URL": "http:\/\/www.k12.dc.us\/dcps\/schools\/results1.cfm?school_id=264", "LEVEL_": "ES", "STATUS": "Active", "HIST": null, "GIS_ID": "Dcps_264" }, "geometry": { "type": "Point", "coordinates": [ -76.999679163190507, 38.959857141693377 ] } },
{ "type": "Feature", "properties": { "OBJECTID": 7, "NAME": "Noyes Elementary School", "ADDRESS": "2725 10th Street, N.E.", "FACUSE": "Elementary School", "BLDG_NUM": 290, "WEB_URL": "http:\/\/www.k12.dc.us\/dcps\/schools\/results1.cfm?school_id=290", "LEVEL_": "ES", "STATUS": "Active", "HIST": "H", "GIS_ID": "Dcps_290" }, "geometry": { "type": "Point", "coordinates": [ -76.991930426840796, 38.925116982191405 ] } },
{ "type": "Feature", "properties": { "OBJECTID": 8, "NAME": "Cooke, H.D. Elementary School", "ADDRESS": "2525 17th Street, N.W.", "FACUSE": "Elementary School", "BLDG_NUM": 227, "WEB_URL": "http:\/\/www.k12.dc.us\/dcps\/schools\/results1.cfm?school_id=227", "LEVEL_": "ES", "STATUS": "Active", "HIST": "H", "GIS_ID": "Dcps_227" }, "geometry": { "type": "Point", "coordinates": [ -77.038852086164582, 38.924017065509695 ] } },
{ "type": "Feature", "properties": { "OBJECTID": 9, "NAME": "Walker-Jones Elementary School", "ADDRESS": "100 L Street, N.W.", "FACUSE": "Elementary School", "BLDG_NUM": 332, "WEB_URL": "http:\/\/www.k12.dc.us\/dcps\/schools\/results1.cfm?school_id=332", "LEVEL_": "ES", "STATUS": "Active", "HIST": "H", "GIS_ID": "Dcps_332" }, "geometry": { "type": "Point", "coordinates": [ -77.012321797785759, 38.904174435764176 ] } },
{ "type": "Feature", "properties": { "OBJECTID": 10, "NAME": "Davis Elementary School", "ADDRESS": "4430 H Street, S.E.", "FACUSE": "Elementary School", "BLDG_NUM": 229, "WEB_URL": "http:\/\/www.k12.dc.us\/dcps\/schools\/results1.cfm?school_id=229", "LEVEL_": "ES", "STATUS": "Active", "HIST": "H", "GIS_ID": "Dcps_229" }, "geometry": { "type": "Point", "coordinates": [ -76.937619151292154, 38.879235806928882 ] } },
{ "type": "Feature", "properties": { "OBJECTID": 11, "NAME": "Stanton Elementary School", "ADDRESS": "2701 Naylor Road, S.E.", "FACUSE": "Elementary School", "BLDG_NUM": 319, "WEB_URL": "http:\/\/www.k12.dc.us\/dcps\/schools\/results1.cfm?school_id=319", "LEVEL_": "ES", "STATUS": "Active", "HIST": "H", "GIS_ID": "Dcps_319" }, "geometry": { "type": "Point", "coordinates": [ -76.96862593160526, 38.86012760784655 ] } },
{ "type": "Feature", "properties": { "OBJECTID": 12, "NAME": "Wilkinson Elementary School", "ADDRESS": "2330 Pomeroy Road, S.E.", "FACUSE": "Elementary School", "BLDG_NUM": 354, "WEB_URL": "http:\/\/www.k12.dc.us\/dcps\/schools\/results1.cfm?school_id=354", "LEVEL_": "ES", "STATUS": "Active", "HIST": null, "GIS_ID": "Dcps_354" }, "geometry": { "type": "Point", "coordinates": [ -76.985484081729467, 38.856721168512031 ] } },
{ "type": "Feature", "properties": { "OBJECTID": 13, "NAME": "Turner Elementary School", "ADDRESS": "3264 Stanton Road, S.E.", "FACUSE": "Elementary School", "BLDG_NUM": 329, "WEB_URL": "http:\/\/www.k12.dc.us\/dcps\/schools\/results1.cfm?school_id=329", "LEVEL_": "ES", "STATUS": "Active", "HIST": "H", "GIS_ID": "Dcps_329" }, "geometry": { "type": "Point", "coordinates": [ -76.980369181120238, 38.848272122000544 ] } },
{ "type": "Feature", "properties": { "OBJECTID": 14, "NAME": "Simon Elementary School", "ADDRESS": "401 Mississippi Avenue, S.E.", "FACUSE": "Elementary School", "BLDG_NUM": 315, "WEB_URL": "http:\/\/www.k12.dc.us\/dcps\/schools\/results1.cfm?school_id=315", "LEVEL_": "ES", "STATUS": "Active", "HIST": "H", "GIS_ID": "Dcps_315" }, "geometry": { "type": "Point", "coordinates": [ -77.000063951979314, 38.835945763692209 ] } },
{ "type": "Feature", "properties": { "OBJECTID": 15, "NAME": "Phelps Senior High School", "ADDRESS": "704 26th Street, N.E.", "FACUSE": "Senior High School", "BLDG_NUM": 478, "WEB_URL": "http:\/\/www.k12.dc.us\/dcps\/schools\/results1.cfm?school_id=478", "LEVEL_": "SHS", "STATUS": "Active", "HIST": "H", "GIS_ID": "Dcps_478" }, "geometry": { "type": "Point", "coordinates": [ -76.972205735580928, 38.902011225068719 ] } }
]
}
