{"type":"FeatureCollection","features":[{"type":"Feature","properties":{"OBJECTID":1,"NAME":"Taft Junior High School","ADDRESS":"1800 Perry Street NE","FACUSE":"Special Education","BLDG_NUM":429,"WEB_URL":"http://www.k12.dc.us/dcps/schools/results1.cfm?school_id=473","LEVEL_":"SE","STATUS":"Swing","HIST":"H","GIS_ID":"Dcps_429"},"geometry":{"type":"Point","coordinates":[-76.97879413605328,38.936991216156194]}},{"type":"Feature","properties":{"OBJECTID":2,"NAME":"Terrell Junior High School","ADDRESS":"1000 1st Street, N.W.","FACUSE":"Junior High School","BLDG_NUM":430,"WEB_URL":"http://www.k12.dc.us/dcps/schools/results1.cfm?school_id=430","LEVEL_":"JHS","STATUS":"Active","HIST":null,"GIS_ID":"Dcps_430"},"geometry":{"type":"Point","coordinates":[-77.01246574025298,38.904398206007826]}},{"type":"Feature","properties":{"OBJECTID":3,"NAME":"Evans Middle School","ADDRESS":"5600 East Capitol Street, N.E","FACUSE":"Middle School","BLDG_NUM":408,"WEB_URL":"http://www.k12.dc.us/dcps/schools/results1.cfm?school_id=408","LEVEL_":"MS","STATUS":"Active","HIST":null,"GIS_ID":"Dcps_408"},"geometry":{"type":"Point","coordinates":[-76.920866991815,38.890410841612436]}},{"type":"Feature","properties":{"OBJECTID":4,"NAME":"Kramer Middle School","ADDRESS":"1700 Q Street, S.E.","FACUSE":"Middle School","BLDG_NUM":417,"WEB_URL":"http://www.k12.dc.us/dcps/schools/results1.cfm?school_id=417","LEVEL_":"MS","STATUS":"Active","HIST":"H","GIS_ID":"Dcps_417"},"geometry":{"type":"Point","coordinates":[-76.98019733197977,38.87147478174822]}},{"type":"Feature","properties":{"OBJECTID":5,"NAME":"Douglas Special Education School","ADDRESS":"2600 Douglass Road, S.E.","FACUSE":"NOT USED","BLDG_NUM":406,"WEB_URL":" ","LEVEL_":"Swing","STATUS":"Swing","HIST":null,"GIS_ID":"Dcps_406"},"geometry":{"type":"Point","coordinates":[-76.98884994325711,38.856211310062804]}},{"type":"Feature","properties":{"OBJECTID":6,"NAME":"LaSalle Elementary School","ADDRESS":"501 Riggs Road, N.E.","FACUSE":"Elementary School","BLDG_NUM":264,"WEB_URL":"http://www.k12.dc.us/dcps/schools/results1.cfm?school_id=264","LEVEL_":"ES","STATUS":"Active","HIST":null,"GIS_ID":"Dcps_264"},"geometry":{"type":"Point","coordinates":[-76.9996791631905,38.95985714169338]}},{"type":"Feature","properties":{"OBJECTID":7,"NAME":"Noyes Elementary School","ADDRESS":"2725 10th Street, N.E.","FACUSE":"Elementary School","BLDG_NUM":290,"WEB_URL":"http://www.k12.dc.us/dcps/schools/results1.cfm?school_id=290","LEVEL_":"ES","STATUS":"Active","HIST":"H","GIS_ID":"Dcps_290"},"geometry":{"type":"Point","coordinates":[-76.9919304268408,38.925116982191405]}},{"type":"Feature","properties":{"OBJECTID":8,"NAME":"Cooke, H.D. Elementary School","ADDRESS":"2525 17th Street, N.W.","FACUSE":"Elementary School","BLDG_NUM":227,"WEB_URL":"http://www.k12.dc.us/dcps/schools/results1.cfm?school_id=227","LEVEL_":"ES","STATUS":"Active","HIST":"H","GIS_ID":"Dcps_227"},"geometry":{"type":"Point","coordinates":[-77.03885208616458,38.924017065509695]}},{"type":"Feature","properties":{"OBJECTID":9,"NAME":"Walker-Jones Elementary School","ADDRESS":"100 L Street, N.W.","FACUSE":"Elementary School","BLDG_NUM":332,"WEB_URL":"http://www.k12.dc.us/dcps/schools/results1.cfm?school_id=332","LEVEL_":"ES","STATUS":"Active","HIST":"H","GIS_ID":"Dcps_332"},"geometry":{"type":"Point","coordinates":[-77.01232179778576,38.904174435764176]}},{"type":"Feature","properties":{"OBJECTID":10,"NAME":"Davis Elementary School","ADDRESS":"4430 H Street, S.E.","FACUSE":"Elementary School","BLDG_NUM":229,"WEB_URL":"http://www.k12.dc.us/dcps/schools/results1.cfm?school_id=229","LEVEL_":"ES","STATUS":"Active","HIST":"H","GIS_ID":"Dcps_229"},"geometry":{"type":"Point","coordinates":[-76.93761915129215,38.87923580692888]}},{"type":"Feature","properties":{"OBJECTID":11,"NAME":"Stanton Elementary School","ADDRESS":"2701 Naylor Road, S.E.","FACUSE":"Elementary School","BLDG_NUM":319,"WEB_URL":"http://www.k12.dc.us/dcps/schools/results1.cfm?school_id=319","LEVEL_":"ES","STATUS":"Active","HIST":"H","GIS_ID":"Dcps_319"},"geometry":{"type":"Point","coordinates":[-76.96862593160526,38.86012760784655]}},{"type":"Feature","properties":{"OBJECTID":12,"NAME":"Wilkinson Elementary School","ADDRESS":"2330 Pomeroy Road, S.E.","FACUSE":"Elementary School","BLDG_NUM":354,"WEB_URL":"http://www.k12.dc.us/dcps/schools/results1.cfm?school_id=354","LEVEL_":"ES","STATUS":"Active","HIST":null,"GIS_ID":"Dcps_354"},"geometry":{"type":"Point","coordinates":[-76.98548408172947,38.85672116851203]}},{"type":"Feature","properties":{"OBJECTID":13,"NAME":"Turner Elementary School","ADDRESS":"3264 Stanton Road, S.E.","FACUSE":"Elementary School","BLDG_NUM":329,"WEB_URL":"http://www.k12.dc.us/dcps/schools/results1.cfm?school_id=329","LEVEL_":"ES","STATUS":"Active","HIST":"H","GIS_ID":"Dcps_329"},"geometry":{"type":"Point","coordinates":[-76.98036918112024,38.848272122000544]}},{"type":"Feature","properties":{"OBJECTID":14,"NAME":"Simon Elementary School","ADDRESS":"401 Mississippi Avenue, S.E.","FACUSE":"Elementary School","BLDG_NUM":315,"WEB_URL":"http://www.k12.dc.us/dcps/schools/results1.cfm?school_id=315","LEVEL_":"ES","STATUS":"Active","HIST":"H","GIS_ID":"Dcps_315"},"geometry":{"type":"Point","coordinates":[-77.00006395197931,38.83594576369221]}},{"type":"Feature","properties":{"OBJECTID":15,"NAME":"Phelps Senior High School","ADDRESS":"704 26th Street, N.E.","FACUSE":"Senior High School","BLDG_NUM":478,"WEB_URL":"http://www.k12.dc.us/dcps/schools/results1.cfm?school_id=478","LEVEL_":"SHS","STATUS":"Active","HIST":"H","GIS_ID":"Dcps_478"},"geometry":{"type":"Point","coordinates":[-76.97220573558093,38.90201122506872]}}]}