{
"type": "FeatureCollection",
"crs": { "type": "name", "properties": { "name": "urn:ogc:def:crs:OGC:1.3:CRS84" } },
                                                                                
"features": [
{ "type": "Feature", "properties": { "OBJECTID": 1, "NAME": "Shaw @ Garnet-Patterson MS", "ADDRESS": "2001 10TH STREET NW", "CIRCLE": 3, "SHELTERTYPE": "S", "CAPACITY": 111, "ADALEVEL": 3, "CORRIDORNUMBER": 1, "CORRIDORNAME": "Silver Spring Corridor" }, "geometry": { "type": "Point", "coordinates": [ -77.025750325175707, 38.917552429379406 ] } },
{ "type": "Feature", "properties": { "OBJECTID": 2, "NAME": "Cardozo Senior High School", "ADDRESS": "1200 CLIFTON STREET NW", "CIRCLE": 3, "SHELTERTYPE": "W", "CAPACITY": null, "ADALEVEL": null, "CORRIDORNUMBER": 1, "CORRIDORNAME": "Silver Spring Corridor" }, "geometry": { "type": "Point", "coordinates": [ -77.028472977865249, 38.922180321671952 ] } },
{ "type": "Feature", "properties": { "OBJECTID": 3, "NAME": "Roosevelt Senior High School", "ADDRESS": "4301 13TH STREET NW", "CIRCLE": 4, "SHELTERTYPE": "S", "CAPACITY": 297, "ADALEVEL": 2, "CORRIDORNUMBER": 1, "CORRIDORNAME": "Silver Spring Corridor" }, "geometry": { "type": "Point", "coordinates": [ -77.028900554300549, 38.943180921314237 ] } },
{ "type": "Feature", "properties": { "OBJECTID": 4, "NAME": "Tubman Elementary School", "ADDRESS": "3101 13TH STREET NW", "CIRCLE": 4, "SHELTERTYPE": "S", "CAPACITY": 85, "ADALEVEL": 1, "CORRIDORNUMBER": 1, "CORRIDORNAME": "Silver Spring Corridor" }, "geometry": { "type": "Point", "coordinates": [ -77.029445586558523, 38.929206028481758 ] } },
{ "type": "Feature", "properties": { "OBJECTID": 5, "NAME": "Columbia Heights Education Campus (Bell HS\/Lincoln MS)", "ADDRESS": "3101 16TH STREET NW", "CIRCLE": 4, "SHELTERTYPE": "S", "CAPACITY": 323, "ADALEVEL": 1, "CORRIDORNUMBER": 1, "CORRIDORNAME": "Silver Spring Corridor" }, "geometry": { "type": "Point", "coordinates": [ -77.035860600194624, 38.929552227178839 ] } },
{ "type": "Feature", "properties": { "OBJECTID": 6, "NAME": "Raymond Elementary School", "ADDRESS": "915 SPRING ROAD NW", "CIRCLE": 4, "SHELTERTYPE": "W", "CAPACITY": null, "ADALEVEL": null, "CORRIDORNUMBER": 1, "CORRIDORNAME": "Silver Spring Corridor" }, "geometry": { "type": "Point", "coordinates": [ -77.026434948215325, 38.935818665271633 ] } },
{ "type": "Feature", "properties": { "OBJECTID": 7, "NAME": "Powell Education Center", "ADDRESS": "1350 UPSHUR STREET NW", "CIRCLE": 4, "SHELTERTYPE": "W", "CAPACITY": null, "ADALEVEL": null, "CORRIDORNUMBER": 1, "CORRIDORNAME": "Silver Spring Corridor" }, "geometry": { "type": "Point", "coordinates": [ -77.031229711553777, 38.941541804352099 ] } },
{ "type": "Feature", "properties": { "OBJECTID": 8, "NAME": "Sharpe Health School", "ADDRESS": "4300 13TH STREET NW", "CIRCLE": 4, "SHELTERTYPE": "W", "CAPACITY": null, "ADALEVEL": null, "CORRIDORNUMBER": 1, "CORRIDORNAME": "Silver Spring Corridor" }, "geometry": { "type": "Point", "coordinates": [ -77.030470632358472, 38.943482120058079 ] } },
{ "type": "Feature", "properties": { "OBJECTID": 9, "NAME": "MacFarland Middle School", "ADDRESS": "4400 IOWA AVENUE NW", "CIRCLE": 4, "SHELTERTYPE": "S", "CAPACITY": 331, "ADALEVEL": 3, "CORRIDORNUMBER": 1, "CORRIDORNAME": "Silver Spring Corridor" }, "geometry": { "type": "Point", "coordinates": [ -77.027778697056036, 38.943616023378759 ] } },
{ "type": "Feature", "properties": { "OBJECTID": 10, "NAME": "West Education Center", "ADDRESS": "1338 FARRAGUT STREET NW", "CIRCLE": 5, "SHELTERTYPE": "W", "CAPACITY": null, "ADALEVEL": null, "CORRIDORNUMBER": 1, "CORRIDORNAME": "Silver Spring Corridor" }, "geometry": { "type": "Point", "coordinates": [ -77.032255346554734, 38.951374877377063 ] } },
{ "type": "Feature", "properties": { "OBJECTID": 11, "NAME": "Brightwood Education Center", "ADDRESS": "1300 NICHOLSON STREET NW", "CIRCLE": 5, "SHELTERTYPE": "S", "CAPACITY": 81, "ADALEVEL": 3, "CORRIDORNUMBER": 1, "CORRIDORNAME": "Silver Spring Corridor" }, "geometry": { "type": "Point", "coordinates": [ -77.030691148787383, 38.960543191187796 ] } },
{ "type": "Feature", "properties": { "OBJECTID": 12, "NAME": "Takoma Educational Center", "ADDRESS": "7010 PINEY BRANCH ROAD NW", "CIRCLE": 5, "SHELTERTYPE": "S", "CAPACITY": 93, "ADALEVEL": 3, "CORRIDORNUMBER": 1, "CORRIDORNAME": "Silver Spring Corridor" }, "geometry": { "type": "Point", "coordinates": [ -77.022797217267311, 38.975050343017678 ] } },
{ "type": "Feature", "properties": { "OBJECTID": 13, "NAME": "Seaton Elementary School", "ADDRESS": "1503 10TH STREET NW", "CIRCLE": 2, "SHELTERTYPE": "W", "CAPACITY": null, "ADALEVEL": null, "CORRIDORNUMBER": 2, "CORRIDORNAME": "College Park Corridor" }, "geometry": { "type": "Point", "coordinates": [ -77.024884764235821, 38.91062615117621 ] } },
{ "type": "Feature", "properties": { "OBJECTID": 14, "NAME": "Montgomery Elementary School", "ADDRESS": "421 P STREET NW", "CIRCLE": 2, "SHELTERTYPE": "W", "CAPACITY": null, "ADALEVEL": null, "CORRIDORNUMBER": 2, "CORRIDORNAME": "College Park Corridor" }, "geometry": { "type": "Point", "coordinates": [ -77.018119620783523, 38.90989384684319 ] } },
{ "type": "Feature", "properties": { "OBJECTID": 15, "NAME": "Cleveland Elementary School", "ADDRESS": "1825 8TH STREET NW", "CIRCLE": 3, "SHELTERTYPE": "S", "CAPACITY": 40, "ADALEVEL": 1, "CORRIDORNUMBER": 2, "CORRIDORNAME": "College Park Corridor" }, "geometry": { "type": "Point", "coordinates": [ -77.022709461810408, 38.915152744379341 ] } },
{ "type": "Feature", "properties": { "OBJECTID": 16, "NAME": "Emery Education Center", "ADDRESS": "1720 1ST STREET NE", "CIRCLE": 3, "SHELTERTYPE": "W", "CAPACITY": null, "ADALEVEL": null, "CORRIDORNUMBER": 2, "CORRIDORNAME": "College Park Corridor" }, "geometry": { "type": "Point", "coordinates": [ -77.006778221119376, 38.913510553189347 ] } },
{ "type": "Feature", "properties": { "OBJECTID": 17, "NAME": "McKinley Technology High School", "ADDRESS": "151 T STREET NE", "CIRCLE": 3, "SHELTERTYPE": "W", "CAPACITY": null, "ADALEVEL": null, "CORRIDORNUMBER": 2, "CORRIDORNAME": "College Park Corridor" }, "geometry": { "type": "Point", "coordinates": [ -77.004124719044995, 38.915227575952962 ] } },
{ "type": "Feature", "properties": { "OBJECTID": 18, "NAME": "Noyes Elementary School", "ADDRESS": "2725 10TH STREET NE", "CIRCLE": 4, "SHELTERTYPE": "W", "CAPACITY": null, "ADALEVEL": null, "CORRIDORNUMBER": 2, "CORRIDORNAME": "College Park Corridor" }, "geometry": { "type": "Point", "coordinates": [ -76.991845161047408, 38.925185439497724 ] } },
{ "type": "Feature", "properties": { "OBJECTID": 19, "NAME": "Capitol Hill Cluster - Peabody and School-within-School", "ADDRESS": "425 C STREET NE", "CIRCLE": 1, "SHELTERTYPE": "W", "CAPACITY": null, "ADALEVEL": null, "CORRIDORNUMBER": 3, "CORRIDORNAME": "Largo Corridor" }, "geometry": { "type": "Point", "coordinates": [ -76.999860264103489, 38.892903777305982 ] } },
{ "type": "Feature", "properties": { "OBJECTID": 20, "NAME": "Maury Elementary School", "ADDRESS": "1250 CONSTITUTION AVENUE NE", "CIRCLE": 2, "SHELTERTYPE": "W", "CAPACITY": null, "ADALEVEL": null, "CORRIDORNUMBER": 3, "CORRIDORNAME": "Largo Corridor" }, "geometry": { "type": "Point", "coordinates": [ -76.988659774621894, 38.892192646720567 ] } },
{ "type": "Feature", "properties": { "OBJECTID": 21, "NAME": "Eastern Senior High School", "ADDRESS": "1700 EAST CAPITOL STREET NE", "CIRCLE": 3, "SHELTERTYPE": "S", "CAPACITY": 197, "ADALEVEL": 3, "CORRIDORNUMBER": 3, "CORRIDORNAME": "Largo Corridor" }, "geometry": { "type": "Point", "coordinates": [ -76.979686564178522, 38.890410115127153 ] } },
{ "type": "Feature", "properties": { "OBJECTID": 22, "NAME": "Eliot-Hine Middle School", "ADDRESS": "1830 CONSTITUTION AVENUE NE", "CIRCLE": 3, "SHELTERTYPE": "W", "CAPACITY": null, "ADALEVEL": null, "CORRIDORNUMBER": 3, "CORRIDORNAME": "Largo Corridor" }, "geometry": { "type": "Point", "coordinates": [ -76.978980189966336, 38.892438946298228 ] } },
{ "type": "Feature", "properties": { "OBJECTID": 23, "NAME": "Spingarn Senior High School", "ADDRESS": "2500 BENNING ROAD NE", "CIRCLE": 3, "SHELTERTYPE": "S", "CAPACITY": 347, "ADALEVEL": 3, "CORRIDORNUMBER": 3, "CORRIDORNAME": "Largo Corridor" }, "geometry": { "type": "Point", "coordinates": [ -76.970989633679821, 38.899101985910136 ] } },
{ "type": "Feature", "properties": { "OBJECTID": 24, "NAME": "Plummer Elementary School", "ADDRESS": "4601 TEXAS AVENUE SE", "CIRCLE": 5, "SHELTERTYPE": "W", "CAPACITY": null, "ADALEVEL": null, "CORRIDORNUMBER": 3, "CORRIDORNAME": "Largo Corridor" }, "geometry": { "type": "Point", "coordinates": [ -76.939936933893151, 38.887247650630592 ] } },
{ "type": "Feature", "properties": { "OBJECTID": 25, "NAME": "Smothers Elementary School", "ADDRESS": "4400 BROOKS STREET NE", "CIRCLE": 5, "SHELTERTYPE": "W", "CAPACITY": null, "ADALEVEL": null, "CORRIDORNUMBER": 3, "CORRIDORNAME": "Largo Corridor" }, "geometry": { "type": "Point", "coordinates": [ -76.93847089700013, 38.893561490091002 ] } },
{ "type": "Feature", "properties": { "OBJECTID": 26, "NAME": "Kelly Miller Middle School", "ADDRESS": "301 49TH STREET NE", "CIRCLE": 5, "SHELTERTYPE": "S", "CAPACITY": 209, "ADALEVEL": 1, "CORRIDORNUMBER": 3, "CORRIDORNAME": "Largo Corridor" }, "geometry": { "type": "Point", "coordinates": [ -76.932538853354231, 38.893008073613714 ] } },
{ "type": "Feature", "properties": { "OBJECTID": 27, "NAME": "Transition Academy @ Shadd", "ADDRESS": "5601 EAST CAPITOL STREET SE", "CIRCLE": 5, "SHELTERTYPE": "W", "CAPACITY": null, "ADALEVEL": null, "CORRIDORNUMBER": 3, "CORRIDORNAME": "Largo Corridor" }, "geometry": { "type": "Point", "coordinates": [ -76.921745263544267, 38.889487290644794 ] } },
{ "type": "Feature", "properties": { "OBJECTID": 28, "NAME": "Ketcham Elementary School", "ADDRESS": "1919 15TH STREET SE", "CIRCLE": 3, "SHELTERTYPE": "W", "CAPACITY": null, "ADALEVEL": null, "CORRIDORNUMBER": 4, "CORRIDORNAME": "Branch Corridor" }, "geometry": { "type": "Point", "coordinates": [ -76.983623432933996, 38.866050141934245 ] } },
{ "type": "Feature", "properties": { "OBJECTID": 29, "NAME": "Anacostia Senior High School", "ADDRESS": "1601 16TH STREET SE", "CIRCLE": 3, "SHELTERTYPE": "S", "CAPACITY": 266, "ADALEVEL": 3, "CORRIDORNUMBER": 4, "CORRIDORNAME": "Branch Corridor" }, "geometry": { "type": "Point", "coordinates": [ -76.983079524742905, 38.870091507624799 ] } },
{ "type": "Feature", "properties": { "OBJECTID": 30, "NAME": "Stanton Elementary School", "ADDRESS": "2701 NAYLOR ROAD SE", "CIRCLE": 5, "SHELTERTYPE": "W", "CAPACITY": null, "ADALEVEL": null, "CORRIDORNUMBER": 4, "CORRIDORNAME": "Branch Corridor" }, "geometry": { "type": "Point", "coordinates": [ -76.968645484208736, 38.859287838841688 ] } },
{ "type": "Feature", "properties": { "OBJECTID": 31, "NAME": "Winston Education Center", "ADDRESS": "3100 ERIE STREET SE", "CIRCLE": 5, "SHELTERTYPE": "W", "CAPACITY": null, "ADALEVEL": null, "CORRIDORNUMBER": 4, "CORRIDORNAME": "Branch Corridor" }, "geometry": { "type": "Point", "coordinates": [ -76.962811667345633, 38.857463226542144 ] } },
{ "type": "Feature", "properties": { "OBJECTID": 32, "NAME": "Simon Elementary School", "ADDRESS": "401 MISSISSIPPI AVENUE SE", "CIRCLE": 5, "SHELTERTYPE": "W", "CAPACITY": null, "ADALEVEL": null, "CORRIDORNUMBER": 5, "CORRIDORNAME": "Oxon Hill Corridor" }, "geometry": { "type": "Point", "coordinates": [ -77.00019727124436, 38.835987977174753 ] } },
{ "type": "Feature", "properties": { "OBJECTID": 33, "NAME": "Patterson Elementary School", "ADDRESS": "4399 SOUTH CAPITOL TERRACE SW", "CIRCLE": 5, "SHELTERTYPE": "W", "CAPACITY": null, "ADALEVEL": null, "CORRIDORNUMBER": 5, "CORRIDORNAME": "Oxon Hill Corridor" }, "geometry": { "type": "Point", "coordinates": [ -77.008486985282161, 38.826973799126463 ] } },
{ "type": "Feature", "properties": { "OBJECTID": 34, "NAME": "Leckie Elementary School", "ADDRESS": "4201 MARTIN LUTHER KING JR AVENUE SW", "CIRCLE": 5, "SHELTERTYPE": "W", "CAPACITY": null, "ADALEVEL": null, "CORRIDORNUMBER": 5, "CORRIDORNAME": "Oxon Hill Corridor" }, "geometry": { "type": "Point", "coordinates": [ -77.012894190513833, 38.828204222584709 ] } },
{ "type": "Feature", "properties": { "OBJECTID": 35, "NAME": "Capitol Hill Cluster - Stuart-Hobson Middle School", "ADDRESS": "410 E STREET NE", "CIRCLE": 1, "SHELTERTYPE": "S", "CAPACITY": 120, "ADALEVEL": 3, "CORRIDORNUMBER": 6, "CORRIDORNAME": "Circulator Corridor" }, "geometry": { "type": "Point", "coordinates": [ -77.000006669562865, 38.896305157337551 ] } },
{ "type": "Feature", "properties": { "OBJECTID": 36, "NAME": "Amidon-Bowen Elementary School", "ADDRESS": "401 I STREET SW", "CIRCLE": 1, "SHELTERTYPE": "W", "CAPACITY": null, "ADALEVEL": null, "CORRIDORNUMBER": 6, "CORRIDORNAME": "Circulator Corridor" }, "geometry": { "type": "Point", "coordinates": [ -77.018127581474346, 38.879522850652506 ] } },
{ "type": "Feature", "properties": { "OBJECTID": 37, "NAME": "Jefferson Middle School", "ADDRESS": "801 7TH STREET SW", "CIRCLE": 1, "SHELTERTYPE": "S", "CAPACITY": 129, "ADALEVEL": 3, "CORRIDORNUMBER": 6, "CORRIDORNAME": "Circulator Corridor" }, "geometry": { "type": "Point", "coordinates": [ -77.022912944048002, 38.879878381786405 ] } },
{ "type": "Feature", "properties": { "OBJECTID": 38, "NAME": "Ludlow-Taylor Elementary School", "ADDRESS": "659 G STREET NE", "CIRCLE": 2, "SHELTERTYPE": "W", "CAPACITY": null, "ADALEVEL": null, "CORRIDORNUMBER": 6, "CORRIDORNAME": "Circulator Corridor" }, "geometry": { "type": "Point", "coordinates": [ -76.996494770417698, 38.898751596381722 ] } },
{ "type": "Feature", "properties": { "OBJECTID": 39, "NAME": "Prospect Learning Center", "ADDRESS": "920 F STREET NE", "CIRCLE": 2, "SHELTERTYPE": "W", "CAPACITY": null, "ADALEVEL": null, "CORRIDORNUMBER": 6, "CORRIDORNAME": "Circulator Corridor" }, "geometry": { "type": "Point", "coordinates": [ -76.99318532291899, 38.897572435678036 ] } },
{ "type": "Feature", "properties": { "OBJECTID": 40, "NAME": "Capitol Hill Cluster - Watkins Elementary School", "ADDRESS": "420 12TH STREET SE", "CIRCLE": 2, "SHELTERTYPE": "W", "CAPACITY": null, "ADALEVEL": null, "CORRIDORNUMBER": 6, "CORRIDORNAME": "Circulator Corridor" }, "geometry": { "type": "Point", "coordinates": [ -76.989999042962481, 38.883474459101699 ] } },
{ "type": "Feature", "properties": { "OBJECTID": 41, "NAME": "Tyler Elementary School", "ADDRESS": "1001 G STREET SE", "CIRCLE": 2, "SHELTERTYPE": "S", "CAPACITY": 30, "ADALEVEL": 3, "CORRIDORNUMBER": 6, "CORRIDORNAME": "Circulator Corridor" }, "geometry": { "type": "Point", "coordinates": [ -76.992043936742562, 38.881091807425925 ] } },
{ "type": "Feature", "properties": { "OBJECTID": 42, "NAME": "Eaton Elementary School", "ADDRESS": "3301 LOWELL STREET NW", "CIRCLE": 4, "SHELTERTYPE": "W", "CAPACITY": null, "ADALEVEL": null, "CORRIDORNUMBER": 9, "CORRIDORNAME": "Bethesda Corridor" }, "geometry": { "type": "Point", "coordinates": [ -77.065823438722035, 38.932734530242485 ] } },
{ "type": "Feature", "properties": { "OBJECTID": 43, "NAME": "Hearst Elementary School", "ADDRESS": "3950 37TH STREET NW", "CIRCLE": 4, "SHELTERTYPE": "W", "CAPACITY": null, "ADALEVEL": null, "CORRIDORNUMBER": 9, "CORRIDORNAME": "Bethesda Corridor" }, "geometry": { "type": "Point", "coordinates": [ -77.07195753340244, 38.940730106551733 ] } },
{ "type": "Feature", "properties": { "OBJECTID": 44, "NAME": "Janney Elementary School", "ADDRESS": "4130 ALBEMARLE STREET NW", "CIRCLE": 4, "SHELTERTYPE": "W", "CAPACITY": null, "ADALEVEL": null, "CORRIDORNUMBER": 9, "CORRIDORNAME": "Bethesda Corridor" }, "geometry": { "type": "Point", "coordinates": [ -77.080997131401929, 38.947557880899545 ] } },
{ "type": "Feature", "properties": { "OBJECTID": 45, "NAME": "Woodrow Wilson Senior High School", "ADDRESS": "3950 CHESAPEAKE STREET NW", "CIRCLE": 4, "SHELTERTYPE": "S", "CAPACITY": 375, "ADALEVEL": 2, "CORRIDORNUMBER": 9, "CORRIDORNAME": "Bethesda Corridor" }, "geometry": { "type": "Point", "coordinates": [ -77.077778012466737, 38.950164181029514 ] } },
{ "type": "Feature", "properties": { "OBJECTID": 46, "NAME": "Deal Middle School", "ADDRESS": "3815 FORT DRIVE NW", "CIRCLE": 5, "SHELTERTYPE": "W", "CAPACITY": null, "ADALEVEL": null, "CORRIDORNUMBER": 9, "CORRIDORNAME": "Bethesda Corridor" }, "geometry": { "type": "Point", "coordinates": [ -77.075201372286216, 38.952904202818651 ] } },
{ "type": "Feature", "properties": { "OBJECTID": 47, "NAME": "Ross Elementary School", "ADDRESS": "1730 R STREET NW", "CIRCLE": 2, "SHELTERTYPE": "W", "CAPACITY": null, "ADALEVEL": null, "CORRIDORNUMBER": 10, "CORRIDORNAME": "Chevy Chase Corridor" }, "geometry": { "type": "Point", "coordinates": [ -77.039664435576057, 38.912398603595989 ] } },
{ "type": "Feature", "properties": { "OBJECTID": 48, "NAME": "Oyster-Adams Bilingual School", "ADDRESS": "2020 19TH ST NW", "CIRCLE": 3, "SHELTERTYPE": "W", "CAPACITY": null, "ADALEVEL": null, "CORRIDORNUMBER": 10, "CORRIDORNAME": "Chevy Chase Corridor" }, "geometry": { "type": "Point", "coordinates": [ -77.044379635262032, 38.917316756981016 ] } },
{ "type": "Feature", "properties": { "OBJECTID": 49, "NAME": "Oyster-Adams Bilingual School", "ADDRESS": "2801 CALVERT STREET NW", "CIRCLE": 3, "SHELTERTYPE": "W", "CAPACITY": null, "ADALEVEL": null, "CORRIDORNUMBER": 10, "CORRIDORNAME": "Chevy Chase Corridor" }, "geometry": { "type": "Point", "coordinates": [ -77.057205681359818, 38.923603282860661 ] } },
{ "type": "Feature", "properties": { "OBJECTID": 50, "NAME": "Murch Elementary School", "ADDRESS": "4810 36TH STREET NW", "CIRCLE": 5, "SHELTERTYPE": "S", "CAPACITY": 60, "ADALEVEL": 3, "CORRIDORNUMBER": 10, "CORRIDORNAME": "Chevy Chase Corridor" }, "geometry": { "type": "Point", "coordinates": [ -77.070081511988619, 38.952940984922527 ] } },
{ "type": "Feature", "properties": { "OBJECTID": 51, "NAME": "Banneker Community Center", "ADDRESS": "2500 GEORGIA AVENUE NW", "CIRCLE": 3, "SHELTERTYPE": "S", "CAPACITY": 45, "ADALEVEL": 2, "CORRIDORNUMBER": 1, "CORRIDORNAME": "Silver Spring Corridor" }, "geometry": { "type": "Point", "coordinates": [ -77.022594040567782, 38.922687865078565 ] } },
{ "type": "Feature", "properties": { "OBJECTID": 52, "NAME": "Harrison Rec Center", "ADDRESS": "1330 V STREET NW", "CIRCLE": 3, "SHELTERTYPE": "W", "CAPACITY": null, "ADALEVEL": null, "CORRIDORNUMBER": 1, "CORRIDORNAME": "Silver Spring Corridor" }, "geometry": { "type": "Point", "coordinates": [ -77.030291177222239, 38.917960642985541 ] } },
{ "type": "Feature", "properties": { "OBJECTID": 53, "NAME": "Columbia Heights Rec Center", "ADDRESS": "15TH & GIRARD STREETS NW", "CIRCLE": 4, "SHELTERTYPE": "S", "CAPACITY": 139, "ADALEVEL": 1, "CORRIDORNUMBER": 1, "CORRIDORNAME": "Silver Spring Corridor" }, "geometry": { "type": "Point", "coordinates": [ -77.035136545670611, 38.925216771770216 ] } },
{ "type": "Feature", "properties": { "OBJECTID": 54, "NAME": "Raymond Rec Center", "ADDRESS": "915 SPRING ROAD NW", "CIRCLE": 4, "SHELTERTYPE": "W", "CAPACITY": null, "ADALEVEL": null, "CORRIDORNUMBER": 1, "CORRIDORNAME": "Silver Spring Corridor" }, "geometry": { "type": "Point", "coordinates": [ -77.026620404554478, 38.936501875748391 ] } },
{ "type": "Feature", "properties": { "OBJECTID": 55, "NAME": "Upshur Rec Center", "ADDRESS": "4300 ARKANSAS AVENUE NW", "CIRCLE": 4, "SHELTERTYPE": "W", "CAPACITY": null, "ADALEVEL": null, "CORRIDORNUMBER": 1, "CORRIDORNAME": "Silver Spring Corridor" }, "geometry": { "type": "Point", "coordinates": [ -77.032317037814096, 38.943321168520946 ] } },
{ "type": "Feature", "properties": { "OBJECTID": 56, "NAME": "Hamilton Rec Center", "ADDRESS": "1340 HAMILTON STREET NW", "CIRCLE": 5, "SHELTERTYPE": "W", "CAPACITY": null, "ADALEVEL": null, "CORRIDORNUMBER": 1, "CORRIDORNAME": "Silver Spring Corridor" }, "geometry": { "type": "Point", "coordinates": [ -77.03135585572474, 38.952631127619767 ] } },
{ "type": "Feature", "properties": { "OBJECTID": 57, "NAME": "Emery Rec Center", "ADDRESS": "5701 GEORGIA AVENUE NW", "CIRCLE": 5, "SHELTERTYPE": "S", "CAPACITY": 142, "ADALEVEL": 1, "CORRIDORNUMBER": 1, "CORRIDORNAME": "Silver Spring Corridor" }, "geometry": { "type": "Point", "coordinates": [ -77.027878322784574, 38.958825029734207 ] } },
{ "type": "Feature", "properties": { "OBJECTID": 58, "NAME": "Fort Stevens Rec Center", "ADDRESS": "1327 VAN BUREN STREET NW", "CIRCLE": 5, "SHELTERTYPE": "W", "CAPACITY": null, "ADALEVEL": null, "CORRIDORNUMBER": 1, "CORRIDORNAME": "Silver Spring Corridor" }, "geometry": { "type": "Point", "coordinates": [ -77.031065125232416, 38.970274127714859 ] } },
{ "type": "Feature", "properties": { "OBJECTID": 59, "NAME": "Harry Thomas Sr. Rec Center", "ADDRESS": "1743 LINCOLN ROAD NE", "CIRCLE": 3, "SHELTERTYPE": "W", "CAPACITY": null, "ADALEVEL": null, "CORRIDORNUMBER": 2, "CORRIDORNAME": "College Park Corridor" }, "geometry": { "type": "Point", "coordinates": [ -77.007870443460746, 38.913993511782785 ] } },
{ "type": "Feature", "properties": { "OBJECTID": 60, "NAME": "Langdon Park Community Center", "ADDRESS": "2901 20TH STREET NE", "CIRCLE": 4, "SHELTERTYPE": "S", "CAPACITY": 141, "ADALEVEL": 3, "CORRIDORNUMBER": 2, "CORRIDORNAME": "College Park Corridor" }, "geometry": { "type": "Point", "coordinates": [ -76.975761694621212, 38.926819535636604 ] } },
{ "type": "Feature", "properties": { "OBJECTID": 61, "NAME": "Benning Stoddert Community Center", "ADDRESS": "100 STODDERT PLACE SE", "CIRCLE": 5, "SHELTERTYPE": "W", "CAPACITY": null, "ADALEVEL": null, "CORRIDORNUMBER": 3, "CORRIDORNAME": "Largo Corridor" }, "geometry": { "type": "Point", "coordinates": [ -76.948246636216766, 38.888848291397892 ] } },
{ "type": "Feature", "properties": { "OBJECTID": 62, "NAME": "Marvin Gaye Rec Center", "ADDRESS": "6201 BANKS STREET NE", "CIRCLE": 5, "SHELTERTYPE": "W", "CAPACITY": null, "ADALEVEL": null, "CORRIDORNUMBER": 3, "CORRIDORNAME": "Largo Corridor" }, "geometry": { "type": "Point", "coordinates": [ -76.912294027144071, 38.891766615006141 ] } },
{ "type": "Feature", "properties": { "OBJECTID": 63, "NAME": "Randall Rec Center", "ADDRESS": "820 SOUTH CAPITOL STREET SW", "CIRCLE": 2, "SHELTERTYPE": "W", "CAPACITY": null, "ADALEVEL": null, "CORRIDORNUMBER": 5, "CORRIDORNAME": "Oxon Hill Corridor" }, "geometry": { "type": "Point", "coordinates": [ -77.009414426013961, 38.879559695566861 ] } },
{ "type": "Feature", "properties": { "OBJECTID": 64, "NAME": "King-Greenleaf Rec Center", "ADDRESS": "201 N STREET SW", "CIRCLE": 2, "SHELTERTYPE": "S", "CAPACITY": 190, "ADALEVEL": 1, "CORRIDORNUMBER": 5, "CORRIDORNAME": "Oxon Hill Corridor" }, "geometry": { "type": "Point", "coordinates": [ -77.01279478559168, 38.875023592504164 ] } },
{ "type": "Feature", "properties": { "OBJECTID": 65, "NAME": "Sherwood Rec Center", "ADDRESS": "640 10TH STREET NE", "CIRCLE": 2, "SHELTERTYPE": "S", "CAPACITY": 90, "ADALEVEL": 1, "CORRIDORNUMBER": 6, "CORRIDORNAME": "Circulator Corridor" }, "geometry": { "type": "Point", "coordinates": [ -76.993019099816365, 38.898553076310137 ] } },
{ "type": "Feature", "properties": { "OBJECTID": 66, "NAME": "Joy Evans Rec Center", "ADDRESS": "555 L STREET SE", "CIRCLE": 2, "SHELTERTYPE": "W", "CAPACITY": null, "ADALEVEL": null, "CORRIDORNUMBER": 6, "CORRIDORNAME": "Circulator Corridor" }, "geometry": { "type": "Point", "coordinates": [ -76.998382042148108, 38.877338449802615 ] } },
{ "type": "Feature", "properties": { "OBJECTID": 67, "NAME": "Hine Rec Center", "ADDRESS": "335 8TH STREET SE", "CIRCLE": 2, "SHELTERTYPE": "W", "CAPACITY": null, "ADALEVEL": null, "CORRIDORNUMBER": 6, "CORRIDORNAME": "Circulator Corridor" }, "geometry": { "type": "Point", "coordinates": [ -76.995359785884219, 38.885391364969045 ] } },
{ "type": "Feature", "properties": { "OBJECTID": 68, "NAME": "Watkins Rec Center", "ADDRESS": "420 12TH STREET SE", "CIRCLE": 2, "SHELTERTYPE": "W", "CAPACITY": null, "ADALEVEL": null, "CORRIDORNUMBER": 6, "CORRIDORNAME": "Circulator Corridor" }, "geometry": { "type": "Point", "coordinates": [ -76.989999042962481, 38.883474459101699 ] } },
{ "type": "Feature", "properties": { "OBJECTID": 69, "NAME": "Stead Rec Center", "ADDRESS": "1625 P STREET NW", "CIRCLE": 2, "SHELTERTYPE": "W", "CAPACITY": null, "ADALEVEL": null, "CORRIDORNUMBER": 9, "CORRIDORNAME": "Bethesda Corridor" }, "geometry": { "type": "Point", "coordinates": [ -77.037623068298785, 38.910032453810544 ] } },
{ "type": "Feature", "properties": { "OBJECTID": 70, "NAME": "Macomb Rec Center", "ADDRESS": "3409 MACOMB STREET NW", "CIRCLE": 4, "SHELTERTYPE": "W", "CAPACITY": null, "ADALEVEL": null, "CORRIDORNUMBER": 9, "CORRIDORNAME": "Bethesda Corridor" }, "geometry": { "type": "Point", "coordinates": [ -77.067014822227705, 38.933688436520001 ] } },
{ "type": "Feature", "properties": { "OBJECTID": 71, "NAME": "Hearst Rec Center", "ADDRESS": "3950 37TH STREET NW", "CIRCLE": 4, "SHELTERTYPE": "W", "CAPACITY": null, "ADALEVEL": null, "CORRIDORNUMBER": 9, "CORRIDORNAME": "Bethesda Corridor" }, "geometry": { "type": "Point", "coordinates": [ -77.071255791677615, 38.940418489095102 ] } },
{ "type": "Feature", "properties": { "OBJECTID": 72, "NAME": "Kalorama Rec Center", "ADDRESS": "1875 COLUMBIA ROAD NW", "CIRCLE": 3, "SHELTERTYPE": "W", "CAPACITY": null, "ADALEVEL": null, "CORRIDORNUMBER": 10, "CORRIDORNAME": "Chevy Chase Corridor" }, "geometry": { "type": "Point", "coordinates": [ -77.044367468683191, 38.920724847121214 ] } },
{ "type": "Feature", "properties": { "OBJECTID": 73, "NAME": "Chevy Chase Community Center", "ADDRESS": "5601 CONNECTICUT AVENUE NW", "CIRCLE": 5, "SHELTERTYPE": "S", "CAPACITY": 40, "ADALEVEL": 2, "CORRIDORNUMBER": 10, "CORRIDORNAME": "Chevy Chase Corridor" }, "geometry": { "type": "Point", "coordinates": [ -77.075155557282201, 38.96514552526196 ] } },
{ "type": "Feature", "properties": { "OBJECTID": 74, "NAME": "Chevy Chase Playground", "ADDRESS": "5500 41ST STREET NW", "CIRCLE": 5, "SHELTERTYPE": "W", "CAPACITY": null, "ADALEVEL": null, "CORRIDORNUMBER": 10, "CORRIDORNAME": "Chevy Chase Corridor" }, "geometry": { "type": "Point", "coordinates": [ -77.080710617149293, 38.963464675024902 ] } },
{ "type": "Feature", "properties": { "OBJECTID": 75, "NAME": "DC ARMORY", "ADDRESS": "2001 EAST CAPITOL STREET SE", "CIRCLE": 3, "SHELTERTYPE": "S", "CAPACITY": 1618, "ADALEVEL": 1, "CORRIDORNUMBER": 3, "CORRIDORNAME": "Largo Corridor" }, "geometry": { "type": "Point", "coordinates": [ -76.975514687661999, 38.888504223523938 ] } },
{ "type": "Feature", "properties": { "OBJECTID": 76, "NAME": "RFK MEMORIAL STADIUM", "ADDRESS": "2400 EAST CAPITOL STREET SE", "CIRCLE": 3, "SHELTERTYPE": "W", "CAPACITY": 0, "ADALEVEL": null, "CORRIDORNUMBER": 3, "CORRIDORNAME": "Largo Corridor" }, "geometry": { "type": "Point", "coordinates": [ -76.971897674204115, 38.889798093460882 ] } },
{ "type": "Feature", "properties": { "OBJECTID": 77, "NAME": "King-Greenleaf Rec Center", "ADDRESS": "201 N STREET SW", "CIRCLE": 2, "SHELTERTYPE": "S", "CAPACITY": 190, "ADALEVEL": 1, "CORRIDORNUMBER": 6, "CORRIDORNAME": "Oxon Hill Corridor" }, "geometry": { "type": "Point", "coordinates": [ -77.01279478559168, 38.875023592504164 ] } },
{ "type": "Feature", "properties": { "OBJECTID": 78, "NAME": "Stead Rec Center", "ADDRESS": "1625 P STREET NW", "CIRCLE": 2, "SHELTERTYPE": "W", "CAPACITY": null, "ADALEVEL": null, "CORRIDORNUMBER": 9, "CORRIDORNAME": "Bethesda Corridor" }, "geometry": { "type": "Point", "coordinates": [ -77.037623068298785, 38.910032453810544 ] } },
{ "type": "Feature", "properties": { "OBJECTID": 79, "NAME": "Stead Rec Center", "ADDRESS": "1625 P STREET NW", "CIRCLE": 2, "SHELTERTYPE": "W", "CAPACITY": null, "ADALEVEL": null, "CORRIDORNUMBER": 10, "CORRIDORNAME": "Chevy Chase Corridor" }, "geometry": { "type": "Point", "coordinates": [ -77.037623068298785, 38.910032453810544 ] } }
]
}
