{"type":"FeatureCollection","features":[{"type":"Feature","properties":{"OBJECTID":1,"NAME":"Shaw @ Garnet-Patterson MS","ADDRESS":"2001 10TH STREET NW","CIRCLE":3,"SHELTERTYPE":"S","CAPACITY":111,"ADALEVEL":3,"CORRIDORNUMBER":1,"CORRIDORNAME":"Silver Spring Corridor"},"geometry":{"type":"Point","coordinates":[-77.02575032517571,38.917552429379406]}},{"type":"Feature","properties":{"OBJECTID":2,"NAME":"Cardozo Senior High School","ADDRESS":"1200 CLIFTON STREET NW","CIRCLE":3,"SHELTERTYPE":"W","CAPACITY":null,"ADALEVEL":null,"CORRIDORNUMBER":1,"CORRIDORNAME":"Silver Spring Corridor"},"geometry":{"type":"Point","coordinates":[-77.02847297786525,38.92218032167195]}},{"type":"Feature","properties":{"OBJECTID":3,"NAME":"Roosevelt Senior High School","ADDRESS":"4301 13TH STREET NW","CIRCLE":4,"SHELTERTYPE":"S","CAPACITY":297,"ADALEVEL":2,"CORRIDORNUMBER":1,"CORRIDORNAME":"Silver Spring Corridor"},"geometry":{"type":"Point","coordinates":[-77.02890055430055,38.94318092131424]}},{"type":"Feature","properties":{"OBJECTID":4,"NAME":"Tubman Elementary School","ADDRESS":"3101 13TH STREET NW","CIRCLE":4,"SHELTERTYPE":"S","CAPACITY":85,"ADALEVEL":1,"CORRIDORNUMBER":1,"CORRIDORNAME":"Silver Spring Corridor"},"geometry":{"type":"Point","coordinates":[-77.02944558655852,38.92920602848176]}},{"type":"Feature","properties":{"OBJECTID":5,"NAME":"Columbia Heights Education Campus (Bell HS/Lincoln MS)","ADDRESS":"3101 16TH STREET NW","CIRCLE":4,"SHELTERTYPE":"S","CAPACITY":323,"ADALEVEL":1,"CORRIDORNUMBER":1,"CORRIDORNAME":"Silver Spring Corridor"},"geometry":{"type":"Point","coordinates":[-77.03586060019462,38.92955222717884]}},{"type":"Feature","properties":{"OBJECTID":6,"NAME":"Raymond Elementary School","ADDRESS":"915 SPRING ROAD NW","CIRCLE":4,"SHELTERTYPE":"W","CAPACITY":null,"ADALEVEL":null,"CORRIDORNUMBER":1,"CORRIDORNAME":"Silver Spring Corridor"},"geometry":{"type":"Point","coordinates":[-77.02643494821532,38.93581866527163]}},{"type":"Feature","properties":{"OBJECTID":7,"NAME":"Powell Education Center","ADDRESS":"1350 UPSHUR STREET NW","CIRCLE":4,"SHELTERTYPE":"W","CAPACITY":null,"ADALEVEL":null,"CORRIDORNUMBER":1,"CORRIDORNAME":"Silver Spring Corridor"},"geometry":{"type":"Point","coordinates":[-77.03122971155378,38.9415418043521]}},{"type":"Feature","properties":{"OBJECTID":8,"NAME":"Sharpe Health School","ADDRESS":"4300 13TH STREET NW","CIRCLE":4,"SHELTERTYPE":"W","CAPACITY":null,"ADALEVEL":null,"CORRIDORNUMBER":1,"CORRIDORNAME":"Silver Spring Corridor"},"geometry":{"type":"Point","coordinates":[-77.03047063235847,38.94348212005808]}},{"type":"Feature","properties":{"OBJECTID":9,"NAME":"MacFarland Middle School","ADDRESS":"4400 IOWA AVENUE NW","CIRCLE":4,"SHELTERTYPE":"S","CAPACITY":331,"ADALEVEL":3,"CORRIDORNUMBER":1,"CORRIDORNAME":"Silver Spring Corridor"},"geometry":{"type":"Point","coordinates":[-77.02777869705604,38.94361602337876]}},{"type":"Feature","properties":{"OBJECTID":10,"NAME":"West Education Center","ADDRESS":"1338 FARRAGUT STREET NW","CIRCLE":5,"SHELTERTYPE":"W","CAPACITY":null,"ADALEVEL":null,"CORRIDORNUMBER":1,"CORRIDORNAME":"Silver Spring Corridor"},"geometry":{"type":"Point","coordinates":[-77.03225534655473,38.95137487737706]}},{"type":"Feature","properties":{"OBJECTID":11,"NAME":"Brightwood Education Center","ADDRESS":"1300 NICHOLSON STREET NW","CIRCLE":5,"SHELTERTYPE":"S","CAPACITY":81,"ADALEVEL":3,"CORRIDORNUMBER":1,"CORRIDORNAME":"Silver Spring Corridor"},"geometry":{"type":"Point","coordinates":[-77.03069114878738,38.960543191187796]}},{"type":"Feature","properties":{"OBJECTID":12,"NAME":"Takoma Educational Center","ADDRESS":"7010 PINEY BRANCH ROAD NW","CIRCLE":5,"SHELTERTYPE":"S","CAPACITY":93,"ADALEVEL":3,"CORRIDORNUMBER":1,"CORRIDORNAME":"Silver Spring Corridor"},"geometry":{"type":"Point","coordinates":[-77.02279721726731,38.97505034301768]}},{"type":"Feature","properties":{"OBJECTID":13,"NAME":"Seaton Elementary School","ADDRESS":"1503 10TH STREET NW","CIRCLE":2,"SHELTERTYPE":"W","CAPACITY":null,"ADALEVEL":null,"CORRIDORNUMBER":2,"CORRIDORNAME":"College Park Corridor"},"geometry":{"type":"Point","coordinates":[-77.02488476423582,38.91062615117621]}},{"type":"Feature","properties":{"OBJECTID":14,"NAME":"Montgomery Elementary School","ADDRESS":"421 P STREET NW","CIRCLE":2,"SHELTERTYPE":"W","CAPACITY":null,"ADALEVEL":null,"CORRIDORNUMBER":2,"CORRIDORNAME":"College Park Corridor"},"geometry":{"type":"Point","coordinates":[-77.01811962078352,38.90989384684319]}},{"type":"Feature","properties":{"OBJECTID":15,"NAME":"Cleveland Elementary School","ADDRESS":"1825 8TH STREET NW","CIRCLE":3,"SHELTERTYPE":"S","CAPACITY":40,"ADALEVEL":1,"CORRIDORNUMBER":2,"CORRIDORNAME":"College Park Corridor"},"geometry":{"type":"Point","coordinates":[-77.02270946181041,38.91515274437934]}},{"type":"Feature","properties":{"OBJECTID":16,"NAME":"Emery Education Center","ADDRESS":"1720 1ST STREET NE","CIRCLE":3,"SHELTERTYPE":"W","CAPACITY":null,"ADALEVEL":null,"CORRIDORNUMBER":2,"CORRIDORNAME":"College Park Corridor"},"geometry":{"type":"Point","coordinates":[-77.00677822111938,38.91351055318935]}},{"type":"Feature","properties":{"OBJECTID":17,"NAME":"McKinley Technology High School","ADDRESS":"151 T STREET NE","CIRCLE":3,"SHELTERTYPE":"W","CAPACITY":null,"ADALEVEL":null,"CORRIDORNUMBER":2,"CORRIDORNAME":"College Park Corridor"},"geometry":{"type":"Point","coordinates":[-77.004124719045,38.91522757595296]}},{"type":"Feature","properties":{"OBJECTID":18,"NAME":"Noyes Elementary School","ADDRESS":"2725 10TH STREET NE","CIRCLE":4,"SHELTERTYPE":"W","CAPACITY":null,"ADALEVEL":null,"CORRIDORNUMBER":2,"CORRIDORNAME":"College Park Corridor"},"geometry":{"type":"Point","coordinates":[-76.99184516104741,38.925185439497724]}},{"type":"Feature","properties":{"OBJECTID":19,"NAME":"Capitol Hill Cluster - Peabody and School-within-School","ADDRESS":"425 C STREET NE","CIRCLE":1,"SHELTERTYPE":"W","CAPACITY":null,"ADALEVEL":null,"CORRIDORNUMBER":3,"CORRIDORNAME":"Largo Corridor"},"geometry":{"type":"Point","coordinates":[-76.99986026410349,38.89290377730598]}},{"type":"Feature","properties":{"OBJECTID":20,"NAME":"Maury Elementary School","ADDRESS":"1250 CONSTITUTION AVENUE NE","CIRCLE":2,"SHELTERTYPE":"W","CAPACITY":null,"ADALEVEL":null,"CORRIDORNUMBER":3,"CORRIDORNAME":"Largo Corridor"},"geometry":{"type":"Point","coordinates":[-76.9886597746219,38.89219264672057]}},{"type":"Feature","properties":{"OBJECTID":21,"NAME":"Eastern Senior High School","ADDRESS":"1700 EAST CAPITOL STREET NE","CIRCLE":3,"SHELTERTYPE":"S","CAPACITY":197,"ADALEVEL":3,"CORRIDORNUMBER":3,"CORRIDORNAME":"Largo Corridor"},"geometry":{"type":"Point","coordinates":[-76.97968656417852,38.89041011512715]}},{"type":"Feature","properties":{"OBJECTID":22,"NAME":"Eliot-Hine Middle School","ADDRESS":"1830 CONSTITUTION AVENUE NE","CIRCLE":3,"SHELTERTYPE":"W","CAPACITY":null,"ADALEVEL":null,"CORRIDORNUMBER":3,"CORRIDORNAME":"Largo Corridor"},"geometry":{"type":"Point","coordinates":[-76.97898018996634,38.89243894629823]}},{"type":"Feature","properties":{"OBJECTID":23,"NAME":"Spingarn Senior High School","ADDRESS":"2500 BENNING ROAD NE","CIRCLE":3,"SHELTERTYPE":"S","CAPACITY":347,"ADALEVEL":3,"CORRIDORNUMBER":3,"CORRIDORNAME":"Largo Corridor"},"geometry":{"type":"Point","coordinates":[-76.97098963367982,38.899101985910136]}},{"type":"Feature","properties":{"OBJECTID":24,"NAME":"Plummer Elementary School","ADDRESS":"4601 TEXAS AVENUE SE","CIRCLE":5,"SHELTERTYPE":"W","CAPACITY":null,"ADALEVEL":null,"CORRIDORNUMBER":3,"CORRIDORNAME":"Largo Corridor"},"geometry":{"type":"Point","coordinates":[-76.93993693389315,38.88724765063059]}},{"type":"Feature","properties":{"OBJECTID":25,"NAME":"Smothers Elementary School","ADDRESS":"4400 BROOKS STREET NE","CIRCLE":5,"SHELTERTYPE":"W","CAPACITY":null,"ADALEVEL":null,"CORRIDORNUMBER":3,"CORRIDORNAME":"Largo Corridor"},"geometry":{"type":"Point","coordinates":[-76.93847089700013,38.893561490091]}},{"type":"Feature","properties":{"OBJECTID":26,"NAME":"Kelly Miller Middle School","ADDRESS":"301 49TH STREET NE","CIRCLE":5,"SHELTERTYPE":"S","CAPACITY":209,"ADALEVEL":1,"CORRIDORNUMBER":3,"CORRIDORNAME":"Largo Corridor"},"geometry":{"type":"Point","coordinates":[-76.93253885335423,38.893008073613714]}},{"type":"Feature","properties":{"OBJECTID":27,"NAME":"Transition Academy @ Shadd","ADDRESS":"5601 EAST CAPITOL STREET SE","CIRCLE":5,"SHELTERTYPE":"W","CAPACITY":null,"ADALEVEL":null,"CORRIDORNUMBER":3,"CORRIDORNAME":"Largo Corridor"},"geometry":{"type":"Point","coordinates":[-76.92174526354427,38.889487290644794]}},{"type":"Feature","properties":{"OBJECTID":28,"NAME":"Ketcham Elementary School","ADDRESS":"1919 15TH STREET SE","CIRCLE":3,"SHELTERTYPE":"W","CAPACITY":null,"ADALEVEL":null,"CORRIDORNUMBER":4,"CORRIDORNAME":"Branch Corridor"},"geometry":{"type":"Point","coordinates":[-76.983623432934,38.866050141934245]}},{"type":"Feature","properties":{"OBJECTID":29,"NAME":"Anacostia Senior High School","ADDRESS":"1601 16TH STREET SE","CIRCLE":3,"SHELTERTYPE":"S","CAPACITY":266,"ADALEVEL":3,"CORRIDORNUMBER":4,"CORRIDORNAME":"Branch Corridor"},"geometry":{"type":"Point","coordinates":[-76.9830795247429,38.8700915076248]}},{"type":"Feature","properties":{"OBJECTID":30,"NAME":"Stanton Elementary School","ADDRESS":"2701 NAYLOR ROAD SE","CIRCLE":5,"SHELTERTYPE":"W","CAPACITY":null,"ADALEVEL":null,"CORRIDORNUMBER":4,"CORRIDORNAME":"Branch Corridor"},"geometry":{"type":"Point","coordinates":[-76.96864548420874,38.85928783884169]}},{"type":"Feature","properties":{"OBJECTID":31,"NAME":"Winston Education Center","ADDRESS":"3100 ERIE STREET SE","CIRCLE":5,"SHELTERTYPE":"W","CAPACITY":null,"ADALEVEL":null,"CORRIDORNUMBER":4,"CORRIDORNAME":"Branch Corridor"},"geometry":{"type":"Point","coordinates":[-76.96281166734563,38.857463226542144]}},{"type":"Feature","properties":{"OBJECTID":32,"NAME":"Simon Elementary School","ADDRESS":"401 MISSISSIPPI AVENUE SE","CIRCLE":5,"SHELTERTYPE":"W","CAPACITY":null,"ADALEVEL":null,"CORRIDORNUMBER":5,"CORRIDORNAME":"Oxon Hill Corridor"},"geometry":{"type":"Point","coordinates":[-77.00019727124436,38.83598797717475]}},{"type":"Feature","properties":{"OBJECTID":33,"NAME":"Patterson Elementary School","ADDRESS":"4399 SOUTH CAPITOL TERRACE SW","CIRCLE":5,"SHELTERTYPE":"W","CAPACITY":null,"ADALEVEL":null,"CORRIDORNUMBER":5,"CORRIDORNAME":"Oxon Hill Corridor"},"geometry":{"type":"Point","coordinates":[-77.00848698528216,38.82697379912646]}},{"type":"Feature","properties":{"OBJECTID":34,"NAME":"Leckie Elementary School","ADDRESS":"4201 MARTIN LUTHER KING JR AVENUE SW","CIRCLE":5,"SHELTERTYPE":"W","CAPACITY":null,"ADALEVEL":null,"CORRIDORNUMBER":5,"CORRIDORNAME":"Oxon Hill Corridor"},"geometry":{"type":"Point","coordinates":[-77.01289419051383,38.82820422258471]}},{"type":"Feature","properties":{"OBJECTID":35,"NAME":"Capitol Hill Cluster - Stuart-Hobson Middle School","ADDRESS":"410 E STREET NE","CIRCLE":1,"SHELTERTYPE":"S","CAPACITY":120,"ADALEVEL":3,"CORRIDORNUMBER":6,"CORRIDORNAME":"Circulator Corridor"},"geometry":{"type":"Point","coordinates":[-77.00000666956286,38.89630515733755]}},{"type":"Feature","properties":{"OBJECTID":36,"NAME":"Amidon-Bowen Elementary School","ADDRESS":"401 I STREET SW","CIRCLE":1,"SHELTERTYPE":"W","CAPACITY":null,"ADALEVEL":null,"CORRIDORNUMBER":6,"CORRIDORNAME":"Circulator Corridor"},"geometry":{"type":"Point","coordinates":[-77.01812758147435,38.879522850652506]}},{"type":"Feature","properties":{"OBJECTID":37,"NAME":"Jefferson Middle School","ADDRESS":"801 7TH STREET SW","CIRCLE":1,"SHELTERTYPE":"S","CAPACITY":129,"ADALEVEL":3,"CORRIDORNUMBER":6,"CORRIDORNAME":"Circulator Corridor"},"geometry":{"type":"Point","coordinates":[-77.022912944048,38.879878381786405]}},{"type":"Feature","properties":{"OBJECTID":38,"NAME":"Ludlow-Taylor Elementary School","ADDRESS":"659 G STREET NE","CIRCLE":2,"SHELTERTYPE":"W","CAPACITY":null,"ADALEVEL":null,"CORRIDORNUMBER":6,"CORRIDORNAME":"Circulator Corridor"},"geometry":{"type":"Point","coordinates":[-76.9964947704177,38.89875159638172]}},{"type":"Feature","properties":{"OBJECTID":39,"NAME":"Prospect Learning Center","ADDRESS":"920 F STREET NE","CIRCLE":2,"SHELTERTYPE":"W","CAPACITY":null,"ADALEVEL":null,"CORRIDORNUMBER":6,"CORRIDORNAME":"Circulator Corridor"},"geometry":{"type":"Point","coordinates":[-76.99318532291899,38.897572435678036]}},{"type":"Feature","properties":{"OBJECTID":40,"NAME":"Capitol Hill Cluster - Watkins Elementary School","ADDRESS":"420 12TH STREET SE","CIRCLE":2,"SHELTERTYPE":"W","CAPACITY":null,"ADALEVEL":null,"CORRIDORNUMBER":6,"CORRIDORNAME":"Circulator Corridor"},"geometry":{"type":"Point","coordinates":[-76.98999904296248,38.8834744591017]}},{"type":"Feature","properties":{"OBJECTID":41,"NAME":"Tyler Elementary School","ADDRESS":"1001 G STREET SE","CIRCLE":2,"SHELTERTYPE":"S","CAPACITY":30,"ADALEVEL":3,"CORRIDORNUMBER":6,"CORRIDORNAME":"Circulator Corridor"},"geometry":{"type":"Point","coordinates":[-76.99204393674256,38.881091807425925]}},{"type":"Feature","properties":{"OBJECTID":42,"NAME":"Eaton Elementary School","ADDRESS":"3301 LOWELL STREET NW","CIRCLE":4,"SHELTERTYPE":"W","CAPACITY":null,"ADALEVEL":null,"CORRIDORNUMBER":9,"CORRIDORNAME":"Bethesda Corridor"},"geometry":{"type":"Point","coordinates":[-77.06582343872203,38.932734530242485]}},{"type":"Feature","properties":{"OBJECTID":43,"NAME":"Hearst Elementary School","ADDRESS":"3950 37TH STREET NW","CIRCLE":4,"SHELTERTYPE":"W","CAPACITY":null,"ADALEVEL":null,"CORRIDORNUMBER":9,"CORRIDORNAME":"Bethesda Corridor"},"geometry":{"type":"Point","coordinates":[-77.07195753340244,38.94073010655173]}},{"type":"Feature","properties":{"OBJECTID":44,"NAME":"Janney Elementary School","ADDRESS":"4130 ALBEMARLE STREET NW","CIRCLE":4,"SHELTERTYPE":"W","CAPACITY":null,"ADALEVEL":null,"CORRIDORNUMBER":9,"CORRIDORNAME":"Bethesda Corridor"},"geometry":{"type":"Point","coordinates":[-77.08099713140193,38.947557880899545]}},{"type":"Feature","properties":{"OBJECTID":45,"NAME":"Woodrow Wilson Senior High School","ADDRESS":"3950 CHESAPEAKE STREET NW","CIRCLE":4,"SHELTERTYPE":"S","CAPACITY":375,"ADALEVEL":2,"CORRIDORNUMBER":9,"CORRIDORNAME":"Bethesda Corridor"},"geometry":{"type":"Point","coordinates":[-77.07777801246674,38.950164181029514]}},{"type":"Feature","properties":{"OBJECTID":46,"NAME":"Deal Middle School","ADDRESS":"3815 FORT DRIVE NW","CIRCLE":5,"SHELTERTYPE":"W","CAPACITY":null,"ADALEVEL":null,"CORRIDORNUMBER":9,"CORRIDORNAME":"Bethesda Corridor"},"geometry":{"type":"Point","coordinates":[-77.07520137228622,38.95290420281865]}},{"type":"Feature","properties":{"OBJECTID":47,"NAME":"Ross Elementary School","ADDRESS":"1730 R STREET NW","CIRCLE":2,"SHELTERTYPE":"W","CAPACITY":null,"ADALEVEL":null,"CORRIDORNUMBER":10,"CORRIDORNAME":"Chevy Chase Corridor"},"geometry":{"type":"Point","coordinates":[-77.03966443557606,38.91239860359599]}},{"type":"Feature","properties":{"OBJECTID":48,"NAME":"Oyster-Adams Bilingual School","ADDRESS":"2020 19TH ST NW","CIRCLE":3,"SHELTERTYPE":"W","CAPACITY":null,"ADALEVEL":null,"CORRIDORNUMBER":10,"CORRIDORNAME":"Chevy Chase Corridor"},"geometry":{"type":"Point","coordinates":[-77.04437963526203,38.917316756981016]}},{"type":"Feature","properties":{"OBJECTID":49,"NAME":"Oyster-Adams Bilingual School","ADDRESS":"2801 CALVERT STREET NW","CIRCLE":3,"SHELTERTYPE":"W","CAPACITY":null,"ADALEVEL":null,"CORRIDORNUMBER":10,"CORRIDORNAME":"Chevy Chase Corridor"},"geometry":{"type":"Point","coordinates":[-77.05720568135982,38.92360328286066]}},{"type":"Feature","properties":{"OBJECTID":50,"NAME":"Murch Elementary School","ADDRESS":"4810 36TH STREET NW","CIRCLE":5,"SHELTERTYPE":"S","CAPACITY":60,"ADALEVEL":3,"CORRIDORNUMBER":10,"CORRIDORNAME":"Chevy Chase Corridor"},"geometry":{"type":"Point","coordinates":[-77.07008151198862,38.95294098492253]}},{"type":"Feature","properties":{"OBJECTID":51,"NAME":"Banneker Community Center","ADDRESS":"2500 GEORGIA AVENUE NW","CIRCLE":3,"SHELTERTYPE":"S","CAPACITY":45,"ADALEVEL":2,"CORRIDORNUMBER":1,"CORRIDORNAME":"Silver Spring Corridor"},"geometry":{"type":"Point","coordinates":[-77.02259404056778,38.922687865078565]}},{"type":"Feature","properties":{"OBJECTID":52,"NAME":"Harrison Rec Center","ADDRESS":"1330 V STREET NW","CIRCLE":3,"SHELTERTYPE":"W","CAPACITY":null,"ADALEVEL":null,"CORRIDORNUMBER":1,"CORRIDORNAME":"Silver Spring Corridor"},"geometry":{"type":"Point","coordinates":[-77.03029117722224,38.91796064298554]}},{"type":"Feature","properties":{"OBJECTID":53,"NAME":"Columbia Heights Rec Center","ADDRESS":"15TH & GIRARD STREETS NW","CIRCLE":4,"SHELTERTYPE":"S","CAPACITY":139,"ADALEVEL":1,"CORRIDORNUMBER":1,"CORRIDORNAME":"Silver Spring Corridor"},"geometry":{"type":"Point","coordinates":[-77.03513654567061,38.925216771770216]}},{"type":"Feature","properties":{"OBJECTID":54,"NAME":"Raymond Rec Center","ADDRESS":"915 SPRING ROAD NW","CIRCLE":4,"SHELTERTYPE":"W","CAPACITY":null,"ADALEVEL":null,"CORRIDORNUMBER":1,"CORRIDORNAME":"Silver Spring Corridor"},"geometry":{"type":"Point","coordinates":[-77.02662040455448,38.93650187574839]}},{"type":"Feature","properties":{"OBJECTID":55,"NAME":"Upshur Rec Center","ADDRESS":"4300 ARKANSAS AVENUE NW","CIRCLE":4,"SHELTERTYPE":"W","CAPACITY":null,"ADALEVEL":null,"CORRIDORNUMBER":1,"CORRIDORNAME":"Silver Spring Corridor"},"geometry":{"type":"Point","coordinates":[-77.0323170378141,38.943321168520946]}},{"type":"Feature","properties":{"OBJECTID":56,"NAME":"Hamilton Rec Center","ADDRESS":"1340 HAMILTON STREET NW","CIRCLE":5,"SHELTERTYPE":"W","CAPACITY":null,"ADALEVEL":null,"CORRIDORNUMBER":1,"CORRIDORNAME":"Silver Spring Corridor"},"geometry":{"type":"Point","coordinates":[-77.03135585572474,38.95263112761977]}},{"type":"Feature","properties":{"OBJECTID":57,"NAME":"Emery Rec Center","ADDRESS":"5701 GEORGIA AVENUE NW","CIRCLE":5,"SHELTERTYPE":"S","CAPACITY":142,"ADALEVEL":1,"CORRIDORNUMBER":1,"CORRIDORNAME":"Silver Spring Corridor"},"geometry":{"type":"Point","coordinates":[-77.02787832278457,38.95882502973421]}},{"type":"Feature","properties":{"OBJECTID":58,"NAME":"Fort Stevens Rec Center","ADDRESS":"1327 VAN BUREN STREET NW","CIRCLE":5,"SHELTERTYPE":"W","CAPACITY":null,"ADALEVEL":null,"CORRIDORNUMBER":1,"CORRIDORNAME":"Silver Spring Corridor"},"geometry":{"type":"Point","coordinates":[-77.03106512523242,38.97027412771486]}},{"type":"Feature","properties":{"OBJECTID":59,"NAME":"Harry Thomas Sr. Rec Center","ADDRESS":"1743 LINCOLN ROAD NE","CIRCLE":3,"SHELTERTYPE":"W","CAPACITY":null,"ADALEVEL":null,"CORRIDORNUMBER":2,"CORRIDORNAME":"College Park Corridor"},"geometry":{"type":"Point","coordinates":[-77.00787044346075,38.913993511782785]}},{"type":"Feature","properties":{"OBJECTID":60,"NAME":"Langdon Park Community Center","ADDRESS":"2901 20TH STREET NE","CIRCLE":4,"SHELTERTYPE":"S","CAPACITY":141,"ADALEVEL":3,"CORRIDORNUMBER":2,"CORRIDORNAME":"College Park Corridor"},"geometry":{"type":"Point","coordinates":[-76.97576169462121,38.926819535636604]}},{"type":"Feature","properties":{"OBJECTID":61,"NAME":"Benning Stoddert Community Center","ADDRESS":"100 STODDERT PLACE SE","CIRCLE":5,"SHELTERTYPE":"W","CAPACITY":null,"ADALEVEL":null,"CORRIDORNUMBER":3,"CORRIDORNAME":"Largo Corridor"},"geometry":{"type":"Point","coordinates":[-76.94824663621677,38.88884829139789]}},{"type":"Feature","properties":{"OBJECTID":62,"NAME":"Marvin Gaye Rec Center","ADDRESS":"6201 BANKS STREET NE","CIRCLE":5,"SHELTERTYPE":"W","CAPACITY":null,"ADALEVEL":null,"CORRIDORNUMBER":3,"CORRIDORNAME":"Largo Corridor"},"geometry":{"type":"Point","coordinates":[-76.91229402714407,38.89176661500614]}},{"type":"Feature","properties":{"OBJECTID":63,"NAME":"Randall Rec Center","ADDRESS":"820 SOUTH CAPITOL STREET SW","CIRCLE":2,"SHELTERTYPE":"W","CAPACITY":null,"ADALEVEL":null,"CORRIDORNUMBER":5,"CORRIDORNAME":"Oxon Hill Corridor"},"geometry":{"type":"Point","coordinates":[-77.00941442601396,38.87955969556686]}},{"type":"Feature","properties":{"OBJECTID":64,"NAME":"King-Greenleaf Rec Center","ADDRESS":"201 N STREET SW","CIRCLE":2,"SHELTERTYPE":"S","CAPACITY":190,"ADALEVEL":1,"CORRIDORNUMBER":5,"CORRIDORNAME":"Oxon Hill Corridor"},"geometry":{"type":"Point","coordinates":[-77.01279478559168,38.875023592504164]}},{"type":"Feature","properties":{"OBJECTID":65,"NAME":"Sherwood Rec Center","ADDRESS":"640 10TH STREET NE","CIRCLE":2,"SHELTERTYPE":"S","CAPACITY":90,"ADALEVEL":1,"CORRIDORNUMBER":6,"CORRIDORNAME":"Circulator Corridor"},"geometry":{"type":"Point","coordinates":[-76.99301909981637,38.89855307631014]}},{"type":"Feature","properties":{"OBJECTID":66,"NAME":"Joy Evans Rec Center","ADDRESS":"555 L STREET SE","CIRCLE":2,"SHELTERTYPE":"W","CAPACITY":null,"ADALEVEL":null,"CORRIDORNUMBER":6,"CORRIDORNAME":"Circulator Corridor"},"geometry":{"type":"Point","coordinates":[-76.99838204214811,38.877338449802615]}},{"type":"Feature","properties":{"OBJECTID":67,"NAME":"Hine Rec Center","ADDRESS":"335 8TH STREET SE","CIRCLE":2,"SHELTERTYPE":"W","CAPACITY":null,"ADALEVEL":null,"CORRIDORNUMBER":6,"CORRIDORNAME":"Circulator Corridor"},"geometry":{"type":"Point","coordinates":[-76.99535978588422,38.885391364969045]}},{"type":"Feature","properties":{"OBJECTID":68,"NAME":"Watkins Rec Center","ADDRESS":"420 12TH STREET SE","CIRCLE":2,"SHELTERTYPE":"W","CAPACITY":null,"ADALEVEL":null,"CORRIDORNUMBER":6,"CORRIDORNAME":"Circulator Corridor"},"geometry":{"type":"Point","coordinates":[-76.98999904296248,38.8834744591017]}},{"type":"Feature","properties":{"OBJECTID":69,"NAME":"Stead Rec Center","ADDRESS":"1625 P STREET NW","CIRCLE":2,"SHELTERTYPE":"W","CAPACITY":null,"ADALEVEL":null,"CORRIDORNUMBER":9,"CORRIDORNAME":"Bethesda Corridor"},"geometry":{"type":"Point","coordinates":[-77.03762306829879,38.910032453810544]}},{"type":"Feature","properties":{"OBJECTID":70,"NAME":"Macomb Rec Center","ADDRESS":"3409 MACOMB STREET NW","CIRCLE":4,"SHELTERTYPE":"W","CAPACITY":null,"ADALEVEL":null,"CORRIDORNUMBER":9,"CORRIDORNAME":"Bethesda Corridor"},"geometry":{"type":"Point","coordinates":[-77.0670148222277,38.93368843652]}},{"type":"Feature","properties":{"OBJECTID":71,"NAME":"Hearst Rec Center","ADDRESS":"3950 37TH STREET NW","CIRCLE":4,"SHELTERTYPE":"W","CAPACITY":null,"ADALEVEL":null,"CORRIDORNUMBER":9,"CORRIDORNAME":"Bethesda Corridor"},"geometry":{"type":"Point","coordinates":[-77.07125579167761,38.9404184890951]}},{"type":"Feature","properties":{"OBJECTID":72,"NAME":"Kalorama Rec Center","ADDRESS":"1875 COLUMBIA ROAD NW","CIRCLE":3,"SHELTERTYPE":"W","CAPACITY":null,"ADALEVEL":null,"CORRIDORNUMBER":10,"CORRIDORNAME":"Chevy Chase Corridor"},"geometry":{"type":"Point","coordinates":[-77.04436746868319,38.920724847121214]}},{"type":"Feature","properties":{"OBJECTID":73,"NAME":"Chevy Chase Community Center","ADDRESS":"5601 CONNECTICUT AVENUE NW","CIRCLE":5,"SHELTERTYPE":"S","CAPACITY":40,"ADALEVEL":2,"CORRIDORNUMBER":10,"CORRIDORNAME":"Chevy Chase Corridor"},"geometry":{"type":"Point","coordinates":[-77.0751555572822,38.96514552526196]}},{"type":"Feature","properties":{"OBJECTID":74,"NAME":"Chevy Chase Playground","ADDRESS":"5500 41ST STREET NW","CIRCLE":5,"SHELTERTYPE":"W","CAPACITY":null,"ADALEVEL":null,"CORRIDORNUMBER":10,"CORRIDORNAME":"Chevy Chase Corridor"},"geometry":{"type":"Point","coordinates":[-77.0807106171493,38.9634646750249]}},{"type":"Feature","properties":{"OBJECTID":75,"NAME":"DC ARMORY","ADDRESS":"2001 EAST CAPITOL STREET SE","CIRCLE":3,"SHELTERTYPE":"S","CAPACITY":1618,"ADALEVEL":1,"CORRIDORNUMBER":3,"CORRIDORNAME":"Largo Corridor"},"geometry":{"type":"Point","coordinates":[-76.975514687662,38.88850422352394]}},{"type":"Feature","properties":{"OBJECTID":76,"NAME":"RFK MEMORIAL STADIUM","ADDRESS":"2400 EAST CAPITOL STREET SE","CIRCLE":3,"SHELTERTYPE":"W","CAPACITY":0,"ADALEVEL":null,"CORRIDORNUMBER":3,"CORRIDORNAME":"Largo Corridor"},"geometry":{"type":"Point","coordinates":[-76.97189767420411,38.88979809346088]}},{"type":"Feature","properties":{"OBJECTID":77,"NAME":"King-Greenleaf Rec Center","ADDRESS":"201 N STREET SW","CIRCLE":2,"SHELTERTYPE":"S","CAPACITY":190,"ADALEVEL":1,"CORRIDORNUMBER":6,"CORRIDORNAME":"Oxon Hill Corridor"},"geometry":{"type":"Point","coordinates":[-77.01279478559168,38.875023592504164]}},{"type":"Feature","properties":{"OBJECTID":78,"NAME":"Stead Rec Center","ADDRESS":"1625 P STREET NW","CIRCLE":2,"SHELTERTYPE":"W","CAPACITY":null,"ADALEVEL":null,"CORRIDORNUMBER":9,"CORRIDORNAME":"Bethesda Corridor"},"geometry":{"type":"Point","coordinates":[-77.03762306829879,38.910032453810544]}},{"type":"Feature","properties":{"OBJECTID":79,"NAME":"Stead Rec Center","ADDRESS":"1625 P STREET NW","CIRCLE":2,"SHELTERTYPE":"W","CAPACITY":null,"ADALEVEL":null,"CORRIDORNUMBER":10,"CORRIDORNAME":"Chevy Chase Corridor"},"geometry":{"type":"Point","coordinates":[-77.03762306829879,38.910032453810544]}}]}