{"type":"FeatureCollection","features":[{"type":"Feature","id":1,"geometry":{"type":"Point","coordinates":[-76.92957947374357,38.888962286299915],"bbox":[-76.92957947374357,38.888962286299915,-76.92957947374357,38.888962286299915]},"properties":{"OBJECTID":1,"NAME":"Capitol View Neighborhood Library","ADDRESS":"5001 CENTRAL AVENUE SE","X":406109.69,"Y":135681.52,"ADDR_ID":15509,"LABEL":38,"TYPE":"INDOOR+OUTDOOR","NUMBER_OF_SITES":2}},{"type":"Feature","id":2,"geometry":{"type":"Point","coordinates":[-77.10052963425032,38.92680929350779],"bbox":[-77.10052963425032,38.92680929350779,-77.10052963425032,38.92680929350779]},"properties":{"OBJECTID":2,"NAME":"Key Elementary School","ADDRESS":"5001 DANA PLACE NW","X":391283.15,"Y":139885.29,"ADDR_ID":294605,"LABEL":232,"TYPE":"INDOOR","NUMBER_OF_SITES":1}},{"type":"Feature","id":3,"geometry":{"type":"Point","coordinates":[-76.93013345714222,38.900237857181644],"bbox":[-76.93013345714222,38.900237857181644,-76.93013345714222,38.900237857181644]},"properties":{"OBJECTID":3,"NAME":"MPD Merritt","ADDRESS":"5002 HAYES STREET NE","X":406060.67,"Y":136933.16,"ADDR_ID":294606,"LABEL":275,"TYPE":"OUTDOOR","NUMBER_OF_SITES":1}},{"type":"Feature","id":4,"geometry":{"type":"Point","coordinates":[-77.01959347261995,38.90399097820709],"bbox":[-77.01959347261995,38.90399097820709,-77.01959347261995,38.90399097820709]},"properties":{"OBJECTID":4,"NAME":"MPD Facility","ADDRESS":"501 NEW YORK AVENUE NW","X":398300.68,"Y":137347.65,"ADDR_ID":238919,"LABEL":271,"TYPE":"OUTDOOR","NUMBER_OF_SITES":1}},{"type":"Feature","id":5,"geometry":{"type":"Point","coordinates":[-77.00694858443146,38.90696426993029],"bbox":[-77.00694858443146,38.90696426993029,-77.00694858443146,38.90696426993029]},"properties":{"OBJECTID":5,"NAME":"Internal Affairs Division","ADDRESS":"51 N STREET NE","X":399397.51,"Y":137677.55,"ADDR_ID":13663,"LABEL":219,"TYPE":"INDOOR","NUMBER_OF_SITES":1}},{"type":"Feature","id":6,"geometry":{"type":"Point","coordinates":[-77.02090896254855,38.94387860438226],"bbox":[-77.02090896254855,38.94387860438226,-77.02090896254855,38.94387860438226]},"properties":{"OBJECTID":6,"NAME":"Center City PCS - Petworth Campus","ADDRESS":"510 WEBSTER STREET NW","X":398187.59,"Y":141775.54,"ADDR_ID":303332,"LABEL":48,"TYPE":"OUTDOOR","NUMBER_OF_SITES":1}},{"type":"Feature","id":7,"geometry":{"type":"Point","coordinates":[-76.9269404244556,38.87980679198983],"bbox":[-76.9269404244556,38.87980679198983,-76.9269404244556,38.87980679198983]},"properties":{"OBJECTID":7,"NAME":"Benning Park Community Center","ADDRESS":"5100 SOUTHERN AVENUE SE","X":406339.46,"Y":134665.37,"ADDR_ID":296175,"LABEL":21,"TYPE":"INDOOR","NUMBER_OF_SITES":1}},{"type":"Feature","id":8,"geometry":{"type":"Point","coordinates":[-77.02703457129914,38.952151993827655],"bbox":[-77.02703457129914,38.952151993827655,-77.02703457129914,38.952151993827655]},"properties":{"OBJECTID":8,"NAME":"Engine 24 Station","ADDRESS":"5101 GEORGIA AVENUE NW","X":397656.83,"Y":142694.1,"ADDR_ID":251752,"LABEL":148,"TYPE":"INDOOR+OUTDOOR","NUMBER_OF_SITES":2}},{"type":"Feature","id":9,"geometry":{"type":"Point","coordinates":[-77.10457645119848,38.9245628498433],"bbox":[-77.10457645119848,38.9245628498433,-77.10457645119848,38.9245628498433]},"properties":{"OBJECTID":9,"NAME":"Palisades Community Center","ADDRESS":"5200 SHERIER PLACE NW","X":390931.96,"Y":139636.31,"ADDR_ID":268352,"LABEL":300,"TYPE":"INDOOR","NUMBER_OF_SITES":1}},{"type":"Feature","id":10,"geometry":{"type":"Point","coordinates":[-77.07112557093987,38.95788877693921],"bbox":[-77.07112557093987,38.95788877693921,-77.07112557093987,38.95788877693921]},"properties":{"OBJECTID":10,"NAME":"Regency House Apartments","ADDRESS":"5201 CONNECTICUT AVENUE NW","X":393835.5,"Y":143332.99,"ADDR_ID":264202,"LABEL":322,"TYPE":"OUTDOOR","NUMBER_OF_SITES":1}},{"type":"Feature","id":11,"geometry":{"type":"Point","coordinates":[-76.92534178820557,38.894138480421056],"bbox":[-76.92534178820557,38.894138480421056,-76.92534178820557,38.894138480421056]},"properties":{"OBJECTID":11,"NAME":"DCHA - Richardson Dwellings","ADDRESS":"5231 CLOUD PLACE NE","X":406476.87,"Y":136256.41,"ADDR_ID":148821,"LABEL":92,"TYPE":"OUTDOOR","NUMBER_OF_SITES":1}},{"type":"Feature","id":12,"geometry":{"type":"Point","coordinates":[-76.9337031788254,38.89700926754652],"bbox":[-76.9337031788254,38.89700926754652,-76.9337031788254,38.89700926754652]},"properties":{"OBJECTID":12,"NAME":"Aiton Elementary School","ADDRESS":"533 48TH PLACE NE","X":405751.28,"Y":136574.53,"ADDR_ID":294490,"LABEL":2,"TYPE":"INDOOR","NUMBER_OF_SITES":1}},{"type":"Feature","id":13,"geometry":{"type":"Point","coordinates":[-76.99958660474677,38.95513559548461],"bbox":[-76.99958660474677,38.95513559548461,-76.99958660474677,38.95513559548461]},"properties":{"OBJECTID":13,"NAME":"Lamond-Riggs Neighborhood Library","ADDRESS":"5401 SOUTH DAKOTA AVENUE NE","X":400036.03,"Y":143024.96,"ADDR_ID":288645,"LABEL":243,"TYPE":"INDOOR+OUTDOOR","NUMBER_OF_SITES":2}},{"type":"Feature","id":14,"geometry":{"type":"Point","coordinates":[-77.00699215244485,38.87626345969587],"bbox":[-77.00699215244485,38.87626345969587,-77.00699215244485,38.87626345969587]},"properties":{"OBJECTID":14,"NAME":"Headquarter","ADDRESS":"55 M STREET SE","X":399393.47000000003,"Y":134269.52,"ADDR_ID":306664,"LABEL":200,"TYPE":"INDOOR","NUMBER_OF_SITES":1}},{"type":"Feature","id":15,"geometry":{"type":"Point","coordinates":[-77.02085145941267,38.87388250871249],"bbox":[-77.02085145941267,38.87388250871249,-77.02085145941267,38.87388250871249]},"properties":{"OBJECTID":15,"NAME":"Fire Boats 1, 2, and 3","ADDRESS":"550 WATER STREET SW","X":398190.8,"Y":134005.4,"ADDR_ID":294491,"LABEL":174,"TYPE":"INDOOR","NUMBER_OF_SITES":1}},{"type":"Feature","id":16,"geometry":{"type":"Point","coordinates":[-76.9199292662767,38.896001430487594],"bbox":[-76.9199292662767,38.896001430487594,-76.9199292662767,38.896001430487594]},"properties":{"OBJECTID":16,"NAME":"Drew Elementary School","ADDRESS":"5600 EADS STREET NE","X":406946.23,"Y":136463.61,"ADDR_ID":277686,"LABEL":120,"TYPE":"INDOOR+OUTDOOR","NUMBER_OF_SITES":2}},{"type":"Feature","id":17,"geometry":{"type":"Point","coordinates":[-77.07545902708438,38.965576951202834],"bbox":[-77.07545902708438,38.965576951202834,-77.07545902708438,38.965576951202834]},"properties":{"OBJECTID":17,"NAME":"Chevy Chase Neighborhood Library","ADDRESS":"5625 CONNECTICUT AVENUE NW","X":393460.61,"Y":144186.75,"ADDR_ID":263960,"LABEL":56,"TYPE":"INDOOR+OUTDOOR","NUMBER_OF_SITES":2}},{"type":"Feature","id":18,"geometry":{"type":"Point","coordinates":[-77.06803943094211,38.966635018804],"bbox":[-77.06803943094211,38.966635018804,-77.06803943094211,38.966635018804]},"properties":{"OBJECTID":18,"NAME":"Lafayette Elementary School","ADDRESS":"5701 BROAD BRANCH ROAD NW","X":394103.71,"Y":144303.7,"ADDR_ID":294611,"LABEL":241,"TYPE":"INDOOR","NUMBER_OF_SITES":1}},{"type":"Feature","id":19,"geometry":{"type":"Point","coordinates":[-77.02834109587602,38.959988875747214],"bbox":[-77.02834109587602,38.959988875747214,-77.02834109587602,38.959988875747214]},"properties":{"OBJECTID":19,"NAME":"Engine 22 Station","ADDRESS":"5760 GEORGIA AVENUE NW","X":397543.85000000003,"Y":143564.1,"ADDR_ID":294612,"LABEL":146,"TYPE":"INDOOR+OUTDOOR","NUMBER_OF_SITES":2}},{"type":"Feature","id":20,"geometry":{"type":"Point","coordinates":[-77.02472536789874,38.96137291428552],"bbox":[-77.02472536789874,38.96137291428552,-77.02472536789874,38.96137291428552]},"properties":{"OBJECTID":20,"NAME":"Paul PCS","ADDRESS":"5800 8TH STREET NW","X":397857.27,"Y":143717.65,"ADDR_ID":294613,"LABEL":305,"TYPE":"OUTDOOR","NUMBER_OF_SITES":1}},{"type":"Feature","id":21,"geometry":{"type":"Point","coordinates":[-77.0670743188215,38.96774683388516],"bbox":[-77.0670743188215,38.96774683388516,-77.0670743188215,38.96774683388516]},"properties":{"OBJECTID":21,"NAME":"Lafayette Recreation Center","ADDRESS":"5900 33RD STREET NW","X":394187.44,"Y":144427.06,"ADDR_ID":308530,"LABEL":242,"TYPE":"INDOOR","NUMBER_OF_SITES":1}},{"type":"Feature","id":22,"geometry":{"type":"Point","coordinates":[-77.02741327376162,38.96313324862812],"bbox":[-77.02741327376162,38.96313324862812,-77.02741327376162,38.96313324862812]},"properties":{"OBJECTID":22,"NAME":"Fourth District (4D)","ADDRESS":"6001 GEORGIA AVENUE NW","X":397624.37,"Y":143913.13,"ADDR_ID":243485,"LABEL":180,"TYPE":"INDOOR","NUMBER_OF_SITES":1}},{"type":"Feature","id":23,"geometry":{"type":"Point","coordinates":[-77.02833083423941,38.96319942072205],"bbox":[-77.02833083423941,38.96319942072205,-77.02833083423941,38.96319942072205]},"properties":{"OBJECTID":23,"NAME":"Center City PCS - Brightwood Campus","ADDRESS":"6008 GEORGIA AVENUE NW","X":397544.85000000003,"Y":143920.5,"ADDR_ID":253198,"LABEL":45,"TYPE":"OUTDOOR","NUMBER_OF_SITES":1}},{"type":"Feature","id":24,"geometry":{"type":"Point","coordinates":[-76.9829065969051,38.89738346956647],"bbox":[-76.9829065969051,38.89738346956647,-76.9829065969051,38.89738346956647]},"properties":{"OBJECTID":24,"NAME":"Miner Elementary School","ADDRESS":"601 15TH STREET NE","X":401483,"Y":136614.12,"ADDR_ID":289548,"LABEL":266,"TYPE":"INDOOR","NUMBER_OF_SITES":1}},{"type":"Feature","id":25,"geometry":{"type":"Point","coordinates":[-76.99718102575224,38.837745313083396],"bbox":[-76.99718102575224,38.837745313083396,-76.99718102575224,38.837745313083396]},"properties":{"OBJECTID":25,"NAME":"Hart Middle School","ADDRESS":"601 MISSISSIPPI AVENUE SE","X":400244.94,"Y":129993.71,"ADDR_ID":5534,"LABEL":196,"TYPE":"INDOOR","NUMBER_OF_SITES":1}},{"type":"Feature","id":26,"geometry":{"type":"Point","coordinates":[-76.99799418656742,38.900023252001155],"bbox":[-76.99799418656742,38.900023252001155,-76.99799418656742,38.900023252001155]},"properties":{"OBJECTID":26,"NAME":"DOES","ADDRESS":"609 H STREET NE","X":400174.19,"Y":136907.02,"ADDR_ID":288773,"LABEL":105,"TYPE":"INDOOR","NUMBER_OF_SITES":1}},{"type":"Feature","id":27,"geometry":{"type":"Point","coordinates":[-76.99689011115642,38.842263314708994],"bbox":[-76.99689011115642,38.842263314708994,-76.99689011115642,38.842263314708994]},"properties":{"OBJECTID":27,"NAME":"Congress Heights Recreation Center","ADDRESS":"611 ALABAMA AVENUE SE","X":400270.18,"Y":130495.24,"ADDR_ID":307835,"LABEL":68,"TYPE":"INDOOR","NUMBER_OF_SITES":1}},{"type":"Feature","id":28,"geometry":{"type":"Point","coordinates":[-77.0221357356967,38.932346767349394],"bbox":[-77.0221357356967,38.932346767349394,-77.0221357356967,38.932346767349394]},"properties":{"OBJECTID":28,"NAME":"Park Morton Apartments","ADDRESS":"617 MORTON STREET NW","X":398080.93,"Y":140495.43,"ADDR_ID":285318,"LABEL":302,"TYPE":"OUTDOOR","NUMBER_OF_SITES":1}},{"type":"Feature","id":29,"geometry":{"type":"Point","coordinates":[-77.01396780245221,38.965508401339136],"bbox":[-77.01396780245221,38.965508401339136,-77.01396780245221,38.965508401339136]},"properties":{"OBJECTID":29,"NAME":"National Childrens Center","ADDRESS":"6200 2ND STREET NW","X":398789.69,"Y":144176.53,"ADDR_ID":245006,"LABEL":283,"TYPE":"OUTDOOR","NUMBER_OF_SITES":1}},{"type":"Feature","id":30,"geometry":{"type":"Point","coordinates":[-77.01924089573717,38.96586473944469],"bbox":[-77.01924089573717,38.96586473944469,-77.01924089573717,38.96586473944469]},"properties":{"OBJECTID":30,"NAME":"Whittier Education Campus","ADDRESS":"6201 5TH STREET NW","X":398332.71,"Y":144216.17,"ADDR_ID":294614,"LABEL":398,"TYPE":"INDOOR","NUMBER_OF_SITES":1}},{"type":"Feature","id":31,"geometry":{"type":"Point","coordinates":[-76.91231301545378,38.891777790641335],"bbox":[-76.91231301545378,38.891777790641335,-76.91231301545378,38.891777790641335]},"properties":{"OBJECTID":31,"NAME":"Watts Branch Recreation Center","ADDRESS":"6201 BANKS PLACE NE","X":407607.38,"Y":135995.36,"ADDR_ID":288795,"LABEL":394,"TYPE":"INDOOR","NUMBER_OF_SITES":1}},{"type":"Feature","id":32,"geometry":{"type":"Point","coordinates":[-76.99739034211588,38.89995189386984],"bbox":[-76.99739034211588,38.89995189386984,-76.99739034211588,38.89995189386984]},"properties":{"OBJECTID":32,"NAME":"DOES","ADDRESS":"625 H STREET NE","X":400226.57,"Y":136899.1,"ADDR_ID":288803,"LABEL":106,"TYPE":"INDOOR","NUMBER_OF_SITES":1}},{"type":"Feature","id":33,"geometry":{"type":"Point","coordinates":[-77.01958064549068,38.967292039776865],"bbox":[-77.01958064549068,38.967292039776865,-77.01958064549068,38.967292039776865]},"properties":{"OBJECTID":33,"NAME":"Coolidge High School","ADDRESS":"6315 5TH STREET NW","X":398303.3,"Y":144374.62,"ADDR_ID":294615,"LABEL":71,"TYPE":"INDOOR","NUMBER_OF_SITES":1}},{"type":"Feature","id":34,"geometry":{"type":"Point","coordinates":[-77.00696586444256,38.909181673565236],"bbox":[-77.00696586444256,38.909181673565236,-77.00696586444256,38.909181673565236]},"properties":{"OBJECTID":34,"NAME":"DOES II","ADDRESS":"64 NEW YORK AVENUE NE","X":399396.03,"Y":137923.7,"ADDR_ID":289616,"LABEL":109,"TYPE":"INDOOR","NUMBER_OF_SITES":1}},{"type":"Feature","id":35,"geometry":{"type":"Point","coordinates":[-76.99301910558036,38.89855307631047],"bbox":[-76.99301910558036,38.89855307631047,-76.99301910558036,38.89855307631047]},"properties":{"OBJECTID":35,"NAME":"Sherwood Recreation Center","ADDRESS":"640 10TH STREET NE","X":400605.76,"Y":136743.84,"ADDR_ID":301075,"LABEL":340,"TYPE":"INDOOR","NUMBER_OF_SITES":1}},{"type":"Feature","id":36,"geometry":{"type":"Point","coordinates":[-76.95211317978585,38.90128642690779],"bbox":[-76.95211317978585,38.90128642690779,-76.95211317978585,38.90128642690779]},"properties":{"OBJECTID":36,"NAME":"Thomas Elementary School","ADDRESS":"650 ANACOSTIA AVENUE NE","X":404154.01,"Y":137048.33,"ADDR_ID":294493,"LABEL":361,"TYPE":"INDOOR","NUMBER_OF_SITES":1}},{"type":"Feature","id":37,"geometry":{"type":"Point","coordinates":[-77.0331771527125,38.897911051141875],"bbox":[-77.0331771527125,38.897911051141875,-77.0331771527125,38.897911051141875]},"properties":{"OBJECTID":37,"NAME":"DC Net Central Office","ADDRESS":"655 15TH STREET NW","X":397122.2,"Y":136673.07,"ADDR_ID":279876,"LABEL":82,"TYPE":"INDOOR","NUMBER_OF_SITES":1}},{"type":"Feature","id":38,"geometry":{"type":"Point","coordinates":[-76.99649477618172,38.898751596381906],"bbox":[-76.99649477618172,38.898751596381906,-76.99649477618172,38.898751596381906]},"properties":{"OBJECTID":38,"NAME":"Ludlow-Taylor Elementary School","ADDRESS":"659 G STREET NE","X":400304.26,"Y":136765.86,"ADDR_ID":294494,"LABEL":249,"TYPE":"INDOOR","NUMBER_OF_SITES":1}},{"type":"Feature","id":39,"geometry":{"type":"Point","coordinates":[-76.99659130436592,38.902765453788696],"bbox":[-76.99659130436592,38.902765453788696,-76.99659130436592,38.902765453788696]},"properties":{"OBJECTID":39,"NAME":"J.O. Wilson Elementary School","ADDRESS":"660 K STREET NE","X":400295.87,"Y":137211.43,"ADDR_ID":288841,"LABEL":220,"TYPE":"INDOOR","NUMBER_OF_SITES":1}},{"type":"Feature","id":40,"geometry":{"type":"Point","coordinates":[-76.99571533476572,38.93771890457707],"bbox":[-76.99571533476572,38.93771890457707,-76.99571533476572,38.93771890457707]},"properties":{"OBJECTID":40,"NAME":"DCHA - Warehouse","ADDRESS":"675 TAYLOR STREET NE","X":400371.67,"Y":141091.56,"ADDR_ID":288846,"LABEL":95,"TYPE":"OUTDOOR","NUMBER_OF_SITES":1}},{"type":"Feature","id":41,"geometry":{"type":"Point","coordinates":[-77.02135260660532,38.93501066874128],"bbox":[-77.02135260660532,38.93501066874128,-77.02135260660532,38.93501066874128]},"properties":{"OBJECTID":41,"NAME":"Parkview Community Center","ADDRESS":"693 OTIS PLACE NW","X":398148.9,"Y":140791.13,"ADDR_ID":295160,"LABEL":304,"TYPE":"INDOOR","NUMBER_OF_SITES":1}},{"type":"Feature","id":42,"geometry":{"type":"Point","coordinates":[-76.99601133805383,38.92474650031799],"bbox":[-76.99601133805383,38.92474650031799,-76.99601133805383,38.92474650031799]},"properties":{"OBJECTID":42,"NAME":"D.C. Preparatory PCS - Edgewood Middle","ADDRESS":"701 EDGEWOOD STREET NE","X":400346.07,"Y":139651.51,"ADDR_ID":289579,"LABEL":74,"TYPE":"OUTDOOR","NUMBER_OF_SITES":1}},{"type":"Feature","id":43,"geometry":{"type":"Point","coordinates":[-77.0227972230375,38.97505034301654],"bbox":[-77.0227972230375,38.97505034301654,-77.0227972230375,38.97505034301654]},"properties":{"OBJECTID":43,"NAME":"Takoma Education Campus","ADDRESS":"7010 PINEY BRANCH ROAD NW","X":398024.76,"Y":145235.93,"ADDR_ID":250934,"LABEL":354,"TYPE":"INDOOR","NUMBER_OF_SITES":1}},{"type":"Feature","id":44,"geometry":{"type":"Point","coordinates":[-76.97189990584583,38.901999477082846],"bbox":[-76.97189990584583,38.901999477082846,-76.97189990584583,38.901999477082846]},"properties":{"OBJECTID":44,"NAME":"Phelps Architecture, Construction, and Engineering High School","ADDRESS":"704 26TH STREET NE","X":402437.64,"Y":137126.77,"ADDR_ID":294495,"LABEL":310,"TYPE":"INDOOR","NUMBER_OF_SITES":1}},{"type":"Feature","id":45,"geometry":{"type":"Point","coordinates":[-76.99585571697288,38.923652254220116],"bbox":[-76.99585571697288,38.923652254220116,-76.99585571697288,38.923652254220116]},"properties":{"OBJECTID":45,"NAME":"William E. Doar Jr. PCS for the Performing Arts","ADDRESS":"705 EDGEWOOD STREET NE","X":400359.57,"Y":139530.04,"ADDR_ID":289576,"LABEL":399,"TYPE":"OUTDOOR","NUMBER_OF_SITES":1}},{"type":"Feature","id":46,"geometry":{"type":"Point","coordinates":[-76.99573736068795,38.92428445392179],"bbox":[-76.99573736068795,38.92428445392179,-76.99573736068795,38.92428445392179]},"properties":{"OBJECTID":46,"NAME":"D.C. Preparatory Academy PCS - Edgewood Elementary Campus","ADDRESS":"707 EDGEWOOD STREET NE","X":400369.83,"Y":139600.22,"ADDR_ID":289577,"LABEL":73,"TYPE":"OUTDOOR","NUMBER_OF_SITES":1}},{"type":"Feature","id":47,"geometry":{"type":"Point","coordinates":[-76.99064265177616,38.88070218077481],"bbox":[-76.99064265177616,38.88070218077481,-76.99064265177616,38.88070218077481]},"properties":{"OBJECTID":47,"NAME":"Cesar Chavez","ADDRESS":"709 12TH STREET SE","X":400812.11,"Y":134762.27,"ADDR_ID":76726,"LABEL":51,"TYPE":"OUTDOOR","NUMBER_OF_SITES":1}},{"type":"Feature","id":48,"geometry":{"type":"Point","coordinates":[-77.01143403526092,38.90892548464464],"bbox":[-77.01143403526092,38.90892548464464,-77.01143403526092,38.90892548464464]},"properties":{"OBJECTID":48,"NAME":"Others","ADDRESS":"71 O STREET NW","X":399008.49,"Y":137895.3,"ADDR_ID":236922,"LABEL":297,"TYPE":"OUTDOOR","NUMBER_OF_SITES":1}},{"type":"Feature","id":49,"geometry":{"type":"Point","coordinates":[-77.02266781558147,38.90745197117722],"bbox":[-77.02266781558147,38.90745197117722,-77.02266781558147,38.90745197117722]},"properties":{"OBJECTID":49,"NAME":"Center City PCS - Shaw Campus","ADDRESS":"711 N STREET NW","X":398034.11,"Y":137731.91,"ADDR_ID":290191,"LABEL":49,"TYPE":"OUTDOOR","NUMBER_OF_SITES":1}},{"type":"Feature","id":50,"geometry":{"type":"Point","coordinates":[-77.03156081112677,38.898906743019424],"bbox":[-77.03156081112677,38.898906743019424,-77.03156081112677,38.898906743019424]},"properties":{"OBJECTID":50,"NAME":"DHS / Inspector General / Contract Appeals Board","ADDRESS":"717 14TH STREET NW","X":397262.45,"Y":136783.55,"ADDR_ID":279904,"LABEL":103,"TYPE":"INDOOR","NUMBER_OF_SITES":1}},{"type":"Feature","id":51,"geometry":{"type":"Point","coordinates":[-76.99504917103106,38.838853011831],"bbox":[-76.99504917103106,38.838853011831,-76.99504917103106,38.838853011831]},"properties":{"OBJECTID":51,"NAME":"Public Wi-Fi","ADDRESS":"720 MISSISSIPPI AVENUE SE","X":400430.02,"Y":130116.68000000001,"ADDR_ID":77659,"LABEL":316,"TYPE":"INDOOR","NUMBER_OF_SITES":1}},{"type":"Feature","id":52,"geometry":{"type":"Point","coordinates":[-77.02703774568067,38.98028835406811],"bbox":[-77.02703774568067,38.98028835406811,-77.02703774568067,38.98028835406811]},"properties":{"OBJECTID":52,"NAME":"Juanita E. Thornton - Shepherd Park Library","ADDRESS":"7420 GEORGIA AVENUE NW","X":397657.48,"Y":145817.5,"ADDR_ID":253522,"LABEL":228,"TYPE":"INDOOR+OUTDOOR","NUMBER_OF_SITES":2}},{"type":"Feature","id":53,"geometry":{"type":"Point","coordinates":[-77.0239792607167,38.92384021287527],"bbox":[-77.0239792607167,38.92384021287527,-77.0239792607167,38.92384021287527]},"properties":{"OBJECTID":53,"NAME":"Benjamin Banneker High School","ADDRESS":"800 EUCLID STREET NW","X":397920.84,"Y":139551.17,"ADDR_ID":294496,"LABEL":20,"TYPE":"INDOOR","NUMBER_OF_SITES":1}},{"type":"Feature","id":54,"geometry":{"type":"Point","coordinates":[-77.02507387055014,38.953976155311054],"bbox":[-77.02507387055014,38.953976155311054,-77.02507387055014,38.953976155311054]},"properties":{"OBJECTID":54,"NAME":"Truesdell Education Campus","ADDRESS":"800 INGRAHAM STREET NW","X":397826.84,"Y":142896.55,"ADDR_ID":294497,"LABEL":368,"TYPE":"INDOOR","NUMBER_OF_SITES":1}},{"type":"Feature","id":55,"geometry":{"type":"Point","coordinates":[-76.97822631080221,38.900817129071406],"bbox":[-76.97822631080221,38.900817129071406,-76.97822631080221,38.900817129071406]},"properties":{"OBJECTID":55,"NAME":"Community of Hope","ADDRESS":"801 17TH STREET NE","X":401888.91000000003,"Y":136995.37,"ADDR_ID":288960,"LABEL":65,"TYPE":"OUTDOOR","NUMBER_OF_SITES":1}},{"type":"Feature","id":56,"geometry":{"type":"Point","coordinates":[-77.02291294981048,38.879878381785296],"bbox":[-77.02291294981048,38.879878381785296,-77.02291294981048,38.879878381785296]},"properties":{"OBJECTID":56,"NAME":"Jefferson Middle School","ADDRESS":"801 7TH STREET SW","X":398012.08,"Y":134671.03,"ADDR_ID":276812,"LABEL":224,"TYPE":"INDOOR","NUMBER_OF_SITES":1}},{"type":"Feature","id":57,"geometry":{"type":"Point","coordinates":[-76.92446143985119,38.90057322205526],"bbox":[-76.92446143985119,38.90057322205526,-76.92446143985119,38.90057322205526]},"properties":{"OBJECTID":57,"NAME":"Burrville Elementary School","ADDRESS":"801 DIVISION AVENUE NE","X":406552.65,"Y":136970.78,"ADDR_ID":289787,"LABEL":33,"TYPE":"INDOOR","NUMBER_OF_SITES":1}},{"type":"Feature","id":58,"geometry":{"type":"Point","coordinates":[-77.00860802756662,38.900510394250986],"bbox":[-77.00860802756662,38.900510394250986,-77.00860802756662,38.900510394250986]},"properties":{"OBJECTID":58,"NAME":"CCDC - North Capitol St NE","ADDRESS":"801 NORTH CAPITOL STREET NE","X":399253.51,"Y":136961.13,"ADDR_ID":79625,"LABEL":44,"TYPE":"INDOOR","NUMBER_OF_SITES":1}},{"type":"Feature","id":59,"geometry":{"type":"Point","coordinates":[-77.0240058013211,38.94101715675945],"bbox":[-77.0240058013211,38.94101715675945,-77.0240058013211,38.94101715675945]},"properties":{"OBJECTID":59,"NAME":"Petworth Recreation Center","ADDRESS":"801 TAYLOR STREET NW","X":397919.04000000004,"Y":141457.96,"ADDR_ID":296169,"LABEL":309,"TYPE":"INDOOR","NUMBER_OF_SITES":1}},{"type":"Feature","id":60,"geometry":{"type":"Point","coordinates":[-77.00702797193013,38.900612925064],"bbox":[-77.00702797193013,38.900612925064,-77.00702797193013,38.900612925064]},"properties":{"OBJECTID":60,"NAME":"Financial Operations and Systems / OSSE","ADDRESS":"810 1ST STREET NE","X":399390.57,"Y":136972.5,"ADDR_ID":79999,"LABEL":173,"TYPE":"INDOOR","NUMBER_OF_SITES":1}},{"type":"Feature","id":61,"geometry":{"type":"Point","coordinates":[-76.99248399966513,38.82939318044801],"bbox":[-76.99248399966513,38.82939318044801,-76.99248399966513,38.82939318044801]},"properties":{"OBJECTID":61,"NAME":"Apartments","ADDRESS":"820 CHESAPEAKE STREET SE","X":400652.81,"Y":129066.59,"ADDR_ID":278623,"LABEL":7,"TYPE":"OUTDOOR","NUMBER_OF_SITES":1}},{"type":"Feature","id":62,"geometry":{"type":"Point","coordinates":[-77.00844830673321,38.901026134471344],"bbox":[-77.00844830673321,38.901026134471344,-77.00844830673321,38.901026134471344]},"properties":{"OBJECTID":62,"NAME":"DOH / OMCH / OEH","ADDRESS":"825 NORTH CAPITOL STREET NE","X":399267.37,"Y":137018.38,"ADDR_ID":289003,"LABEL":110,"TYPE":"INDOOR","NUMBER_OF_SITES":1}},{"type":"Feature","id":63,"geometry":{"type":"Point","coordinates":[-76.99133473211037,38.82944661109232],"bbox":[-76.99133473211037,38.82944661109232,-76.99133473211037,38.82944661109232]},"properties":{"OBJECTID":63,"NAME":"Chesapeake House","ADDRESS":"840 CHESAPEAKE STREET SE","X":400752.60000000003,"Y":129072.53,"ADDR_ID":81323,"LABEL":54,"TYPE":"OUTDOOR","NUMBER_OF_SITES":1}},{"type":"Feature","id":64,"geometry":{"type":"Point","coordinates":[-76.97066933279865,38.90260633790191],"bbox":[-76.97066933279865,38.90260633790191,-76.97066933279865,38.90260633790191]},"properties":{"OBJECTID":64,"NAME":"Browne Education Campus","ADDRESS":"850 26TH STREET NE","X":402544.36,"Y":137194.17,"ADDR_ID":294501,"LABEL":29,"TYPE":"INDOOR","NUMBER_OF_SITES":1}},{"type":"Feature","id":65,"geometry":{"type":"Point","coordinates":[-77.01242853400872,38.879542423824],"bbox":[-77.01242853400872,38.879542423824,-77.01242853400872,38.879542423824]},"properties":{"OBJECTID":65,"NAME":"UHC - Southwest","ADDRESS":"850 DELAWARE AVENUE SW","X":398921.79000000004,"Y":134633.56,"ADDR_ID":276851,"LABEL":379,"TYPE":"OUTDOOR","NUMBER_OF_SITES":1}},{"type":"Feature","id":66,"geometry":{"type":"Point","coordinates":[-77.01583406853985,38.878705402197],"bbox":[-77.01583406853985,38.878705402197,-77.01583406853985,38.878705402197]},"properties":{"OBJECTID":66,"NAME":"Southwest Neighborhood Library","ADDRESS":"900 WESLEY PLACE SW","X":398626.28,"Y":134540.69,"ADDR_ID":295165,"LABEL":347,"TYPE":"INDOOR+OUTDOOR","NUMBER_OF_SITES":2}},{"type":"Feature","id":67,"geometry":{"type":"Point","coordinates":[-77.0247685454895,38.898699116427295],"bbox":[-77.0247685454895,38.898699116427295,-77.0247685454895,38.898699116427295]},"properties":{"OBJECTID":67,"NAME":"Martin Luther King Jr. Memorial Library","ADDRESS":"901 G STREET NW","X":397851.64,"Y":136760.32,"ADDR_ID":239815,"LABEL":258,"TYPE":"INDOOR","NUMBER_OF_SITES":1}},{"type":"Feature","id":68,"geometry":{"type":"Point","coordinates":[-77.02626069103714,38.95214352229147],"bbox":[-77.02626069103714,38.95214352229147,-77.02626069103714,38.95214352229147]},"properties":{"OBJECTID":68,"NAME":"FEMS - Office","ADDRESS":"915 GALLATIN STREET NW","X":397723.91000000003,"Y":142693.14,"ADDR_ID":298231,"LABEL":168,"TYPE":"OUTDOOR","NUMBER_OF_SITES":1}},{"type":"Feature","id":69,"geometry":{"type":"Point","coordinates":[-76.99318531715507,38.8975724356777],"bbox":[-76.99318531715507,38.8975724356777,-76.99318531715507,38.8975724356777]},"properties":{"OBJECTID":69,"NAME":"Prospect Learning Center","ADDRESS":"920 F STREET NE","X":400591.35000000003,"Y":136634.98,"ADDR_ID":289072,"LABEL":315,"TYPE":"INDOOR","NUMBER_OF_SITES":1}},{"type":"Feature","id":70,"geometry":{"type":"Point","coordinates":[-77.01286974543966,38.96217232131974],"bbox":[-77.01286974543966,38.96217232131974,-77.01286974543966,38.96217232131974]},"properties":{"OBJECTID":70,"NAME":"Capital City PCS / Capital City PCS - Middle","ADDRESS":"100 PEABODY STREET NW","X":398884.8,"Y":143806.18,"ADDR_ID":277545,"LABEL":36,"TYPE":"OUTDOOR","NUMBER_OF_SITES":2}},{"type":"Feature","id":71,"geometry":{"type":"Point","coordinates":[-76.9885030510634,38.90412519953248],"bbox":[-76.9885030510634,38.90412519953248,-76.9885030510634,38.90412519953248]},"properties":{"OBJECTID":71,"NAME":"Joseph H. Cole Recreation Center /  Wheatley Education Campus","ADDRESS":"1299 NEAL STREET NE","X":400997.43,"Y":137362.43,"ADDR_ID":294512,"LABEL":227,"TYPE":"INDOOR","NUMBER_OF_SITES":2}},{"type":"Feature","id":72,"geometry":{"type":"Point","coordinates":[-76.94048721040234,38.90823652375253],"bbox":[-76.94048721040234,38.90823652375253,-76.94048721040234,38.90823652375253]},"properties":{"OBJECTID":72,"NAME":"Kenilworth Elementary School / Kenilworth-Parkside Recreation Center","ADDRESS":"1300 44TH STREET NE","X":405161.97000000003,"Y":137820.44,"ADDR_ID":294516,"LABEL":230,"TYPE":"INDOOR","NUMBER_OF_SITES":2}},{"type":"Feature","id":73,"geometry":{"type":"Point","coordinates":[-76.93215784256401,38.90845241862821],"bbox":[-76.93215784256401,38.90845241862821,-76.93215784256401,38.90845241862821]},"properties":{"OBJECTID":73,"NAME":"Deanwood Recreation Center / Deanwood Neighborhood Library","ADDRESS":"1350 49TH STREET NE","X":405884.39,"Y":137844.91,"ADDR_ID":307551,"LABEL":101,"TYPE":"INDOOR","NUMBER_OF_SITES":2}},{"type":"Feature","id":74,"geometry":{"type":"Point","coordinates":[-76.98113829028553,38.90808143103589],"bbox":[-76.98113829028553,38.90808143103589,-76.98113829028553,38.90808143103589]},"properties":{"OBJECTID":74,"NAME":"KIPP DC: Connect Academy PCS / KIPP DC - Spring Academy PCS","ADDRESS":"1375 MOUNT OLIVET ROAD NE","X":401636.15,"Y":137801.71,"ADDR_ID":286108,"LABEL":236,"TYPE":"OUTDOOR","NUMBER_OF_SITES":2}},{"type":"Feature","id":75,"geometry":{"type":"Point","coordinates":[-76.99399887339254,38.90944378009004],"bbox":[-76.99399887339254,38.90944378009004,-76.99399887339254,38.90944378009004]},"properties":{"OBJECTID":75,"NAME":"Hamilton Center / C.H.O.I.C.E. Academy Middle / High School","ADDRESS":"1401 BRENTWOOD PARKWAY NE","X":400520.69,"Y":137952.79,"ADDR_ID":294521,"LABEL":192,"TYPE":"INDOOR","NUMBER_OF_SITES":2}},{"type":"Feature","id":76,"geometry":{"type":"Point","coordinates":[-77.01717152231097,38.81504228451615],"bbox":[-77.01717152231097,38.81504228451615,-77.01717152231097,38.81504228451615]},"properties":{"OBJECTID":76,"NAME":"Shepherd Parkway Bus Facility","ADDRESS":"2 DC VILLAGE LANE SW","X":398508.9,"Y":127473.66,"ADDR_ID":299538,"LABEL":339,"TYPE":"OUTDOOR","NUMBER_OF_SITES":1}},{"type":"Feature","id":77,"geometry":{"type":"Point","coordinates":[-76.97647989889131,38.91895626322897],"bbox":[-76.97647989889131,38.91895626322897,-76.97647989889131,38.91895626322897]},"properties":{"OBJECTID":77,"NAME":"Adams Pl Bus Lot (OCD) / DCPS Warehouse","ADDRESS":"2000 ADAMS PLACE NE","X":402039.88,"Y":139009,"ADDR_ID":286574,"LABEL":1,"TYPE":"INDOOR+OUTDOOR","NUMBER_OF_SITES":3}},{"type":"Feature","id":78,"geometry":{"type":"Point","coordinates":[-77.0216229772062,38.92061614307268],"bbox":[-77.0216229772062,38.92061614307268,-77.0216229772062,38.92061614307268]},"properties":{"OBJECTID":78,"NAME":"Howard University ILAB / Howard University ISAS","ADDRESS":"2301 GEORGIA AVENUE NW","X":398125.08,"Y":139193.22,"ADDR_ID":229522,"LABEL":214,"TYPE":"OUTDOOR","NUMBER_OF_SITES":2}},{"type":"Feature","id":79,"geometry":{"type":"Point","coordinates":[-76.97098963944386,38.89910198591156],"bbox":[-76.97098963944386,38.89910198591156,-76.97098963944386,38.89910198591156]},"properties":{"OBJECTID":79,"NAME":"Spingarn High School / Spingarn STAY High School","ADDRESS":"2500 BENNING ROAD NE","X":402516.7,"Y":136805.15,"ADDR_ID":294545,"LABEL":348,"TYPE":"INDOOR","NUMBER_OF_SITES":2}},{"type":"Feature","id":80,"geometry":{"type":"Point","coordinates":[-76.95763596870484,38.92731373812967],"bbox":[-76.95763596870484,38.92731373812967,-76.95763596870484,38.92731373812967]},"properties":{"OBJECTID":80,"NAME":"Thurgood Marshall Recreation Center / Marshall Elementary School","ADDRESS":"3100 FORT LINCOLN DRIVE NE","X":403673.61,"Y":139937.34,"ADDR_ID":294553,"LABEL":364,"TYPE":"INDOOR","NUMBER_OF_SITES":2}},{"type":"Feature","id":81,"geometry":{"type":"Point","coordinates":[-76.99410283530892,38.84152667639647],"bbox":[-76.99410283530892,38.84152667639647,-76.99410283530892,38.84152667639647]},"properties":{"OBJECTID":81,"NAME":"Somerset Preparatory Academy PCS / M.C. Terrell / McGogney Elementary School","ADDRESS":"3301 WHEELER ROAD SE","X":400512.16000000003,"Y":130413.48,"ADDR_ID":294563,"LABEL":344,"TYPE":"INDOOR","NUMBER_OF_SITES":2}},{"type":"Feature","id":82,"geometry":{"type":"Point","coordinates":[-77.0009775434966,38.83939010653733],"bbox":[-77.0009775434966,38.83939010653733,-77.0009775434966,38.83939010653733]},"properties":{"OBJECTID":82,"NAME":"Ballou High School / Ballou STAY High School","ADDRESS":"3401 4TH STREET SE","X":399915.33,"Y":130176.29000000001,"ADDR_ID":294567,"LABEL":13,"TYPE":"INDOOR+OUTDOOR","NUMBER_OF_SITES":3}},{"type":"Feature","id":83,"geometry":{"type":"Point","coordinates":[-76.99516571575832,38.83235134195328],"bbox":[-76.99516571575832,38.83235134195328,-76.99516571575832,38.83235134195328]},"properties":{"OBJECTID":83,"NAME":"Ferebee-Hope Elementary School / Ferebee-Hope Recreation Center","ADDRESS":"3999 8TH STREET SE","X":400419.94,"Y":129394.95,"ADDR_ID":294588,"LABEL":171,"TYPE":"INDOOR","NUMBER_OF_SITES":2}},{"type":"Feature","id":84,"geometry":{"type":"Point","coordinates":[-77.0790761057948,38.92305210258978],"bbox":[-77.0790761057948,38.92305210258978,-77.0790761057948,38.92305210258978]},"properties":{"OBJECTID":84,"NAME":"Stoddert Elementary School / Stoddert Recreation Center","ADDRESS":"4001 CALVERT STREET NW","X":393143.05,"Y":139466.38,"ADDR_ID":224730,"LABEL":351,"TYPE":"INDOOR","NUMBER_OF_SITES":2}},{"type":"Feature","id":85,"geometry":{"type":"Point","coordinates":[-77.01812758723682,38.87952285065163],"bbox":[-77.01812758723682,38.87952285065163,-77.01812758723682,38.87952285065163]},"properties":{"OBJECTID":85,"NAME":"Amidon Elementary School / AppleTree Early Learning PCS","ADDRESS":"401 I STREET SW","X":398427.29000000004,"Y":134631.47,"ADDR_ID":294482,"LABEL":3,"TYPE":"INDOOR","NUMBER_OF_SITES":2}},{"type":"Feature","id":86,"geometry":{"type":"Point","coordinates":[-76.98999904872527,38.8834744591022],"bbox":[-76.98999904872527,38.8834744591022,-76.98999904872527,38.8834744591022]},"properties":{"OBJECTID":86,"NAME":"Watkins Elementary School / Watkins Recreation Center","ADDRESS":"420 12TH STREET SE","X":400867.92,"Y":135070.02,"ADDR_ID":294486,"LABEL":393,"TYPE":"INDOOR","NUMBER_OF_SITES":2}},{"type":"Feature","id":87,"geometry":{"type":"Point","coordinates":[-76.99986026986704,38.892903777306],"bbox":[-76.99986026986704,38.892903777306,-76.99986026986704,38.892903777306]},"properties":{"OBJECTID":87,"NAME":"Peabody Elementary School / School-Within-School @ Peabody","ADDRESS":"425 C STREET NE","X":400012.32,"Y":136116.7,"ADDR_ID":288145,"LABEL":307,"TYPE":"INDOOR","NUMBER_OF_SITES":2}},{"type":"Feature","id":88,"geometry":{"type":"Point","coordinates":[-77.02919914684153,38.94303689465275],"bbox":[-77.02919914684153,38.94303689465275,-77.02919914684153,38.94303689465275]},"properties":{"OBJECTID":88,"NAME":"CCDC - 13th Street / Hospitality High School (Roosevelt High School)","ADDRESS":"4301 13TH STREET NW","X":397468.88,"Y":141682.3,"ADDR_ID":252605,"LABEL":41,"TYPE":"INDOOR","NUMBER_OF_SITES":2}},{"type":"Feature","id":89,"geometry":{"type":"Point","coordinates":[-76.99988483141722,38.95997960935011],"bbox":[-76.99988483141722,38.95997960935011,-76.99988483141722,38.95997960935011]},"properties":{"OBJECTID":89,"NAME":"LaSalle-Backus Education Campus / Riggs LaSalle Recreation Center","ADDRESS":"501 RIGGS ROAD NE","X":400010.18,"Y":143562.69,"ADDR_ID":294489,"LABEL":247,"TYPE":"INDOOR","NUMBER_OF_SITES":2}},{"type":"Feature","id":90,"geometry":{"type":"Point","coordinates":[-76.92063752276401,38.89029889194943],"bbox":[-76.92063752276401,38.89029889194943,-76.92063752276401,38.89029889194943]},"properties":{"OBJECTID":90,"NAME":"Maya Angelou PCS / Young Adult Learning Center PCS","ADDRESS":"5600 EAST CAPITOL STREET NE","X":406885.34,"Y":135830.53,"ADDR_ID":289793,"LABEL":263,"TYPE":"OUTDOOR","NUMBER_OF_SITES":2}},{"type":"Feature","id":91,"geometry":{"type":"Point","coordinates":[-77.02643495398235,38.935818665270325],"bbox":[-77.02643495398235,38.935818665270325,-77.02643495398235,38.935818665270325]},"properties":{"OBJECTID":91,"NAME":"Raymond Recreation Center &  Education Campus / Fillmore Arts Center (East)","ADDRESS":"915 SPRING ROAD NW","X":397708.28,"Y":140880.94,"ADDR_ID":226682,"LABEL":320,"TYPE":"INDOOR","NUMBER_OF_SITES":3}},{"type":"Feature","id":92,"geometry":{"type":"Point","coordinates":[-77.06432657926098,38.94444137695885],"bbox":[-77.06432657926098,38.94444137695885,-77.06432657926098,38.94444137695885]},"properties":{"OBJECTID":92,"NAME":"UDC / CCDC / UDC - Institute of Gerontology - BODYWISE Program","ADDRESS":"4200 CONNECTICUT AVENUE NW","X":394423.74,"Y":141839.77,"ADDR_ID":297694,"LABEL":374,"TYPE":"INDOOR","NUMBER_OF_SITES":3}},{"type":"Feature","id":93,"geometry":{"type":"Point","coordinates":[-77.01811962654844,38.9098938468423],"bbox":[-77.01811962654844,38.9098938468423,-77.01811962654844,38.9098938468423]},"properties":{"OBJECTID":93,"NAME":"KIPP DC: Grow Academy PCS /  PCS - Lead Academy /  WILL Academy","ADDRESS":"421 P STREET NW","X":398428.65,"Y":138002.89,"ADDR_ID":294487,"LABEL":237,"TYPE":"INDOOR","NUMBER_OF_SITES":3}},{"type":"Feature","id":94,"geometry":{"type":"Point","coordinates":[-77.00308911908458,38.823911366299264],"bbox":[-77.00308911908458,38.823911366299264,-77.00308911908458,38.823911366299264]},"properties":{"OBJECTID":94,"NAME":"CCDC - Livingston Rd SE / Ingenuity Prep PCS / NCP PC High School","ADDRESS":"4600 LIVINGSTON ROAD SE","X":399731.95,"Y":128458.05,"ADDR_ID":294600,"LABEL":43,"TYPE":"INDOOR","NUMBER_OF_SITES":3}},{"type":"Feature","id":95,"geometry":{"type":"Point","coordinates":[-76.93439653242692,38.8826349887968],"bbox":[-76.93439653242692,38.8826349887968,-76.93439653242692,38.8826349887968]},"properties":{"OBJECTID":95,"NAME":"KIPP DC: Promise Academy PCS / KEY Academy PCS / LEAP Academy PCS","ADDRESS":"4801 BENNING ROAD SE","X":405692.28,"Y":134978.83,"ADDR_ID":17421,"LABEL":238,"TYPE":"OUTDOOR","NUMBER_OF_SITES":3}},{"type":"Feature","id":96,"geometry":{"type":"Point","coordinates":[-77.07511092995016,38.965166218868454],"bbox":[-77.07511092995016,38.965166218868454,-77.07511092995016,38.965166218868454]},"properties":{"OBJECTID":96,"NAME":"Chevy Chase Community Center / Transition Academy @ Shadd / DC Scholars PCS","ADDRESS":"5601 CONNECTICUT AVENUE NW","X":393490.74,"Y":144141.13,"ADDR_ID":263959,"LABEL":55,"TYPE":"INDOOR","NUMBER_OF_SITES":3}},{"type":"Feature","id":97,"geometry":{"type":"Point","coordinates":[-76.94482374836551,38.891029256528704],"bbox":[-76.94482374836551,38.891029256528704,-76.94482374836551,38.891029256528704]},"properties":{"OBJECTID":97,"NAME":"D.C. Preparatory Academy PCS - Benning Elementary Campus","ADDRESS":"100 41ST STREET NE","X":404787,"Y":135910.06,"ADDR_ID":294468,"LABEL":72,"TYPE":"OUTDOOR","NUMBER_OF_SITES":1}},{"type":"Feature","id":98,"geometry":{"type":"Point","coordinates":[-76.94288758286443,38.89249128608558],"bbox":[-76.94288758286443,38.89249128608558,-76.94288758286443,38.89249128608558]},"properties":{"OBJECTID":98,"NAME":"Sixth District (6D)","ADDRESS":"100 42ND STREET NE","X":404954.87,"Y":136072.46,"ADDR_ID":294469,"LABEL":342,"TYPE":"OUTDOOR","NUMBER_OF_SITES":1}},{"type":"Feature","id":99,"geometry":{"type":"Point","coordinates":[-77.00722725374621,38.95252090264419],"bbox":[-77.00722725374621,38.95252090264419,-77.00722725374621,38.95252090264419]},"properties":{"OBJECTID":99,"NAME":"Mamie D. Lee School","ADDRESS":"100 GALLATIN STREET NE","X":399373.74,"Y":142734.73,"ADDR_ID":294470,"LABEL":254,"TYPE":"INDOOR","NUMBER_OF_SITES":1}},{"type":"Feature","id":100,"geometry":{"type":"Point","coordinates":[-77.01016401193681,38.81889765596578],"bbox":[-77.01016401193681,38.81889765596578,-77.01016401193681,38.81889765596578]},"properties":{"OBJECTID":100,"NAME":"Bald Eagle Recreation Center","ADDRESS":"100 JOLIET STREET SW","X":399117.53,"Y":127901.54000000001,"ADDR_ID":301277,"LABEL":12,"TYPE":"INDOOR","NUMBER_OF_SITES":1}},{"type":"Feature","id":101,"geometry":{"type":"Point","coordinates":[-76.94824658436114,38.88884827335816],"bbox":[-76.94824658436114,38.88884827335816,-76.94824658436114,38.88884827335816]},"properties":{"OBJECTID":101,"NAME":"Benning Stoddert Community Center","ADDRESS":"100 STODDERT PLACE SE","X":404490.19,"Y":135667.78,"ADDR_ID":295821,"LABEL":22,"TYPE":"INDOOR","NUMBER_OF_SITES":1}},{"type":"Feature","id":102,"geometry":{"type":"Point","coordinates":[-76.98858811908718,38.912147050914335],"bbox":[-76.98858811908718,38.912147050914335,-76.98858811908718,38.912147050914335]},"properties":{"OBJECTID":102,"NAME":"Youth Services Center","ADDRESS":"1000 MOUNT OLIVET ROAD NE","X":400989.94,"Y":138252.92,"ADDR_ID":290013,"LABEL":405,"TYPE":"INDOOR+OUTDOOR","NUMBER_OF_SITES":2}},{"type":"Feature","id":103,"geometry":{"type":"Point","coordinates":[-76.99204394250515,38.88109180742631],"bbox":[-76.99204394250515,38.88109180742631,-76.99204394250515,38.88109180742631]},"properties":{"OBJECTID":103,"NAME":"Tyler Elementary School","ADDRESS":"1001 G STREET SE","X":400690.52,"Y":134805.51,"ADDR_ID":294505,"LABEL":372,"TYPE":"INDOOR","NUMBER_OF_SITES":1}},{"type":"Feature","id":104,"geometry":{"type":"Point","coordinates":[-76.99208608719246,38.93131975731529],"bbox":[-76.99208608719246,38.93131975731529,-76.99208608719246,38.93131975731529]},"properties":{"OBJECTID":104,"NAME":"Behavioral Health Services","ADDRESS":"1001 LAWRENCE STREET NE","X":400686.38,"Y":140381.22,"ADDR_ID":289589,"LABEL":19,"TYPE":"OUTDOOR","NUMBER_OF_SITES":1}},{"type":"Feature","id":105,"geometry":{"type":"Point","coordinates":[-76.99231860919365,38.932283841906624],"bbox":[-76.99231860919365,38.932283841906624,-76.99231860919365,38.932283841906624]},"properties":{"OBJECTID":105,"NAME":"Luke C. Moore High School","ADDRESS":"1001 MONROE STREET NE","X":400666.21,"Y":140488.24,"ADDR_ID":294504,"LABEL":250,"TYPE":"INDOOR","NUMBER_OF_SITES":1}},{"type":"Feature","id":106,"geometry":{"type":"Point","coordinates":[-77.00514970493523,38.83090276724156],"bbox":[-77.00514970493523,38.83090276724156,-77.00514970493523,38.83090276724156]},"properties":{"OBJECTID":106,"NAME":"Engine 33 Station","ADDRESS":"101 ATLANTIC STREET SE","X":399553.06,"Y":129234.15000000001,"ADDR_ID":294471,"LABEL":157,"TYPE":"INDOOR+OUTDOOR","NUMBER_OF_SITES":2}},{"type":"Feature","id":107,"geometry":{"type":"Point","coordinates":[-77.01269376420728,38.90763400802003],"bbox":[-77.01269376420728,38.90763400802003,-77.01269376420728,38.90763400802003]},"properties":{"OBJECTID":107,"NAME":"Dunbar High School","ADDRESS":"101 N STREET NW","X":398899.21,"Y":137751.95,"ADDR_ID":309947,"LABEL":121,"TYPE":"INDOOR","NUMBER_OF_SITES":1}},{"type":"Feature","id":108,"geometry":{"type":"Point","coordinates":[-77.0058889110303,38.91517624289987],"bbox":[-77.0058889110303,38.91517624289987,-77.0058889110303,38.91517624289987]},"properties":{"OBJECTID":108,"NAME":"Langley Education Campus","ADDRESS":"101 T STREET NE","X":399489.48,"Y":138589.14,"ADDR_ID":285757,"LABEL":246,"TYPE":"INDOOR","NUMBER_OF_SITES":1}},{"type":"Feature","id":109,"geometry":{"type":"Point","coordinates":[-77.03001791312617,38.90331845299846],"bbox":[-77.03001791312617,38.90331845299846,-77.03001791312617,38.90331845299846]},"properties":{"OBJECTID":109,"NAME":"Engine 16 Station","ADDRESS":"1018 13TH STREET NW","X":397396.45,"Y":137273.24,"ADDR_ID":240645,"LABEL":139,"TYPE":"INDOOR","NUMBER_OF_SITES":1}},{"type":"Feature","id":110,"geometry":{"type":"Point","coordinates":[-77.03499846256523,38.90406782335894],"bbox":[-77.03499846256523,38.90406782335894,-77.03499846256523,38.90406782335894]},"properties":{"OBJECTID":110,"NAME":"OCTO OAG","ADDRESS":"1100 15TH STREET NW","X":396964.47000000003,"Y":137356.58,"ADDR_ID":278811,"LABEL":291,"TYPE":"INDOOR","NUMBER_OF_SITES":1}},{"type":"Feature","id":111,"geometry":{"type":"Point","coordinates":[-77.01716180534368,38.877621504691085],"bbox":[-77.01716180534368,38.877621504691085,-77.01716180534368,38.877621504691085]},"properties":{"OBJECTID":111,"NAME":"Waterfront East Tower","ADDRESS":"1100 4TH STREET SW","X":398511.05,"Y":134420.39,"ADDR_ID":307170,"LABEL":392,"TYPE":"INDOOR","NUMBER_OF_SITES":1}},{"type":"Feature","id":112,"geometry":{"type":"Point","coordinates":[-76.9299499086104,38.90542277817764],"bbox":[-76.9299499086104,38.90542277817764,-76.9299499086104,38.90542277817764]},"properties":{"OBJECTID":112,"NAME":"Houston Elementary School","ADDRESS":"1100 50TH PLACE NE","X":406076.15,"Y":137508.74,"ADDR_ID":156316,"LABEL":211,"TYPE":"INDOOR","NUMBER_OF_SITES":1}},{"type":"Feature","id":113,"geometry":{"type":"Point","coordinates":[-76.99260230753028,38.93807178423246],"bbox":[-76.99260230753028,38.93807178423246,-76.99260230753028,38.93807178423246]},"properties":{"OBJECTID":113,"NAME":"Turkey Thicket Recreation Center","ADDRESS":"1100 MICHIGAN AVENUE NE","X":400641.56,"Y":141130.75,"ADDR_ID":74603,"LABEL":370,"TYPE":"INDOOR","NUMBER_OF_SITES":1}},{"type":"Feature","id":114,"geometry":{"type":"Point","coordinates":[-77.0511002070638,38.90402693754266],"bbox":[-77.0511002070638,38.90402693754266,-77.0511002070638,38.90402693754266]},"properties":{"OBJECTID":114,"NAME":"West End Neighborhood Library","ADDRESS":"1101 24TH STREET NW","X":395567.82,"Y":137352.7,"ADDR_ID":218248,"LABEL":396,"TYPE":"INDOOR+OUTDOOR","NUMBER_OF_SITES":2}},{"type":"Feature","id":115,"geometry":{"type":"Point","coordinates":[-77.01123207062344,38.87693641642037],"bbox":[-77.01123207062344,38.87693641642037,-77.01123207062344,38.87693641642037]},"properties":{"OBJECTID":115,"NAME":"Engine 7 Station","ADDRESS":"1101 HALF STREET SW","X":399025.57,"Y":134344.26,"ADDR_ID":277735,"LABEL":161,"TYPE":"INDOOR+OUTDOOR","NUMBER_OF_SITES":2}},{"type":"Feature","id":116,"geometry":{"type":"Point","coordinates":[-77.01391798047297,38.90419943483584],"bbox":[-77.01391798047297,38.90419943483584,-77.01391798047297,38.90419943483584]},"properties":{"OBJECTID":116,"NAME":"Walker-Jones Education Campus","ADDRESS":"1125 NEW JERSEY AVENUE NW","X":398792.97000000003,"Y":137370.7,"ADDR_ID":307735,"LABEL":389,"TYPE":"INDOOR","NUMBER_OF_SITES":1}},{"type":"Feature","id":117,"geometry":{"type":"Point","coordinates":[-77.02860316171937,38.93622785227021],"bbox":[-77.02860316171937,38.93622785227021,-77.02860316171937,38.93622785227021]},"properties":{"OBJECTID":117,"NAME":"DMH Facility","ADDRESS":"1125 SPRING ROAD NW","X":397520.31,"Y":140926.42,"ADDR_ID":283920,"LABEL":104,"TYPE":"INDOOR","NUMBER_OF_SITES":1}},{"type":"Feature","id":118,"geometry":{"type":"Point","coordinates":[-77.00824656809984,38.905080449315825],"bbox":[-77.00824656809984,38.905080449315825,-77.00824656809984,38.905080449315825]},"properties":{"OBJECTID":118,"NAME":"DCHA - Central Headquarters","ADDRESS":"1133 NORTH CAPITOL STREET NE","X":399284.91000000003,"Y":137468.44,"ADDR_ID":149791,"LABEL":85,"TYPE":"OUTDOOR","NUMBER_OF_SITES":1}},{"type":"Feature","id":119,"geometry":{"type":"Point","coordinates":[-77.02741069165684,38.9054217336655],"bbox":[-77.02741069165684,38.9054217336655,-77.02741069165684,38.9054217336655]},"properties":{"OBJECTID":119,"NAME":"Office of Aging","ADDRESS":"1134 11TH STREET NW","X":397622.67,"Y":137506.65,"ADDR_ID":239118,"LABEL":294,"TYPE":"INDOOR","NUMBER_OF_SITES":1}},{"type":"Feature","id":120,"geometry":{"type":"Point","coordinates":[-77.00948951761792,38.90512755871377],"bbox":[-77.00948951761792,38.90512755871377,-77.00948951761792,38.90512755871377]},"properties":{"OBJECTID":120,"NAME":"DCHA - Sibley","ADDRESS":"1140 NORTH CAPITOL STREET NW","X":399177.10000000003,"Y":137473.68,"ADDR_ID":285576,"LABEL":93,"TYPE":"OUTDOOR","NUMBER_OF_SITES":1}},{"type":"Feature","id":121,"geometry":{"type":"Point","coordinates":[-77.0093671861083,38.83133328966637],"bbox":[-77.0093671861083,38.83133328966637,-77.0093671861083,38.83133328966637]},"properties":{"OBJECTID":121,"NAME":"William O. Lockridge / Bellevue Neighborhood Library","ADDRESS":"115 ATLANTIC STREET SW","X":399186.87,"Y":129281.97,"ADDR_ID":302935,"LABEL":400,"TYPE":"INDOOR+OUTDOOR","NUMBER_OF_SITES":2}},{"type":"Feature","id":122,"geometry":{"type":"Point","coordinates":[-77.02830180343888,38.905206311651646],"bbox":[-77.02830180343888,38.905206311651646,-77.02830180343888,38.905206311651646]},"properties":{"OBJECTID":122,"NAME":"Horizon House Apartments","ADDRESS":"1150 12TH STREET NW","X":397545.37,"Y":137482.76,"ADDR_ID":278887,"LABEL":209,"TYPE":"OUTDOOR","NUMBER_OF_SITES":1}},{"type":"Feature","id":123,"geometry":{"type":"Point","coordinates":[-76.99924627835114,38.87680390031053],"bbox":[-76.99924627835114,38.87680390031053,-76.99924627835114,38.87680390031053]},"properties":{"OBJECTID":123,"NAME":"Van Ness Elementary School","ADDRESS":"1150 5TH STREET SE","X":400065.60000000003,"Y":134329.49,"ADDR_ID":294508,"LABEL":387,"TYPE":"INDOOR","NUMBER_OF_SITES":1}},{"type":"Feature","id":124,"geometry":{"type":"Point","coordinates":[-76.9390776086392,38.90567355199642],"bbox":[-76.9390776086392,38.90567355199642,-76.9390776086392,38.90567355199642]},"properties":{"OBJECTID":124,"NAME":"DCHA - Fleet Management","ADDRESS":"1155 KENILWORTH AVENUE NE","X":405284.42,"Y":137536.01,"ADDR_ID":309171,"LABEL":86,"TYPE":"OUTDOOR","NUMBER_OF_SITES":1}},{"type":"Feature","id":125,"geometry":{"type":"Point","coordinates":[-77.00635797511066,38.90609499782535],"bbox":[-77.00635797511066,38.90609499782535,-77.00635797511066,38.90609499782535]},"properties":{"OBJECTID":125,"NAME":"DCPS HQ / DDOE","ADDRESS":"1200 1ST STREET NE","X":399448.73,"Y":137581.05,"ADDR_ID":302635,"LABEL":98,"TYPE":"INDOOR","NUMBER_OF_SITES":1}},{"type":"Feature","id":126,"geometry":{"type":"Point","coordinates":[-77.01326030722427,38.87593978483972],"bbox":[-77.01326030722427,38.87593978483972,-77.01326030722427,38.87593978483972]},"properties":{"OBJECTID":126,"NAME":"Greenleaf Senior Center","ADDRESS":"1200 DELAWARE AVENUE SW","X":398849.56,"Y":134233.65,"ADDR_ID":72281,"LABEL":189,"TYPE":"OUTDOOR","NUMBER_OF_SITES":1}},{"type":"Feature","id":127,"geometry":{"type":"Point","coordinates":[-77.02843232519746,38.90350379119716],"bbox":[-77.02843232519746,38.90350379119716,-77.02843232519746,38.90350379119716]},"properties":{"OBJECTID":127,"NAME":"Thomson Elementary School","ADDRESS":"1200 L STREET NW","X":397533.99,"Y":137293.77,"ADDR_ID":240922,"LABEL":362,"TYPE":"INDOOR","NUMBER_OF_SITES":1}},{"type":"Feature","id":128,"geometry":{"type":"Point","coordinates":[-77.02861484945453,38.91390874725564],"bbox":[-77.02861484945453,38.91390874725564,-77.02861484945453,38.91390874725564]},"properties":{"OBJECTID":128,"NAME":"Garrison Elementary School","ADDRESS":"1200 S STREET NW","X":397518.52,"Y":138448.81,"ADDR_ID":294509,"LABEL":186,"TYPE":"INDOOR","NUMBER_OF_SITES":1}},{"type":"Feature","id":129,"geometry":{"type":"Point","coordinates":[-76.9899364706625,38.92021530886813],"bbox":[-76.9899364706625,38.92021530886813,-76.9899364706625,38.92021530886813]},"properties":{"OBJECTID":129,"NAME":"UHC - Brentwood Square","ADDRESS":"1201 BRENTWOOD ROAD NE","X":400872.9,"Y":139148.55,"ADDR_ID":149821,"LABEL":376,"TYPE":"OUTDOOR","NUMBER_OF_SITES":1}},{"type":"Feature","id":130,"geometry":{"type":"Point","coordinates":[-77.00161464547577,38.9063468530538],"bbox":[-77.00161464547577,38.9063468530538,-77.00161464547577,38.9063468530538]},"properties":{"OBJECTID":130,"NAME":"MPD Narcotics & Special Invest (NSID)","ADDRESS":"1215 3RD STREET NE","X":399860.15,"Y":137608.99,"ADDR_ID":71435,"LABEL":276,"TYPE":"OUTDOOR","NUMBER_OF_SITES":1}},{"type":"Feature","id":131,"geometry":{"type":"Point","coordinates":[-76.99120446364059,38.905306609295955],"bbox":[-76.99120446364059,38.905306609295955,-76.99120446364059,38.905306609295955]},"properties":{"OBJECTID":131,"NAME":"Center City PCS - Trinidad Campus","ADDRESS":"1217 WEST VIRGINIA AVENUE NE","X":400763.10000000003,"Y":137493.55,"ADDR_ID":285938,"LABEL":50,"TYPE":"OUTDOOR","NUMBER_OF_SITES":1}},{"type":"Feature","id":132,"geometry":{"type":"Point","coordinates":[-77.02881983685562,38.90586055167696],"bbox":[-77.02881983685562,38.90586055167696,-77.02881983685562,38.90586055167696]},"properties":{"OBJECTID":132,"NAME":"Claridge Towers","ADDRESS":"1221 M STREET NW","X":397500.46,"Y":137555.4,"ADDR_ID":278959,"LABEL":59,"TYPE":"OUTDOOR","NUMBER_OF_SITES":1}},{"type":"Feature","id":133,"geometry":{"type":"Point","coordinates":[-76.98922823498488,38.881095004913504],"bbox":[-76.98922823498488,38.881095004913504,-76.98922823498488,38.881095004913504]},"properties":{"OBJECTID":133,"NAME":"Potomac Gardens Housing","ADDRESS":"1225 G STREET SE","X":400934.83,"Y":134805.89,"ADDR_ID":290351,"LABEL":313,"TYPE":"OUTDOOR","NUMBER_OF_SITES":1}},{"type":"Feature","id":134,"geometry":{"type":"Point","coordinates":[-77.05276632150067,38.9060060528651],"bbox":[-77.05276632150067,38.9060060528651,-77.05276632150067,38.9060060528651]},"properties":{"OBJECTID":134,"NAME":"Office Building","ADDRESS":"1227 25TH STREET NW","X":395423.43,"Y":137572.48,"ADDR_ID":273948,"LABEL":292,"TYPE":"INDOOR","NUMBER_OF_SITES":1}},{"type":"Feature","id":135,"geometry":{"type":"Point","coordinates":[-76.9899304932192,38.932334017035046],"bbox":[-76.9899304932192,38.932334017035046,-76.9899304932192,38.932334017035046]},"properties":{"OBJECTID":135,"NAME":"Engine 17 Station","ADDRESS":"1227 MONROE STREET NE","X":400873.27,"Y":140493.83,"ADDR_ID":294510,"LABEL":140,"TYPE":"INDOOR","NUMBER_OF_SITES":1}},{"type":"Feature","id":136,"geometry":{"type":"Point","coordinates":[-76.93751186115418,38.89117214023069],"bbox":[-76.93751186115418,38.89117214023069,-76.93751186115418,38.89117214023069]},"properties":{"OBJECTID":136,"NAME":"UHC - East of River","ADDRESS":"123 45TH STREET NE","X":405421.33,"Y":135926.33,"ADDR_ID":301415,"LABEL":377,"TYPE":"OUTDOOR","NUMBER_OF_SITES":1}},{"type":"Feature","id":137,"geometry":{"type":"Point","coordinates":[-76.99665184700306,38.860616734011614],"bbox":[-76.99665184700306,38.860616734011614,-76.99665184700306,38.860616734011614]},"properties":{"OBJECTID":137,"NAME":"Barry Farm Recreation Center","ADDRESS":"1230 SUMNER ROAD SE","X":400290.79000000004,"Y":132532.6,"ADDR_ID":285960,"LABEL":17,"TYPE":"OUTDOOR","NUMBER_OF_SITES":1}},{"type":"Feature","id":138,"geometry":{"type":"Point","coordinates":[-76.98865978038536,38.89219264672113],"bbox":[-76.98865978038536,38.89219264672113,-76.98865978038536,38.89219264672113]},"properties":{"OBJECTID":138,"NAME":"Maury Elementary School","ADDRESS":"1250 CONSTITUTION AVENUE NE","X":400984,"Y":136037.82,"ADDR_ID":294511,"LABEL":262,"TYPE":"INDOOR","NUMBER_OF_SITES":1}},{"type":"Feature","id":139,"geometry":{"type":"Point","coordinates":[-77.02903777613348,38.916716000655455],"bbox":[-77.02903777613348,38.916716000655455,-77.02903777613348,38.916716000655455]},"properties":{"OBJECTID":139,"NAME":"DPR Headquarters","ADDRESS":"1250 U STREET NW","X":397481.94,"Y":138760.45,"ADDR_ID":297746,"LABEL":113,"TYPE":"INDOOR","NUMBER_OF_SITES":1}},{"type":"Feature","id":140,"geometry":{"type":"Point","coordinates":[-77.01086342225501,38.87479326321411],"bbox":[-77.01086342225501,38.87479326321411,-77.01086342225501,38.87479326321411]},"properties":{"OBJECTID":140,"NAME":"James Creek","ADDRESS":"1265 HALF STREET SW","X":399057.53,"Y":134106.35,"ADDR_ID":156174,"LABEL":222,"TYPE":"OUTDOOR","NUMBER_OF_SITES":1}},{"type":"Feature","id":141,"geometry":{"type":"Point","coordinates":[-77.03054290091909,38.944707948889295],"bbox":[-77.03054290091909,38.944707948889295,-77.03054290091909,38.944707948889295]},"properties":{"OBJECTID":141,"NAME":"Community Academy PCS - Amos I","ADDRESS":"1300 ALLISON STREET NW","X":397352.45,"Y":141867.84,"ADDR_ID":255251,"LABEL":63,"TYPE":"OUTDOOR","NUMBER_OF_SITES":1}},{"type":"Feature","id":142,"geometry":{"type":"Point","coordinates":[-77.02478546609989,38.90791502060786],"bbox":[-77.02478546609989,38.90791502060786,-77.02478546609989,38.90791502060786]},"properties":{"OBJECTID":142,"NAME":"DC Public Records","ADDRESS":"1300 NAYLOR COURT NW","X":397850.45,"Y":137783.36,"ADDR_ID":303382,"LABEL":83,"TYPE":"INDOOR","NUMBER_OF_SITES":1}},{"type":"Feature","id":143,"geometry":{"type":"Point","coordinates":[-77.01607985676583,38.90769836103147],"bbox":[-77.01607985676583,38.90769836103147,-77.01607985676583,38.90769836103147]},"properties":{"OBJECTID":143,"NAME":"Engine 6 Station","ADDRESS":"1300 NEW JERSEY AVENUE NW","X":398605.52,"Y":137759.14,"ADDR_ID":294514,"LABEL":160,"TYPE":"INDOOR+OUTDOOR","NUMBER_OF_SITES":2}},{"type":"Feature","id":144,"geometry":{"type":"Point","coordinates":[-77.03069114301844,38.96054319118933],"bbox":[-77.03069114301844,38.96054319118933,-77.03069114301844,38.96054319118933]},"properties":{"OBJECTID":144,"NAME":"Brightwood Education Campus","ADDRESS":"1300 NICHOLSON STREET NW","X":397340.19,"Y":143625.7,"ADDR_ID":294515,"LABEL":27,"TYPE":"INDOOR","NUMBER_OF_SITES":1}},{"type":"Feature","id":145,"geometry":{"type":"Point","coordinates":[-76.98274439903977,38.90644819538894],"bbox":[-76.98274439903977,38.90644819538894,-76.98274439903977,38.90644819538894]},"properties":{"OBJECTID":145,"NAME":"Trinidad Recreation Center","ADDRESS":"1310 CHILDRESS STREET NE","X":401496.88,"Y":137620.38,"ADDR_ID":68509,"LABEL":367,"TYPE":"INDOOR","NUMBER_OF_SITES":1}},{"type":"Feature","id":146,"geometry":{"type":"Point","coordinates":[-76.98743337455623,38.84014605433146],"bbox":[-76.98743337455623,38.84014605433146,-76.98743337455623,38.84014605433146]},"properties":{"OBJECTID":146,"NAME":"Community of Hope","ADDRESS":"1320 MISSISSIPPI AVENUE SE","X":401091.19,"Y":130260.28,"ADDR_ID":290141,"LABEL":66,"TYPE":"OUTDOOR","NUMBER_OF_SITES":1}},{"type":"Feature","id":147,"geometry":{"type":"Point","coordinates":[-77.03109310413618,38.97027694886603],"bbox":[-77.03109310413618,38.97027694886603,-77.03109310413618,38.97027694886603]},"properties":{"OBJECTID":147,"NAME":"Fort Stevens Recreation Center","ADDRESS":"1327 VAN BUREN STREET NW","X":397305.72000000003,"Y":144706.25,"ADDR_ID":290152,"LABEL":178,"TYPE":"INDOOR","NUMBER_OF_SITES":1}},{"type":"Feature","id":148,"geometry":{"type":"Point","coordinates":[-77.03225535232298,38.95137487737547],"bbox":[-77.03225535232298,38.95137487737547,-77.03225535232298,38.95137487737547]},"properties":{"OBJECTID":148,"NAME":"West Education Campus","ADDRESS":"1338 FARRAGUT STREET NW","X":397204.26,"Y":142607.98,"ADDR_ID":294517,"LABEL":395,"TYPE":"INDOOR","NUMBER_OF_SITES":1}},{"type":"Feature","id":149,"geometry":{"type":"Point","coordinates":[-77.03104223546619,38.93059028281437],"bbox":[-77.03104223546619,38.93059028281437,-77.03104223546619,38.93059028281437]},"properties":{"OBJECTID":149,"NAME":"FEMS - Special Operation","ADDRESS":"1338 PARK ROAD NW","X":397308.63,"Y":140300.67,"ADDR_ID":307124,"LABEL":169,"TYPE":"INDOOR","NUMBER_OF_SITES":1}},{"type":"Feature","id":150,"geometry":{"type":"Point","coordinates":[-76.98677046532853,38.924794374576535],"bbox":[-76.98677046532853,38.924794374576535,-76.98677046532853,38.924794374576535]},"properties":{"OBJECTID":150,"NAME":"Engine 26 Station","ADDRESS":"1340 RHODE ISLAND AVENUE NE","X":401147.38,"Y":139656.9,"ADDR_ID":294518,"LABEL":150,"TYPE":"INDOOR+OUTDOOR","NUMBER_OF_SITES":2}},{"type":"Feature","id":151,"geometry":{"type":"Point","coordinates":[-76.98669648904028,38.901595101186594],"bbox":[-76.98669648904028,38.901595101186594,-76.98669648904028,38.901595101186594]},"properties":{"OBJECTID":151,"NAME":"FEMS  - Engine Company 10","ADDRESS":"1342 FLORIDA AVENUE NE","X":401154.17,"Y":137081.59,"ADDR_ID":294519,"LABEL":165,"TYPE":"INDOOR","NUMBER_OF_SITES":1}},{"type":"Feature","id":152,"geometry":{"type":"Point","coordinates":[-76.98627088619654,38.9218201293575],"bbox":[-76.98627088619654,38.9218201293575,-76.98627088619654,38.9218201293575]},"properties":{"OBJECTID":152,"NAME":"CFSA at Saratoga","ADDRESS":"1345 SARATOGA AVENUE NE","X":401190.75,"Y":139326.74,"ADDR_ID":149277,"LABEL":53,"TYPE":"INDOOR","NUMBER_OF_SITES":1}},{"type":"Feature","id":153,"geometry":{"type":"Point","coordinates":[-77.0313551676286,38.89501013972447],"bbox":[-77.0313551676286,38.89501013972447,-77.0313551676286,38.89501013972447]},"properties":{"OBJECTID":153,"NAME":"Wilson Building","ADDRESS":"1350 PENNSYLVANIA AVENUE NW","X":397280.14,"Y":136350.99,"ADDR_ID":293203,"LABEL":401,"TYPE":"INDOOR","NUMBER_OF_SITES":1}},{"type":"Feature","id":154,"geometry":{"type":"Point","coordinates":[-77.03122971732124,38.94154180435055],"bbox":[-77.03122971732124,38.94154180435055,-77.03122971732124,38.94154180435055]},"properties":{"OBJECTID":154,"NAME":"Powell Elementary School","ADDRESS":"1350 UPSHUR STREET NW","X":397292.79000000004,"Y":141516.39,"ADDR_ID":255302,"LABEL":314,"TYPE":"INDOOR","NUMBER_OF_SITES":1}},{"type":"Feature","id":155,"geometry":{"type":"Point","coordinates":[-76.98614881054283,38.84498659880785],"bbox":[-76.98614881054283,38.84498659880785,-76.98614881054283,38.84498659880785]},"properties":{"OBJECTID":155,"NAME":"Malcolm X Elementary School","ADDRESS":"1351 ALABAMA AVENUE SE","X":401202.63,"Y":130797.63,"ADDR_ID":289201,"LABEL":253,"TYPE":"INDOOR","NUMBER_OF_SITES":1}},{"type":"Feature","id":156,"geometry":{"type":"Point","coordinates":[-77.03159825273141,38.96052754542865],"bbox":[-77.03159825273141,38.96052754542865,-77.03159825273141,38.96052754542865]},"properties":{"OBJECTID":156,"NAME":"Community Academy PCS Online Campus","ADDRESS":"1351 NICHOLSON STREET NW","X":397261.57,"Y":143623.99,"ADDR_ID":257768,"LABEL":64,"TYPE":"OUTDOOR","NUMBER_OF_SITES":1}},{"type":"Feature","id":157,"geometry":{"type":"Point","coordinates":[-76.98583171416384,38.91507572031689],"bbox":[-76.98583171416384,38.91507572031689,-76.98583171416384,38.91507572031689]},"properties":{"OBJECTID":157,"NAME":"Homeless Shelter","ADDRESS":"1355 NEW YORK AVENUE NE","X":401228.95,"Y":138578.06,"ADDR_ID":66060,"LABEL":204,"TYPE":"OUTDOOR","NUMBER_OF_SITES":1}},{"type":"Feature","id":158,"geometry":{"type":"Point","coordinates":[-76.98370595672756,38.85134435056086],"bbox":[-76.98370595672756,38.85134435056086,-76.98370595672756,38.85134435056086]},"properties":{"OBJECTID":158,"NAME":"Johnson Middle School","ADDRESS":"1400 BRUCE PLACE SE","X":401414.57,"Y":131503.42,"ADDR_ID":294520,"LABEL":226,"TYPE":"INDOOR","NUMBER_OF_SITES":1}},{"type":"Feature","id":159,"geometry":{"type":"Point","coordinates":[-77.03003732572472,38.88672431210649],"bbox":[-77.03003732572472,38.88672431210649,-77.03003732572472,38.88672431210649]},"properties":{"OBJECTID":159,"NAME":"US Department of Agriculture","ADDRESS":"1400 INDEPENDENCE AVENUE SW","X":397394.16000000003,"Y":135431.16,"ADDR_ID":291739,"LABEL":386,"TYPE":"INDOOR+OUTDOOR","NUMBER_OF_SITES":2}},{"type":"Feature","id":160,"geometry":{"type":"Point","coordinates":[-76.98499791719597,38.94201993131289],"bbox":[-76.98499791719597,38.94201993131289,-76.98499791719597,38.94201993131289]},"properties":{"OBJECTID":160,"NAME":"Brookland Education Campus @ Bunker Hill","ADDRESS":"1401 MICHIGAN AVENUE NE","X":401300.77,"Y":141569.11,"ADDR_ID":286131,"LABEL":28,"TYPE":"INDOOR","NUMBER_OF_SITES":1}},{"type":"Feature","id":161,"geometry":{"type":"Point","coordinates":[-76.98686690974924,38.929613383816886],"bbox":[-76.98686690974924,38.929613383816886,-76.98686690974924,38.929613383816886]},"properties":{"OBJECTID":161,"NAME":"Mary McLeod Bethune Day Academy PCS","ADDRESS":"1404 JACKSON STREET NE","X":401138.94,"Y":140191.85,"ADDR_ID":294522,"LABEL":259,"TYPE":"OUTDOOR","NUMBER_OF_SITES":1}},{"type":"Feature","id":162,"geometry":{"type":"Point","coordinates":[-77.0331548058465,38.925726293820205],"bbox":[-77.0331548058465,38.925726293820205,-77.0331548058465,38.925726293820205]},"properties":{"OBJECTID":162,"NAME":"Community of Hope","ADDRESS":"1413 GIRARD STREET NW","X":397125.26,"Y":139760.79,"ADDR_ID":234321,"LABEL":67,"TYPE":"OUTDOOR","NUMBER_OF_SITES":1}},{"type":"Feature","id":163,"geometry":{"type":"Point","coordinates":[-77.03309918162144,38.90750794568333],"bbox":[-77.03309918162144,38.90750794568333,-77.03309918162144,38.90750794568333]},"properties":{"OBJECTID":163,"NAME":"James Apartments","ADDRESS":"1425 N STREET NW","X":397129.35000000003,"Y":137738.4,"ADDR_ID":240239,"LABEL":221,"TYPE":"OUTDOOR","NUMBER_OF_SITES":1}},{"type":"Feature","id":164,"geometry":{"type":"Point","coordinates":[-76.98510996838905,38.87772325153552],"bbox":[-76.98510996838905,38.87772325153552,-76.98510996838905,38.87772325153552]},"properties":{"OBJECTID":164,"NAME":"Hopkins Apartments","ADDRESS":"1430 L STREET SE","X":401292.22000000003,"Y":134431.65,"ADDR_ID":63579,"LABEL":208,"TYPE":"OUTDOOR","NUMBER_OF_SITES":1}},{"type":"Feature","id":165,"geometry":{"type":"Point","coordinates":[-77.03509235690169,38.92760107947047],"bbox":[-77.03509235690169,38.92760107947047,-77.03509235690169,38.92760107947047]},"properties":{"OBJECTID":165,"NAME":"Apartments","ADDRESS":"1475 COLUMBIA ROAD NW","X":396957.33,"Y":139968.97,"ADDR_ID":234372,"LABEL":8,"TYPE":"OUTDOOR","NUMBER_OF_SITES":1}},{"type":"Feature","id":166,"geometry":{"type":"Point","coordinates":[-77.0350975408508,38.92524648392043],"bbox":[-77.0350975408508,38.92524648392043,-77.0350975408508,38.92524648392043]},"properties":{"OBJECTID":166,"NAME":"Columbia Heights Community Center","ADDRESS":"1480 GIRARD STREET NW","X":396956.78,"Y":139707.59,"ADDR_ID":284045,"LABEL":62,"TYPE":"INDOOR","NUMBER_OF_SITES":1}},{"type":"Feature","id":167,"geometry":{"type":"Point","coordinates":[-76.98356673316863,38.863107084506076],"bbox":[-76.98356673316863,38.863107084506076,-76.98356673316863,38.863107084506076]},"properties":{"OBJECTID":167,"NAME":"UHC - Anacostia","ADDRESS":"1500 GALEN STREET SE","X":401426.42,"Y":132809.17,"ADDR_ID":277592,"LABEL":375,"TYPE":"OUTDOOR","NUMBER_OF_SITES":1}},{"type":"Feature","id":168,"geometry":{"type":"Point","coordinates":[-77.02488475847085,38.91062615117742],"bbox":[-77.02488475847085,38.91062615117742,-77.02488475847085,38.91062615117742]},"properties":{"OBJECTID":168,"NAME":"Seaton Elementary School","ADDRESS":"1503 10TH STREET NW","X":397841.92,"Y":138084.32,"ADDR_ID":279203,"LABEL":333,"TYPE":"INDOOR","NUMBER_OF_SITES":1}},{"type":"Feature","id":169,"geometry":{"type":"Point","coordinates":[-76.98330683346708,38.88953327267243],"bbox":[-76.98330683346708,38.88953327267243,-76.98330683346708,38.88953327267243]},"properties":{"OBJECTID":169,"NAME":"Center City PCS - Capitol Hill Campus","ADDRESS":"1503 EAST CAPITOL STREET SE","X":401448.44,"Y":135742.68,"ADDR_ID":295125,"LABEL":46,"TYPE":"OUTDOOR","NUMBER_OF_SITES":1}},{"type":"Feature","id":170,"geometry":{"type":"Point","coordinates":[-77.00412472481034,38.91522757595278],"bbox":[-77.00412472481034,38.91522757595278,-77.00412472481034,38.91522757595278]},"properties":{"OBJECTID":170,"NAME":"McKinley Technology High School / CCDC","ADDRESS":"151 T STREET NE","X":399642.48,"Y":138594.83,"ADDR_ID":296345,"LABEL":264,"TYPE":"INDOOR","NUMBER_OF_SITES":1}},{"type":"Feature","id":171,"geometry":{"type":"Point","coordinates":[-76.98294585383434,38.88554764281946],"bbox":[-76.98294585383434,38.88554764281946,-76.98294585383434,38.88554764281946]},"properties":{"OBJECTID":171,"NAME":"Engine 8 Station","ADDRESS":"1520 C STREET SE","X":401479.84,"Y":135300.25,"ADDR_ID":289723,"LABEL":162,"TYPE":"INDOOR","NUMBER_OF_SITES":1}},{"type":"Feature","id":172,"geometry":{"type":"Point","coordinates":[-76.98125359233046,38.846194308105964],"bbox":[-76.98125359233046,38.846194308105964,-76.98125359233046,38.846194308105964]},"properties":{"OBJECTID":172,"NAME":"Parklands-Turner Neighborhood Library","ADDRESS":"1547 ALABAMA AVENUE SE","X":401627.56,"Y":130931.77,"ADDR_ID":304504,"LABEL":303,"TYPE":"INDOOR+OUTDOOR","NUMBER_OF_SITES":2}},{"type":"Feature","id":173,"geometry":{"type":"Point","coordinates":[-76.94971265009634,38.8860346952625],"bbox":[-76.94971265009634,38.8860346952625,-76.94971265009634,38.8860346952625]},"properties":{"OBJECTID":173,"NAME":"DCHA - Stoddert / Ft Dupont","ADDRESS":"155 RIDGE ROAD SE","X":404363.17,"Y":135355.38,"ADDR_ID":286318,"LABEL":94,"TYPE":"OUTDOOR","NUMBER_OF_SITES":1}},{"type":"Feature","id":174,"geometry":{"type":"Point","coordinates":[-77.0668048520189,38.910109468909624],"bbox":[-77.0668048520189,38.910109468909624,-77.0668048520189,38.910109468909624]},"properties":{"OBJECTID":174,"NAME":"Volta Park Recreation Center","ADDRESS":"1555 34TH STREET NW","X":394206.11,"Y":138028.79,"ADDR_ID":279236,"LABEL":388,"TYPE":"INDOOR","NUMBER_OF_SITES":1}},{"type":"Feature","id":175,"geometry":{"type":"Point","coordinates":[-76.98294595667818,38.85666345072425],"bbox":[-76.98294595667818,38.85666345072425,-76.98294595667818,38.85666345072425]},"properties":{"OBJECTID":175,"NAME":"Moten Elementary School","ADDRESS":"1565 MORRIS ROAD SE","X":401480.43,"Y":132093.89,"ADDR_ID":294524,"LABEL":267,"TYPE":"INDOOR","NUMBER_OF_SITES":1}},{"type":"Feature","id":176,"geometry":{"type":"Point","coordinates":[-76.98307953050461,38.87009150762566],"bbox":[-76.98307953050461,38.87009150762566,-76.98307953050461,38.87009150762566]},"properties":{"OBJECTID":176,"NAME":"Anacostia High School","ADDRESS":"1601 16TH STREET SE","X":401468.56,"Y":133584.5,"ADDR_ID":155922,"LABEL":4,"TYPE":"INDOOR","NUMBER_OF_SITES":1}},{"type":"Feature","id":177,"geometry":{"type":"Point","coordinates":[-77.03752782465934,38.91730425869698],"bbox":[-77.03752782465934,38.91730425869698,-77.03752782465934,38.91730425869698]},"properties":{"OBJECTID":177,"NAME":"Engine 9 Station","ADDRESS":"1617 U STREET NW","X":396745.68,"Y":138826.02,"ADDR_ID":241846,"LABEL":163,"TYPE":"INDOOR+OUTDOOR","NUMBER_OF_SITES":2}},{"type":"Feature","id":178,"geometry":{"type":"Point","coordinates":[-77.03797310963569,38.91787506293418],"bbox":[-77.03797310963569,38.91787506293418,-77.03797310963569,38.91787506293418]},"properties":{"OBJECTID":178,"NAME":"Third District (3D)","ADDRESS":"1620 V STREET NW","X":396707.09,"Y":138889.4,"ADDR_ID":241847,"LABEL":360,"TYPE":"OUTDOOR","NUMBER_OF_SITES":1}},{"type":"Feature","id":179,"geometry":{"type":"Point","coordinates":[-77.03762303945996,38.910032426794764],"bbox":[-77.03762303945996,38.910032426794764,-77.03762303945996,38.910032426794764]},"properties":{"OBJECTID":179,"NAME":"Stead Recreation Center","ADDRESS":"1625 P STREET NW","X":396737.09,"Y":138018.79,"ADDR_ID":295822,"LABEL":350,"TYPE":"INDOOR","NUMBER_OF_SITES":1}},{"type":"Feature","id":180,"geometry":{"type":"Point","coordinates":[-76.98105682801521,38.86620812171818],"bbox":[-76.98105682801521,38.86620812171818,-76.98105682801521,38.86620812171818]},"properties":{"OBJECTID":180,"NAME":"Bread for the City SE","ADDRESS":"1640 GOOD HOPE ROAD SE","X":401644.18,"Y":133153.45,"ADDR_ID":286380,"LABEL":24,"TYPE":"OUTDOOR","NUMBER_OF_SITES":1}},{"type":"Feature","id":181,"geometry":{"type":"Point","coordinates":[-76.98070964609343,38.86578863314016],"bbox":[-76.98070964609343,38.86578863314016,-76.98070964609343,38.86578863314016]},"properties":{"OBJECTID":181,"NAME":"UPO","ADDRESS":"1649 GOOD HOPE ROAD SE","X":401674.32,"Y":133106.89,"ADDR_ID":286385,"LABEL":382,"TYPE":"OUTDOOR","NUMBER_OF_SITES":1}},{"type":"Feature","id":182,"geometry":{"type":"Point","coordinates":[-76.96435855383109,38.870099185756025],"bbox":[-76.96435855383109,38.870099185756025,-76.96435855383109,38.870099185756025]},"properties":{"OBJECTID":182,"NAME":"Randle Highlands Elementary School","ADDRESS":"1650 30TH STREET SE","X":403093.17,"Y":133585.82,"ADDR_ID":156337,"LABEL":319,"TYPE":"INDOOR","NUMBER_OF_SITES":1}},{"type":"Feature","id":183,"geometry":{"type":"Point","coordinates":[-77.01293000724783,38.81354688208232],"bbox":[-77.01293000724783,38.81354688208232,-77.01293000724783,38.81354688208232]},"properties":{"OBJECTID":183,"NAME":"MPD Evidence Warehouse","ADDRESS":"17 DC VILLAGE LANE SW","X":398877.24,"Y":127307.6,"ADDR_ID":307895,"LABEL":270,"TYPE":"INDOOR+OUTDOOR","NUMBER_OF_SITES":2}},{"type":"Feature","id":184,"geometry":{"type":"Point","coordinates":[-76.97968656994185,38.890410115128155],"bbox":[-76.97968656994185,38.890410115128155,-76.97968656994185,38.890410115128155]},"properties":{"OBJECTID":184,"NAME":"Eastern High School","ADDRESS":"1700 EAST CAPITOL STREET NE","X":401762.5,"Y":135840.08,"ADDR_ID":289529,"LABEL":127,"TYPE":"INDOOR","NUMBER_OF_SITES":1}},{"type":"Feature","id":185,"geometry":{"type":"Point","coordinates":[-76.98017358027091,38.87129385290139],"bbox":[-76.98017358027091,38.87129385290139,-76.98017358027091,38.87129385290139]},"properties":{"OBJECTID":185,"NAME":"Kramer Middle School","ADDRESS":"1700 Q STREET SE","X":401720.71,"Y":133718.02,"ADDR_ID":289467,"LABEL":239,"TYPE":"INDOOR","NUMBER_OF_SITES":1}},{"type":"Feature","id":186,"geometry":{"type":"Point","coordinates":[-77.03170208741892,38.91278479066411],"bbox":[-77.03170208741892,38.91278479066411,-77.03170208741892,38.91278479066411]},"properties":{"OBJECTID":186,"NAME":"Whitman Walker Elizabeth Taylor Clinic","ADDRESS":"1701 14TH STREET NW","X":397250.73,"Y":138324.13,"ADDR_ID":238070,"LABEL":397,"TYPE":"OUTDOOR","NUMBER_OF_SITES":1}},{"type":"Feature","id":187,"geometry":{"type":"Point","coordinates":[-77.02259813721714,38.91278132104729],"bbox":[-77.02259813721714,38.91278132104729,-77.02259813721714,38.91278132104729]},"properties":{"OBJECTID":187,"NAME":"Metro Station Shaw - Howard University","ADDRESS":"1701 8TH STREET NW","X":398040.3,"Y":138323.51,"ADDR_ID":294837,"LABEL":265,"TYPE":"INDOOR+OUTDOOR","NUMBER_OF_SITES":2}},{"type":"Feature","id":188,"geometry":{"type":"Point","coordinates":[-76.97913631139863,38.897819402449734],"bbox":[-76.97913631139863,38.897819402449734,-76.97913631139863,38.897819402449734]},"properties":{"OBJECTID":188,"NAME":"Rosedale Recreation Center and Library","ADDRESS":"1701 GALES STREET NE","X":401810.05,"Y":136662.58,"ADDR_ID":307101,"LABEL":328,"TYPE":"INDOOR","NUMBER_OF_SITES":1}},{"type":"Feature","id":189,"geometry":{"type":"Point","coordinates":[-77.00677822688458,38.913510553189006],"bbox":[-77.00677822688458,38.913510553189006,-77.00677822688458,38.913510553189006]},"properties":{"OBJECTID":189,"NAME":"Emery Education Campus","ADDRESS":"1720 1ST STREET NE","X":399412.34,"Y":138404.24,"ADDR_ID":294527,"LABEL":132,"TYPE":"INDOOR","NUMBER_OF_SITES":1}},{"type":"Feature","id":190,"geometry":{"type":"Point","coordinates":[-77.008692809883,38.86875907497568],"bbox":[-77.008692809883,38.86875907497568,-77.008692809883,38.86875907497568]},"properties":{"OBJECTID":190,"NAME":"MPD Air Support Branch","ADDRESS":"1724 SOUTH CAPITOL STREET SE","X":399245.82,"Y":133436.49,"ADDR_ID":277757,"LABEL":268,"TYPE":"OUTDOOR","NUMBER_OF_SITES":1}},{"type":"Feature","id":191,"geometry":{"type":"Point","coordinates":[-76.9811521503864,38.91322429637018],"bbox":[-76.9811521503864,38.91322429637018,-76.9811521503864,38.91322429637018]},"properties":{"OBJECTID":191,"NAME":"DPW","ADDRESS":"1725 15TH STREET NE","X":401634.83,"Y":138372.61,"ADDR_ID":301201,"LABEL":115,"TYPE":"INDOOR","NUMBER_OF_SITES":1}},{"type":"Feature","id":192,"geometry":{"type":"Point","coordinates":[-77.03966444134119,38.91239860359402],"bbox":[-77.03966444134119,38.91239860359402,-77.03966444134119,38.91239860359402]},"properties":{"OBJECTID":192,"NAME":"Ross Elementary School","ADDRESS":"1730 R STREET NW","X":396560.15,"Y":138281.53,"ADDR_ID":241714,"LABEL":329,"TYPE":"INDOOR","NUMBER_OF_SITES":1}},{"type":"Feature","id":193,"geometry":{"type":"Point","coordinates":[-77.0078704376956,38.913993511783154],"bbox":[-77.0078704376956,38.913993511783154,-77.0078704376956,38.913993511783154]},"properties":{"OBJECTID":193,"NAME":"Harry Thomas Sr. Recreation Center","ADDRESS":"1743 LINCOLN ROAD NE","X":399317.62,"Y":138457.86,"ADDR_ID":296786,"LABEL":195,"TYPE":"INDOOR","NUMBER_OF_SITES":1}},{"type":"Feature","id":194,"geometry":{"type":"Point","coordinates":[-77.04055574230114,38.93432581619343],"bbox":[-77.04055574230114,38.93432581619343,-77.04055574230114,38.93432581619343]},"properties":{"OBJECTID":194,"NAME":"Bancroft Elementary School / Briya PCS - Newton Rd","ADDRESS":"1755 NEWTON STREET NW","X":396483.93,"Y":140715.67,"ADDR_ID":294528,"LABEL":14,"TYPE":"INDOOR","NUMBER_OF_SITES":1}},{"type":"Feature","id":195,"geometry":{"type":"Point","coordinates":[-77.04221775355914,38.92477893887574],"bbox":[-77.04221775355914,38.92477893887574,-77.04221775355914,38.92477893887574]},"properties":{"OBJECTID":195,"NAME":"Engine 21 Station","ADDRESS":"1763 LANIER PLACE NW","X":396339.34,"Y":139655.95,"ADDR_ID":236004,"LABEL":145,"TYPE":"INDOOR","NUMBER_OF_SITES":1}},{"type":"Feature","id":196,"geometry":{"type":"Point","coordinates":[-76.97926968100042,38.92363301318165],"bbox":[-76.97926968100042,38.92363301318165,-76.97926968100042,38.92363301318165]},"properties":{"OBJECTID":196,"NAME":"Interim Woodridge Library","ADDRESS":"1790 DOUGLAS STREET NE","X":401797.83,"Y":139528.1,"ADDR_ID":311199,"LABEL":218,"TYPE":"INDOOR","NUMBER_OF_SITES":1}},{"type":"Feature","id":197,"geometry":{"type":"Point","coordinates":[-76.98310382807962,38.87259602805553],"bbox":[-76.98310382807962,38.87259602805553,-76.98310382807962,38.87259602805553]},"properties":{"OBJECTID":197,"NAME":"Anacostia Recreation Center","ADDRESS":"1800 ANACOSTIA DRIVE SE","X":401466.4,"Y":133862.52,"ADDR_ID":295129,"LABEL":6,"TYPE":"INDOOR","NUMBER_OF_SITES":1}},{"type":"Feature","id":198,"geometry":{"type":"Point","coordinates":[-77.0428671762697,38.92216718971618],"bbox":[-77.0428671762697,38.92216718971618,-77.0428671762697,38.92216718971618]},"properties":{"OBJECTID":198,"NAME":"MPD Latino Liaison Unit","ADDRESS":"1800 COLUMBIA ROAD NW","X":396282.89,"Y":139366.05,"ADDR_ID":235413,"LABEL":273,"TYPE":"OUTDOOR","NUMBER_OF_SITES":1}},{"type":"Feature","id":199,"geometry":{"type":"Point","coordinates":[-76.978627807395,38.865915649665844],"bbox":[-76.978627807395,38.865915649665844,-76.978627807395,38.865915649665844]},"properties":{"OBJECTID":199,"NAME":"Anacostia Neighborhood Library","ADDRESS":"1800 GOOD HOPE ROAD SE","X":401854.99,"Y":133121.03,"ADDR_ID":53560,"LABEL":5,"TYPE":"INDOOR+OUTDOOR","NUMBER_OF_SITES":2}},{"type":"Feature","id":200,"geometry":{"type":"Point","coordinates":[-76.98808432506493,38.86752725116468],"bbox":[-76.98808432506493,38.86752725116468,-76.98808432506493,38.86752725116468]},"properties":{"OBJECTID":200,"NAME":"DHCD","ADDRESS":"1800 MARTIN LUTHER KING JR AVENUE SE","X":401034.28,"Y":133299.78,"ADDR_ID":56153,"LABEL":102,"TYPE":"INDOOR","NUMBER_OF_SITES":1}},{"type":"Feature","id":201,"geometry":{"type":"Point","coordinates":[-76.97862793419941,38.92744819069844],"bbox":[-76.97862793419941,38.92744819069844,-76.97862793419941,38.92744819069844]},"properties":{"OBJECTID":201,"NAME":"Woodridge Neighborhood Library","ADDRESS":"1801 HAMLIN STREET NE","X":401853.38,"Y":139951.63,"ADDR_ID":286483,"LABEL":404,"TYPE":"INDOOR","NUMBER_OF_SITES":1}},{"type":"Feature","id":202,"geometry":{"type":"Point","coordinates":[-76.97364233336668,38.915085047337726],"bbox":[-76.97364233336668,38.915085047337726,-76.97364233336668,38.915085047337726]},"properties":{"OBJECTID":202,"NAME":"Fifth District (5D)","ADDRESS":"1805 BLADENSBURG ROAD NE","X":402286.08,"Y":138579.33,"ADDR_ID":286486,"LABEL":172,"TYPE":"INDOOR","NUMBER_OF_SITES":1}},{"type":"Feature","id":203,"geometry":{"type":"Point","coordinates":[-76.97891243625376,38.85766299760669],"bbox":[-76.97891243625376,38.85766299760669,-76.97891243625376,38.85766299760669]},"properties":{"OBJECTID":203,"NAME":"Fort Stanton Recreation Center","ADDRESS":"1812 ERIE STREET SE","X":401830.5,"Y":132204.92,"ADDR_ID":296165,"LABEL":177,"TYPE":"INDOOR","NUMBER_OF_SITES":1}},{"type":"Feature","id":204,"geometry":{"type":"Point","coordinates":[-77.06861620212666,38.91551648717705],"bbox":[-77.06861620212666,38.91551648717705,-77.06861620212666,38.91551648717705]},"properties":{"OBJECTID":204,"NAME":"Hardy Middle School / Fillmore Arts Center (West)","ADDRESS":"1819 35TH STREET NW","X":394049.46,"Y":138629.13,"ADDR_ID":274432,"LABEL":193,"TYPE":"INDOOR","NUMBER_OF_SITES":1}},{"type":"Feature","id":205,"geometry":{"type":"Point","coordinates":[-76.97845864927179,38.93351012172938],"bbox":[-76.97845864927179,38.93351012172938,-76.97845864927179,38.93351012172938]},"properties":{"OBJECTID":205,"NAME":"Burroughs Education Campus","ADDRESS":"1820 MONROE STREET NE","X":401867.9,"Y":140624.56,"ADDR_ID":294530,"LABEL":32,"TYPE":"INDOOR","NUMBER_OF_SITES":1}},{"type":"Feature","id":206,"geometry":{"type":"Point","coordinates":[-77.02270946757577,38.91515274437822],"bbox":[-77.02270946757577,38.91515274437822,-77.02270946757577,38.91515274437822]},"properties":{"OBJECTID":206,"NAME":"Cleveland Elementary School","ADDRESS":"1825 8TH STREET NW","X":398030.71,"Y":138586.76,"ADDR_ID":294531,"LABEL":60,"TYPE":"INDOOR","NUMBER_OF_SITES":1}},{"type":"Feature","id":207,"geometry":{"type":"Point","coordinates":[-76.98434821260695,38.91126257142445],"bbox":[-76.98434821260695,38.91126257142445,-76.98434821260695,38.91126257142445]},"properties":{"OBJECTID":207,"NAME":"DPW Facility","ADDRESS":"1827 WEST VIRGINIA AVENUE NE","X":401357.68,"Y":138154.79,"ADDR_ID":286497,"LABEL":119,"TYPE":"INDOOR+OUTDOOR","NUMBER_OF_SITES":2}},{"type":"Feature","id":208,"geometry":{"type":"Point","coordinates":[-76.97898019572983,38.892438946299286],"bbox":[-76.97898019572983,38.892438946299286,-76.97898019572983,38.892438946299286]},"properties":{"OBJECTID":208,"NAME":"Eliot-Hine Middle School","ADDRESS":"1830 CONSTITUTION AVENUE NE","X":401823.73,"Y":136065.31,"ADDR_ID":286499,"LABEL":130,"TYPE":"INDOOR","NUMBER_OF_SITES":1}},{"type":"Feature","id":209,"geometry":{"type":"Point","coordinates":[-76.98345596447047,38.91100480992138],"bbox":[-76.98345596447047,38.91100480992138,-76.98345596447047,38.91100480992138]},"properties":{"OBJECTID":209,"NAME":"DPW","ADDRESS":"1833 WEST VIRGINIA AVENUE NE","X":401435.07,"Y":138126.19,"ADDR_ID":301125,"LABEL":116,"TYPE":"INDOOR+OUTDOOR","NUMBER_OF_SITES":2}},{"type":"Feature","id":210,"geometry":{"type":"Point","coordinates":[-77.02219370362599,38.91478800587522],"bbox":[-77.02219370362599,38.91478800587522,-77.02219370362599,38.91478800587522]},"properties":{"OBJECTID":210,"NAME":"Howard Theater","ADDRESS":"1840 7TH STREET NW","X":398075.43,"Y":138546.26,"ADDR_ID":279436,"LABEL":212,"TYPE":"OUTDOOR","NUMBER_OF_SITES":1}},{"type":"Feature","id":211,"geometry":{"type":"Point","coordinates":[-77.04323778186755,38.92840072027419],"bbox":[-77.04323778186755,38.92840072027419,-77.04323778186755,38.92840072027419]},"properties":{"OBJECTID":211,"NAME":"Harvard Towers","ADDRESS":"1845 HARVARD STREET NW","X":396251.08,"Y":140058.04,"ADDR_ID":236261,"LABEL":197,"TYPE":"OUTDOOR","NUMBER_OF_SITES":1}},{"type":"Feature","id":212,"geometry":{"type":"Point","coordinates":[-76.97776382253926,38.85264400791208],"bbox":[-76.97776382253926,38.85264400791208,-76.97776382253926,38.85264400791208]},"properties":{"OBJECTID":212,"NAME":"Douglass Community Center","ADDRESS":"1898 STANTON TERRACE SE","X":401930.33,"Y":131647.8,"ADDR_ID":286513,"LABEL":112,"TYPE":"INDOOR","NUMBER_OF_SITES":1}},{"type":"Feature","id":213,"geometry":{"type":"Point","coordinates":[-76.97708413269909,38.924711621752145],"bbox":[-76.97708413269909,38.924711621752145,-76.97708413269909,38.924711621752145]},"properties":{"OBJECTID":213,"NAME":"Langdon Education Campus","ADDRESS":"1900 EVARTS STREET NE","X":401987.32,"Y":139647.88,"ADDR_ID":294532,"LABEL":244,"TYPE":"INDOOR","NUMBER_OF_SITES":1}},{"type":"Feature","id":214,"geometry":{"type":"Point","coordinates":[-76.9755764436527,38.88522725748891],"bbox":[-76.9755764436527,38.88522725748891,-76.9755764436527,38.88522725748891]},"properties":{"OBJECTID":214,"NAME":"DC General Hospital","ADDRESS":"1900 MASSACHUSETTS AVENUE SE","X":402119.23,"Y":135264.83,"ADDR_ID":301068,"LABEL":77,"TYPE":"INDOOR","NUMBER_OF_SITES":1}},{"type":"Feature","id":215,"geometry":{"type":"Point","coordinates":[-76.98362343869536,38.86605014193506],"bbox":[-76.98362343869536,38.86605014193506,-76.98362343869536,38.86605014193506]},"properties":{"OBJECTID":215,"NAME":"Ketcham Elementary School","ADDRESS":"1919 15TH STREET SE","X":401421.44,"Y":133135.87,"ADDR_ID":286537,"LABEL":231,"TYPE":"INDOOR","NUMBER_OF_SITES":1}},{"type":"Feature","id":216,"geometry":{"type":"Point","coordinates":[-77.02536872701728,38.91629976903393],"bbox":[-77.02536872701728,38.91629976903393,-77.02536872701728,38.91629976903393]},"properties":{"OBJECTID":216,"NAME":"FEMS - Fire and EMS Headquarters","ADDRESS":"1923 VERMONT AVENUE NW","X":397800.12,"Y":138714.15,"ADDR_ID":239514,"LABEL":166,"TYPE":"INDOOR","NUMBER_OF_SITES":1}},{"type":"Feature","id":217,"geometry":{"type":"Point","coordinates":[-77.0028111321821,38.879636108167006],"bbox":[-77.0028111321821,38.879636108167006,-77.0028111321821,38.879636108167006]},"properties":{"OBJECTID":217,"NAME":"DC Government Office Building","ADDRESS":"200 I STREET SE","X":399756.28,"Y":134643.89,"ADDR_ID":308596,"LABEL":80,"TYPE":"INDOOR","NUMBER_OF_SITES":1}},{"type":"Feature","id":218,"geometry":{"type":"Point","coordinates":[-77.03240582453643,38.91745181655676],"bbox":[-77.03240582453643,38.91745181655676,-77.03240582453643,38.91745181655676]},"properties":{"OBJECTID":218,"NAME":"Reeves Center","ADDRESS":"2000 14TH STREET NW","X":397189.88,"Y":138842.23,"ADDR_ID":239976,"LABEL":321,"TYPE":"INDOOR","NUMBER_OF_SITES":1}},{"type":"Feature","id":219,"geometry":{"type":"Point","coordinates":[-77.0257510805071,38.91755256433792],"bbox":[-77.0257510805071,38.91755256433792,-77.0257510805071,38.91755256433792]},"properties":{"OBJECTID":219,"NAME":"Shaw Middle School @ Garnet-Patterson","ADDRESS":"2001 10TH STREET NW","X":397767,"Y":138853.23,"ADDR_ID":294533,"LABEL":338,"TYPE":"INDOOR","NUMBER_OF_SITES":1}},{"type":"Feature","id":220,"geometry":{"type":"Point","coordinates":[-76.97551469342517,38.888504223525125],"bbox":[-76.97551469342517,38.888504223525125,-76.97551469342517,38.888504223525125]},"properties":{"OBJECTID":220,"NAME":"DC Armory","ADDRESS":"2001 EAST CAPITOL STREET SE","X":402124.49,"Y":135628.6,"ADDR_ID":294395,"LABEL":76,"TYPE":"INDOOR","NUMBER_OF_SITES":1}},{"type":"Feature","id":221,"geometry":{"type":"Point","coordinates":[-77.01279479135377,38.875023592503524],"bbox":[-77.01279479135377,38.875023592503524,-77.01279479135377,38.875023592503524]},"properties":{"OBJECTID":221,"NAME":"King-Greenleaf Recreation Center","ADDRESS":"201 N STREET SW","X":398889.94,"Y":134131.94,"ADDR_ID":52917,"LABEL":235,"TYPE":"INDOOR","NUMBER_OF_SITES":1}},{"type":"Feature","id":222,"geometry":{"type":"Point","coordinates":[-77.04437954892543,38.91731699123048],"bbox":[-77.04437954892543,38.91731699123048,-77.04437954892543,38.91731699123048]},"properties":{"OBJECTID":222,"NAME":"Oyster-Adams Bilingual School (Adams)","ADDRESS":"2020 19TH STREET NW","X":396151.48,"Y":138827.7,"ADDR_ID":294534,"LABEL":298,"TYPE":"INDOOR","NUMBER_OF_SITES":1}},{"type":"Feature","id":223,"geometry":{"type":"Point","coordinates":[-77.01391563842029,38.87506066899515],"bbox":[-77.01391563842029,38.87506066899515,-77.01391563842029,38.87506066899515]},"properties":{"OBJECTID":223,"NAME":"Greenleaf Gardens","ADDRESS":"203 N STREET SW","X":398792.68,"Y":134136.07,"ADDR_ID":277800,"LABEL":188,"TYPE":"OUTDOOR","NUMBER_OF_SITES":1}},{"type":"Feature","id":224,"geometry":{"type":"Point","coordinates":[-77.02009603239624,38.91755619614594],"bbox":[-77.02009603239624,38.91755619614594,-77.02009603239624,38.91755619614594]},"properties":{"OBJECTID":224,"NAME":"Howard University Hospital","ADDRESS":"2041 GEORGIA AVENUE NW","X":398257.42,"Y":138853.51,"ADDR_ID":279523,"LABEL":213,"TYPE":"OUTDOOR","NUMBER_OF_SITES":1}},{"type":"Feature","id":225,"geometry":{"type":"Point","coordinates":[-76.98924004501605,38.86544569930964],"bbox":[-76.98924004501605,38.86544569930964,-76.98924004501605,38.86544569930964]},"properties":{"OBJECTID":225,"NAME":"Office Building","ADDRESS":"2100 MARTIN LUTHER KING JR AVENUE SE","X":400934.01,"Y":133068.7,"ADDR_ID":51883,"LABEL":293,"TYPE":"INDOOR","NUMBER_OF_SITES":1}},{"type":"Feature","id":226,"geometry":{"type":"Point","coordinates":[-76.98607512514069,38.864873240395525],"bbox":[-76.98607512514069,38.864873240395525,-76.98607512514069,38.864873240395525]},"properties":{"OBJECTID":226,"NAME":"Engine 15 Station","ADDRESS":"2101 14TH STREET SE","X":401208.69,"Y":133005.19,"ADDR_ID":156246,"LABEL":138,"TYPE":"INDOOR+OUTDOOR","NUMBER_OF_SITES":2}},{"type":"Feature","id":227,"geometry":{"type":"Point","coordinates":[-76.99017937156253,38.86542335112099],"bbox":[-76.99017937156253,38.86542335112099,-76.99017937156253,38.86542335112099]},"properties":{"OBJECTID":227,"NAME":"DCLB","ADDRESS":"2101 MARTIN LUTHER KING JR AVENUE SE","X":400852.49,"Y":133066.21,"ADDR_ID":278064,"LABEL":97,"TYPE":"INDOOR","NUMBER_OF_SITES":1}},{"type":"Feature","id":228,"geometry":{"type":"Point","coordinates":[-76.99918968043619,38.91863901149492],"bbox":[-76.99918968043619,38.91863901149492,-76.99918968043619,38.91863901149492]},"properties":{"OBJECTID":228,"NAME":"Transportation Lot C","ADDRESS":"2115 5TH STREET NE","X":400070.47000000003,"Y":138973.52,"ADDR_ID":286636,"LABEL":366,"TYPE":"OUTDOOR","NUMBER_OF_SITES":1}},{"type":"Feature","id":229,"geometry":{"type":"Point","coordinates":[-77.04762708549079,38.898590328760015],"bbox":[-77.04762708549079,38.898590328760015,-77.04762708549079,38.898590328760015]},"properties":{"OBJECTID":229,"NAME":"Engine 23 Station","ADDRESS":"2119 G STREET NW","X":395868.76,"Y":136749.03,"ADDR_ID":242505,"LABEL":147,"TYPE":"INDOOR","NUMBER_OF_SITES":1}},{"type":"Feature","id":230,"geometry":{"type":"Point","coordinates":[-77.01740567402511,38.919228754176046],"bbox":[-77.01740567402511,38.919228754176046,-77.01740567402511,38.919228754176046]},"properties":{"OBJECTID":230,"NAME":"DCHA - Kelly Miller / Ledroit","ADDRESS":"2125 4TH STREET NW","X":398490.77,"Y":139039.13,"ADDR_ID":284228,"LABEL":87,"TYPE":"OUTDOOR","NUMBER_OF_SITES":1}},{"type":"Feature","id":231,"geometry":{"type":"Point","coordinates":[-77.04818876406597,38.898131572671346],"bbox":[-77.04818876406597,38.898131572671346,-77.04818876406597,38.898131572671346]},"properties":{"OBJECTID":231,"NAME":"School Without Walls High School","ADDRESS":"2130 G STREET NW","X":395820.01,"Y":136698.13,"ADDR_ID":242528,"LABEL":332,"TYPE":"INDOOR","NUMBER_OF_SITES":1}},{"type":"Feature","id":232,"geometry":{"type":"Point","coordinates":[-77.02161909510332,38.91884177338951],"bbox":[-77.02161909510332,38.91884177338951,-77.02161909510332,38.91884177338951]},"properties":{"OBJECTID":232,"NAME":"Howard University Student Health Center","ADDRESS":"2139 GEORGIA AVENUE NW","X":398125.37,"Y":138996.25,"ADDR_ID":291573,"LABEL":216,"TYPE":"OUTDOOR","NUMBER_OF_SITES":1}},{"type":"Feature","id":233,"geometry":{"type":"Point","coordinates":[-77.00256875293076,38.89853776209424],"bbox":[-77.00256875293076,38.89853776209424,-77.00256875293076,38.89853776209424]},"properties":{"OBJECTID":233,"NAME":"Capitol Hill Montessori @ Logan","ADDRESS":"215 G STREET NE","X":399777.37,"Y":136742.12,"ADDR_ID":286687,"LABEL":37,"TYPE":"INDOOR","NUMBER_OF_SITES":1}},{"type":"Feature","id":234,"geometry":{"type":"Point","coordinates":[-76.97815855940146,38.916140764656596],"bbox":[-76.97815855940146,38.916140764656596,-76.97815855940146,38.916140764656596]},"properties":{"OBJECTID":234,"NAME":"Fleet Management","ADDRESS":"2175 WEST VIRGINIA AVENUE NE","X":401894.38,"Y":138696.42,"ADDR_ID":50951,"LABEL":175,"TYPE":"OUTDOOR","NUMBER_OF_SITES":1}},{"type":"Feature","id":235,"geometry":{"type":"Point","coordinates":[-76.93079876645994,38.88596187224884],"bbox":[-76.93079876645994,38.88596187224884,-76.93079876645994,38.88596187224884]},"properties":{"OBJECTID":235,"NAME":"Nalle Elementary School","ADDRESS":"219 50TH STREET SE","X":406004.16000000003,"Y":135348.37,"ADDR_ID":294474,"LABEL":281,"TYPE":"INDOOR","NUMBER_OF_SITES":1}},{"type":"Feature","id":236,"geometry":{"type":"Point","coordinates":[-77.00444691030762,38.841594123678135],"bbox":[-77.00444691030762,38.841594123678135,-77.00444691030762,38.841594123678135]},"properties":{"OBJECTID":236,"NAME":"Center City PCS - Congress Heights Campus","ADDRESS":"220 HIGHVIEW PLACE SE","X":399614.14,"Y":130420.96,"ADDR_ID":303702,"LABEL":47,"TYPE":"OUTDOOR","NUMBER_OF_SITES":1}},{"type":"Feature","id":237,"geometry":{"type":"Point","coordinates":[-77.04053225052327,38.91917509629289],"bbox":[-77.04053225052327,38.91917509629289,-77.04053225052327,38.91917509629289]},"properties":{"OBJECTID":237,"NAME":"Marie Reed Recreation Center / Marie Reed Elementary School","ADDRESS":"2200 CHAMPLAIN STREET NW","X":396485.22000000003,"Y":139033.81,"ADDR_ID":235577,"LABEL":257,"TYPE":"INDOOR","NUMBER_OF_SITES":2}},{"type":"Feature","id":238,"geometry":{"type":"Point","coordinates":[-76.97448629119847,38.871804606512086],"bbox":[-76.97448629119847,38.871804606512086,-76.97448629119847,38.871804606512086]},"properties":{"OBJECTID":238,"NAME":"Orr Elementary School","ADDRESS":"2200 MINNESOTA AVENUE SE","X":402214.23,"Y":133774.84,"ADDR_ID":294539,"LABEL":296,"TYPE":"INDOOR","NUMBER_OF_SITES":1}},{"type":"Feature","id":239,"geometry":{"type":"Point","coordinates":[-76.95849178224572,38.92002009675133],"bbox":[-76.95849178224572,38.92002009675133,-76.95849178224572,38.92002009675133]},"properties":{"OBJECTID":239,"NAME":"Goodwill of Greater Washington","ADDRESS":"2200 SOUTH DAKOTA AVENUE NE","X":403599.77,"Y":139127.65,"ADDR_ID":286707,"LABEL":187,"TYPE":"OUTDOOR","NUMBER_OF_SITES":1}},{"type":"Feature","id":240,"geometry":{"type":"Point","coordinates":[-77.02733472725916,38.91989310922366],"bbox":[-77.02733472725916,38.91989310922366,-77.02733472725916,38.91989310922366]},"properties":{"OBJECTID":240,"NAME":"Childrens Health Center - Shaw","ADDRESS":"2220 11TH STREET NW","X":397629.74,"Y":139113.09,"ADDR_ID":238963,"LABEL":58,"TYPE":"OUTDOOR","NUMBER_OF_SITES":1}},{"type":"Feature","id":241,"geometry":{"type":"Point","coordinates":[-76.99918678304888,38.91992134706185],"bbox":[-76.99918678304888,38.91992134706185,-76.99918678304888,38.91992134706185]},"properties":{"OBJECTID":241,"NAME":"Engine 12 Station","ADDRESS":"2225 5TH STREET NE","X":400070.72000000003,"Y":139115.87,"ADDR_ID":294541,"LABEL":135,"TYPE":"INDOOR+OUTDOOR","NUMBER_OF_SITES":2}},{"type":"Feature","id":242,"geometry":{"type":"Point","coordinates":[-77.04980043710407,38.90550207629056],"bbox":[-77.04980043710407,38.90550207629056,-77.04980043710407,38.90550207629056]},"properties":{"OBJECTID":242,"NAME":"Engine 1 Station","ADDRESS":"2225 M STREET NW","X":395680.65,"Y":137516.39,"ADDR_ID":294540,"LABEL":133,"TYPE":"INDOOR+OUTDOOR","NUMBER_OF_SITES":2}},{"type":"Feature","id":243,"geometry":{"type":"Point","coordinates":[-77.02631092658103,38.92009188778661],"bbox":[-77.02631092658103,38.92009188778661,-77.02631092658103,38.92009188778661]},"properties":{"OBJECTID":243,"NAME":"Howard University Police Department","ADDRESS":"2244 10TH STREET NW","X":397718.53,"Y":139135.13,"ADDR_ID":301070,"LABEL":215,"TYPE":"OUTDOOR","NUMBER_OF_SITES":1}},{"type":"Feature","id":244,"geometry":{"type":"Point","coordinates":[-76.99647071598433,38.88642057549866],"bbox":[-76.99647071598433,38.88642057549866,-76.99647071598433,38.88642057549866]},"properties":{"OBJECTID":244,"NAME":"Eastern Market","ADDRESS":"225 7TH STREET SE","X":400306.4,"Y":135397.02,"ADDR_ID":300829,"LABEL":128,"TYPE":"INDOOR","NUMBER_OF_SITES":1}},{"type":"Feature","id":245,"geometry":{"type":"Point","coordinates":[-77.04047653437057,38.91934303086983],"bbox":[-77.04047653437057,38.91934303086983,-77.04047653437057,38.91934303086983]},"properties":{"OBJECTID":245,"NAME":"Marie Reed Health Center","ADDRESS":"2250 CHAMPLAIN STREET NW","X":396490.06,"Y":139052.45,"ADDR_ID":303241,"LABEL":256,"TYPE":"OUTDOOR","NUMBER_OF_SITES":1}},{"type":"Feature","id":246,"geometry":{"type":"Point","coordinates":[-76.9917682831133,38.86491305713121],"bbox":[-76.9917682831133,38.86491305713121,-76.9917682831133,38.86491305713121]},"properties":{"OBJECTID":246,"NAME":"Warehouse","ADDRESS":"2250 RAILROAD AVENUE SE","X":400714.60000000003,"Y":133009.55,"ADDR_ID":300056,"LABEL":390,"TYPE":"OUTDOOR","NUMBER_OF_SITES":1}},{"type":"Feature","id":247,"geometry":{"type":"Point","coordinates":[-77.02582746049933,38.92149612350271],"bbox":[-77.02582746049933,38.92149612350271,-77.02582746049933,38.92149612350271]},"properties":{"OBJECTID":247,"NAME":"Garfield Terrace","ADDRESS":"2301 11TH STREET NW","X":397760.5,"Y":139291,"ADDR_ID":284334,"LABEL":185,"TYPE":"OUTDOOR","NUMBER_OF_SITES":1}},{"type":"Feature","id":248,"geometry":{"type":"Point","coordinates":[-76.98291960666006,38.921047494004576],"bbox":[-76.98291960666006,38.921047494004576,-76.98291960666006,38.921047494004576]},"properties":{"OBJECTID":248,"NAME":"Brentwood Recreation Center","ADDRESS":"2311 14TH STREET NE","X":401481.38,"Y":139241.02,"ADDR_ID":286825,"LABEL":26,"TYPE":"INDOOR","NUMBER_OF_SITES":1}},{"type":"Feature","id":249,"geometry":{"type":"Point","coordinates":[-76.97305202939567,38.857538646956286],"bbox":[-76.97305202939567,38.857538646956286,-76.97305202939567,38.857538646956286]},"properties":{"OBJECTID":249,"NAME":"DCHA - Woodlawn","ADDRESS":"2311 AINGER PLACE SE","X":402339.16000000003,"Y":132191.25,"ADDR_ID":286828,"LABEL":96,"TYPE":"OUTDOOR","NUMBER_OF_SITES":1}},{"type":"Feature","id":250,"geometry":{"type":"Point","coordinates":[-76.9948164107172,38.92103844767702],"bbox":[-76.9948164107172,38.92103844767702,-76.9948164107172,38.92103844767702]},"properties":{"OBJECTID":250,"NAME":"Rhode Island Row","ADDRESS":"2350 WASHINGTON PLACE NE","X":400449.71,"Y":139239.89,"ADDR_ID":306519,"LABEL":324,"TYPE":"INDOOR","NUMBER_OF_SITES":1}},{"type":"Feature","id":251,"geometry":{"type":"Point","coordinates":[-77.0398421223972,38.92148110522292],"bbox":[-77.0398421223972,38.92148110522292,-77.0398421223972,38.92148110522292]},"properties":{"OBJECTID":251,"NAME":"Marys Center","ADDRESS":"2355 ONTARIO ROAD NW","X":396545.18,"Y":139289.77,"ADDR_ID":285647,"LABEL":260,"TYPE":"OUTDOOR","NUMBER_OF_SITES":1}},{"type":"Feature","id":252,"geometry":{"type":"Point","coordinates":[-76.97189767996738,38.88979809346226],"bbox":[-76.97189767996738,38.88979809346226,-76.97189767996738,38.88979809346226]},"properties":{"OBJECTID":252,"NAME":"RFK Trailer DDOT","ADDRESS":"2400 EAST CAPITOL STREET SE","X":402438.25,"Y":135772.32,"ADDR_ID":293222,"LABEL":323,"TYPE":"INDOOR","NUMBER_OF_SITES":1}},{"type":"Feature","id":253,"geometry":{"type":"Point","coordinates":[-76.99360654064103,38.86285943336159],"bbox":[-76.99360654064103,38.86285943336159,-76.99360654064103,38.86285943336159]},"properties":{"OBJECTID":253,"NAME":"Savoy Elementary School","ADDRESS":"2400 SHANNON PLACE SE","X":400555.08,"Y":132781.57,"ADDR_ID":278153,"LABEL":331,"TYPE":"INDOOR","NUMBER_OF_SITES":1}},{"type":"Feature","id":254,"geometry":{"type":"Point","coordinates":[-76.97117152271163,38.91372393474667],"bbox":[-76.97117152271163,38.91372393474667,-76.97117152271163,38.91372393474667]},"properties":{"OBJECTID":254,"NAME":"Arboretum Community Center","ADDRESS":"2412 RAND PLACE NE","X":402500.41000000003,"Y":138428.3,"ADDR_ID":296167,"LABEL":11,"TYPE":"INDOOR","NUMBER_OF_SITES":1}},{"type":"Feature","id":255,"geometry":{"type":"Point","coordinates":[-76.97136818900634,38.85264774948907],"bbox":[-76.97136818900634,38.85264774948907,-76.97136818900634,38.85264774948907]},"properties":{"OBJECTID":255,"NAME":"Engine 32 Station","ADDRESS":"2425 IRVING STREET SE","X":402485.48,"Y":131648.37,"ADDR_ID":47304,"LABEL":156,"TYPE":"INDOOR+OUTDOOR","NUMBER_OF_SITES":2}},{"type":"Feature","id":256,"geometry":{"type":"Point","coordinates":[-77.05232329698579,38.907476955475495],"bbox":[-77.05232329698579,38.907476955475495,-77.05232329698579,38.907476955475495]},"properties":{"OBJECTID":256,"NAME":"Francis-Stevens Education Campus","ADDRESS":"2425 N STREET NW","X":395461.95,"Y":137735.74,"ADDR_ID":294544,"LABEL":182,"TYPE":"INDOOR","NUMBER_OF_SITES":1}},{"type":"Feature","id":257,"geometry":{"type":"Point","coordinates":[-76.99368805339478,38.86228452050856],"bbox":[-76.99368805339478,38.86228452050856,-76.99368805339478,38.86228452050856]},"properties":{"OBJECTID":257,"NAME":"Thurgood Marshall Academy PCS","ADDRESS":"2427 MARTIN LUTHER KING JR AVENUE SE","X":400548.01,"Y":132717.75,"ADDR_ID":278159,"LABEL":363,"TYPE":"OUTDOOR","NUMBER_OF_SITES":1}},{"type":"Feature","id":258,"geometry":{"type":"Point","coordinates":[-76.97080704835298,38.85174082148898],"bbox":[-76.97080704835298,38.85174082148898,-76.97080704835298,38.85174082148898]},"properties":{"OBJECTID":258,"NAME":"Garfield Elementary School","ADDRESS":"2435 ALABAMA AVENUE SE","X":402534.22000000003,"Y":131547.71,"ADDR_ID":278160,"LABEL":184,"TYPE":"INDOOR","NUMBER_OF_SITES":1}},